city,名称,id,纬度,经度,评价分数,介绍,封面图片
乌鲁木齐,五一星光夜市,133970,43.787883,87.587265,4.6,五一星光夜市创办于1992年，是新疆近现代由官方设立的第一个夜市，至今在全疆闻名遐迩。它坐落在乌市五一东路、经二路，夜市设有美食一条街和购物一条街，东西小吃一条街全长263米，南北百货一条街全长411米，共设摊位500个。 夜市按照民族风俗习惯对小吃一条街进行了划行规市，民汉分餐，路北为清餐，路南为汉餐，每到夜晚，具有民族风味的烤全羊、烤肉，具有汉族特色的炒三鲜、砂锅等精品食品，香味扑鼻，业主们富有韵味的吆喝声和游客们欢快的笑声交织在一起，使夜市充满着生机、繁华。百货摊位商品丰富，琳琅满目，令人目不暇接。  五一星光夜市目前是中国乃至中亚、南亚、东南亚、西亚、俄罗斯远东地区最大的夜市，与同在乌鲁木齐的国际大巴扎遥相呼应，其规模庞大、数量众多、接待人数最多、品种最为齐全、营业时间最长而闻名于世。,https://dimg04.c-ctrip.com/images/0103x12000kl37omf4BF5.jpg
乌鲁木齐,新疆国际大巴扎宴艺大剧院,11518560,43.779482,87.619625,4.9,新疆国际大巴扎宴艺大剧院是一座集特色建筑、民俗风情、风味美食、餐饮娱乐等为一体的综合性艺术殿堂，有“新疆之窗”“中亚之窗”的美誉，位于乌鲁木齐市天山区。作为展示新疆多元文化和艺术魅力的重要窗口，这里为游客提供了一个深入了解和体验新疆文化的理想场所。新疆国际大巴扎宴艺大剧院是乌鲁木齐市专业的新疆伊斯兰歌舞大剧院之一，传承了新疆有着千年悠久历史的“宴”与“舞”相结合的独特民族待客方式，“巴扎人”将这些宝藏挖掘献与世人，创造出新疆的、中国的、世界的旅游品牌。新疆国际大巴扎宴艺大剧院承袭上古遗风，把千年来的西域歌舞精粹与中华筵席文化合二为一，菜系品种达上百种，正宗的民族烧烤达数十种。新疆国际大巴扎宴艺大剧院以其壮观的建筑设计和先进的舞台设施而著称，内部装饰融合了现代风格与传统民族元素，营造出一个富有新疆特色的艺术空间。每晚，大剧院都会上演精彩的演出，涵盖了传统舞蹈、音乐表演和现代艺术创作，生动展现了新疆丰富的文化遗产和艺术创新。观众可以在这里欣赏到维吾尔族、哈萨克族等少数民族的传统舞蹈和音乐，感受浓郁的民族风情和热情洋溢的表演氛围。新疆国际大巴扎宴艺大剧院是体验新疆风情的理想之地，游客可以在这里品尝地道的新疆美食，欣赏传统民族演艺节目。无论是艺术爱好者、文化探索者，还是寻求新鲜体验的旅行者，新疆国际大巴扎宴艺大剧院都为每一位到访者提供了一次难忘的文化之旅。,https://dimg04.c-ctrip.com/images/1lo0g12000jv6qx3cF2D4.jpg
乌鲁木齐,新疆师范大学-体育馆,7439751,43.832058,87.590165,0.0,,https://dimg04.c-ctrip.com/images/0HJ3z12000g2v9d8w5896.jpg
乌鲁木齐,新疆维吾尔自治区博物馆,12428,43.819402,87.583696,4.8,新疆维吾尔自治区博物馆位于乌鲁木齐市沙依巴克区，是新疆的省级博物馆。博物馆内展示了新疆的历史和各民族的民俗风情，还有干尸馆等国内罕见的展览，展品非常具有新疆特色，有名的“楼兰美女”古尸、“五星出东方”汉代织锦等文物也都可以在这里看到，是乌鲁木齐市内不可错过的景点。博物馆是一座现代化的三层大楼，但也融合了新疆的拱窗、圆顶等建筑风格，很有特点。馆内有几个常设展馆。一楼是新疆民族风情展和新疆古代历史文物展；二楼分为左右两侧，左侧是历代织品展厅和“永远和祖国在一起”主题展览，右侧是古代干尸展和白玉展厅。另外，馆内还经常有一些临时展览和陈列，赶上的话可以前去观看。新疆民族风情展馆在一楼，介绍了维吾尔、哈萨克、蒙古、锡伯等12个新疆主要民族的民俗风情，里面可以看到他们的乐器、生活用品和毡房屋子等展示，还有帽子、围巾等特色服饰，色彩大多艳丽，极具新疆的少数民族风情。比较有特点的是锡伯族的房屋，由于该族是由东北迁来，可以看到他们居住的屋子里还有东北传统的火炕。另外，充满俄罗斯族风情的家具和餐具用品等也十分具有特色。新疆古代历史文物展则由古至今，展示了丝绸之路上多种的出土文物，其中有汉代和唐代的很多中原器物，很有中国古代特色。还有西域的众多文物，可以看到天使等形象的壁画，还有很多西域特色的物件等，是西疆作为东西方联系纽带独有的文物特点，不可错过。二楼的干尸陈列和“永远和祖国在一起”陈列是馆内的精华展览。干尸馆内展示了几千年前古人的尸体，由于新疆气候干燥，这些尸体也免于腐败得以保存至今，非常珍贵。其中的“楼兰美女”古尸更是全馆的精华之一。“永远和祖国在一起”展览中，有“五星出东方”织锦、汉归义羌长印等珍贵文物，其中“五星出东方”织锦更是珍贵，关于它的传说十分精彩，一定要了解一下。,https://dimg04.c-ctrip.com/images/010011200095zco2o35D3.jpg
乌鲁木齐,红山公园,4444,43.808035,87.606468,4.6,公园的主体红山由紫色砂砾岩构成，山体呈赭红色，十分独特。在园内可以漫步林间、泛舟湖上，可以参观佛寺雕像等人文建筑，可以体验到各种游乐项目，登上山顶还能俯瞰市区的全景，游玩内容丰富，是区内放松休闲的好去处，也是外地游客游玩乌市不能错过的景点。公园面积不大，长宽在五六百米左右，进入后步行游览即可。园内有一座红山，海拔约有九百多米，但是与山下落差大约仅有一百几十米，山路间树木很多，环境很好。这里爬山不累，需要半小时左右，如果体力不足也可以乘坐从山下直达山顶的观光车。公园主要在东侧有几个入口，入口稍微有些难找，从友好百盛等其他区域看到公园后需要从东侧绕一下，从红山路北一巷和新民西街处再向西进入。游玩时主要有红山塔、大佛寺和远眺楼等几个区域。红山塔位于西侧的红山顶上，是一座九层的锗红色塔，与下面的红色山体颜色一致，非常特别。在红山塔处可以拍摄下面市区的全景，视野非常开阔。远眺楼位于公园内，也在山顶区域，这里也可以拍摄市区全景，不过与红山塔处差别不太大，不建议购票上去，在红山塔看看就很不错。大佛寺位于公园北侧，是一座仿古寺庙，可以供游客拜佛祈福。,https://dimg04.c-ctrip.com/images/0106j120009zdcsde209F.jpg
乌鲁木齐,新疆国际大巴扎,133968,43.779984,87.618014,4.5,新疆国际大巴扎是集特色建筑、民族商贸、歌舞演艺、特色美食、珠宝玉器等丰富业态于一体的AAAA级景区、文化产品聚集地和展示中心。作为国家认定的文化产业示范基地、新疆文化创意产业平台，每年人流量超过千万人次，是乌鲁木齐市重要的文化旅游地标建筑，现已成为一张新疆文化旅游金名片，更是一扇对外的“新疆之窗”、“中亚之窗”和“世界之窗”。,https://dimg04.c-ctrip.com/images/10011f000001h37tn1715.jpg
乌鲁木齐,达坂城风力发电站,120665,43.607356,87.782421,4.6,达坂城风力发电站位于乌鲁木齐市区与达坂城区之间的公路旁，是全国较大的风能基地。发电站由数百座巨大的发电风车组成，风车脚下的则茫茫无际的戈壁滩，景色十分壮观，深受摄影爱好者们的喜爱。一般游客参观发电站都是开车从乌鲁木齐到吐鲁番等地时路过的，发电站就位于公路旁边，在车上便可以看到，若是乘坐公共交通到此一定不要睡过去，可以在车上拍拍照片，也十分不错。如果是自驾，则可以下车拍摄，在连霍高速位于柴窝堡立交桥西侧约三公里的地方有专门的停车场可供游客停车摄影。如果是走G314国道，更可以停车走下马路，步行一段时间便可置身于巨大的风车矩阵里，近距离的观察风车。达坂城风力发电站内共有约一百多座风车，连绵长约80公里，宽约20公里，风车脚下是茫茫无际的戈壁，十分壮观。而且此处降雨极少，大部分时候都是蓝天白云的明媚天气，巨大风车在晴空下摇曳，非常漂亮。而由于地平线一望无际，这里的朝阳和夕阳往往更加火红，每天日出日落时，风车背后天光似火，更是拍出摄影大片的好时机。,https://dimg04.c-ctrip.com/images/0101g12000f6tty3oF6E9.jpg
乌鲁木齐,水磨沟风景区,4496,43.827304,87.657355,4.7,水磨沟公园位于市区东侧城郊，是市内规模较大的公园，园内有小桥流水、亭台楼阁，环境优美，漫步观赏十分不错，还有人文古迹、娱乐项目等，是当地居民周末放松出游的好去处。水磨沟公园面积很大，长宽大约都有几公里，园区内有观光车，可以乘车游玩。在公园内，有湖水、树木、金鱼和假山等，环境非常不错，另外还有纪晓岚、左宗棠等历史名人的雕像等，都可以一一参观。园区里有一些儿童游艺项目，湖上可以泛舟划船，都适合带小朋友前来游玩。除了参观公园外，水磨沟还是有名的温泉胜地，在公园西侧，有维斯特假日温泉酒店、雪莲山高尔夫温泉水疗会所等。,https://dimg04.c-ctrip.com/images/10021f000001gxe757559.jpg
乌鲁木齐,博格达峰,4650,43.801491,88.337632,4.6,博格达峰，海拔5445米，周围分布着113条冰川，冰雪融水汇聚成30多条河流。博格达峰是一座神圣之山。古往今来，生活在这里的人们，无不视为守护之神，称其为“天之通道、地之轴心、神之居所”。博格达峰是人类古老的祭天之地。祭天是中华民族古老文化顶端的祭祀，而围绕博格达主峰的祭天活动几千年来从未曾中断，这一古老的传统从新疆史前时期一直沿袭至清代。清乾隆年间，博格达峰被正式列入国家祭奠的名山序列，尊称为“福寿山”。,https://dimg04.c-ctrip.com/images/100a1f000001grkit6494.jpg
乌鲁木齐,新疆盐湖景区,56667,43.385268,88.128031,4.2,新疆盐湖景区新建盐雕艺术群、心灵之浴、室外漂浮、盐滩、徒步道，还增加了游船、卡丁车、滑草等娱乐项目，以旅游、度假、养生为主的新盐湖景象。地理坐标为东经88°1′00″-88°13′16″，北纬43°21′14″-43°29′8″，地理位置为乌鲁木齐市达坂城区314国道盐湖化工厂内。在这里可以乘小火车深入湖中观光，可以观看现代化大型采盐船采盐时喷水吞珠的壮丽场景，可以欣赏盐湖日出和晚霞的绚丽画卷，可以透过清盈的湖水，观赏形状各异、正在生长的栩栩如生的朵朵盐花，探求湖底世界的神秘，还可以领略到涨潮后湖面上留下的滚滚盐涛奇观。,https://dimg04.c-ctrip.com/images/100t1f000001gqbnjC2F6.jpg
乌鲁木齐,乌鲁木齐植物园,56921,43.890854,87.556344,4.6,乌鲁木齐植物园现有月季园、宿根花卉区、种植示范区、荒漠植物区、草坪游览区、忍冬区、药用植物区、果树区、蜜源植物区、蔷薇植物区、松柏区等十一个园区，引进各类植物已达600多种，包括新疆野生濒危植物灰杨、胡杨、西伯利亚红松、中国丽豆、锦鸡儿属、鸢尾属植物等。其中宿根花卉区是较好的风景游览点，它栽植了500余株40多个名贵品种的芍药，另外多种花色的鸢尾、耧斗菜、荷包牡丹、蓝亚麻、福禄考等竟相开放，形成了繁华似锦、三季有花，令游人驻足的景观。,https://dimg04.c-ctrip.com/images/0104e12000kpy7xgxC71B.jpg
乌鲁木齐,乌鲁木齐水上乐园,56919,43.754593,87.613915,4.2,乌鲁木齐水上乐园地处市区南部，是全疆的一座集园林艺术与娱乐为一体的综合性游乐园。乐园地貌独特、风景宜人、空气清新，甬道两边绿草如茵。180平方千米的自然水域，分布着野生芦苇，形成了天然的生态林地，碧波荡漾的水面，快艇、游船在水色黛碧的湖面上穿行。民族建筑是乐园的一大特色，三百米的观景长廊伫立在前区，高大雄伟，反映地域文化的凉亭，依湖而立，美丽壮观。乐园现有各类游乐设施60余项，划分为水面游乐园、陆地游乐区、旅游观光区、林地休闲区、商饮服务区、公共活动区六大区域。园内有超大型的“三环原子滑车”、58米的巨型“摩天轮”、全国四个超高组合的“蹦极塔”、“时空穿梭自由塔”等，在湖的南岸，以新疆特有的葡萄、果木、月季花组成的花果园为水上乐园构成了一道更加亮丽的风景线。,https://dimg04.c-ctrip.com/images/0101912000f6t5d3iF04C.jpg
乌鲁木齐,新疆古生态园汗血马基地,120818,43.854002,87.576829,4.6,新疆古生态园汗血马基地位于乌鲁木齐市区鲤鱼山上，始建于2005年，占地近300亩，园内有硅化木、胡杨木、黑铁陨石、草原石人、硅化木、普氏野马、汗血宝马等大量珍稀生态资源，园区还配套有 “野马-丝路驿站文化主题酒店”。这些景观融合在一起，形成了新疆古生态园“马、画、园、店”四大主题。目前，新疆古生态园汗血马基地被自治区旅游局命名为“文化旅游景区”，被自治区文化厅命名为“自治区文化产业示范基地”。是新疆自然博物馆协会成员单位，国家古化石博物馆基地、新疆生态文明教育基地等。2016年6月，上海合作组织提名新疆古生态园汗血马基地为“上合文化产业示范基地” 。因此，新疆古生态园汗血马基地不仅是文化旅游主题景区，也是一带一路的文化交流的基地。,https://dimg04.c-ctrip.com/images/0104p12000f6re2do1F44.jpg
乌鲁木齐,红山塔,120852,43.80767,87.60195,4.5,红山塔位于乌鲁木齐市西大桥北侧的红山之峰(现红山公园内)，与雅玛里克山砖塔遥相对应。红山宝塔高10.6米，为六面九级青砖实心塔。该塔西面是悬崖峭壁，形如蟾蜍昂首；东面是红山东西走向的延伸部分；南北两面是陡坡。红山塔由塔基、塔身和塔刹三部分组成。平面呈六角形。塔基高l米，每边长2.26米；塔身每级间高约0．9米。塔檐叠涩挑出，收分较明显。砖塔建筑结构严谨，造型美观，建造得相当坚固。红山宝塔历经200多年的风雨变迁，至今完好无损地矗立在悬崖顶端，堪称乌鲁木齐一绝。“塔映夕阳”是乌鲁木齐老八景中第一个奇特的景观。每当夕阳西照，虎头峰断崖红光熠熠，整个峰峦红光四射，宛如神话中的宝光出现，又似瑶池仙境巧移红山。红山宝塔在夕阳的余晕中，塔影斜长，呈现出迷人的风姿，故称“塔映夕阳”。 参观红山塔，如唐人孟浩然所吟：“人事有代谢，往来成古今。江山留胜迹，我辈复登临。”,https://dimg04.c-ctrip.com/images/0105612000f6turf56BC2.jpg
乌鲁木齐,人民公园,4657,43.798344,87.604192,4.7,人民公园平均海拔800米，位于“长桥饮马”雕塑西面百米处。这里原先只是乌鲁木齐河西岸的一片湖沼，四周古树蓊郁。清乾隆二十年（1755年）建造乌鲁木齐城时，将该地辟为官员休憩之地。光绪九年（1883年）开始建园。1918年主政新疆的杨增新又予以扩建，疏浚湖底，整修湖岸，仿照古代中原地区殿堂式样，建造了丹凤朝阳阁，后又建龙王庙、醉霞亭、晓春亭、鉴湖亭，还有为纪念清代大学者纪晓岚而建的“阅微草堂”等。现在园中林木参天，花草遍地。有曲径通幽的园中园，光怪陆离的“水晶宫”，亭旁庭前的雕塑，还有儿童游乐园及旱冰场等景点设施。由春及秋，时有花卉展、盆景展、书画展、摄影展。隆冬三九常举办冰雕盛会及开展滑冰运动。,https://dimg04.c-ctrip.com/images/1A0313000000tzu3uEBE0.jpg
乌鲁木齐,达坂城古镇景区,56673,43.328185,88.338054,4.3, 达坂城白水镇位于天山脚下，达坂城盆地的南端，扼进出天山的关口，是南北疆的分界线，自古即是丝绸之路的必经之地。白水镇是一个风口，当地有民谣说：“达坂城、老风口、大风小风天天有，小风刮歪树，大风飞石头。”人们调侃说，这里的风一年只刮一次，从冬天刮到春天。由于冬季长期受风力作用，这一带的树均长不高，树干无一例外向东南方向倾斜，形成了特色的达坂城”三怪”之一，又称为“马刀树”、“风向树”，别具一格。但是一旦到了夏季，大风就停止了。气候适宜，微风拂面。作为丝绸之路的重要驿站，白水镇有民俗陈列馆、王骆宾艺术馆、百水驿站、茶肆、马厩等相关展示。更有仿唐代西域风格建筑，护城河、吊桥、烽燧、兵器台，生动再现了当年“古戍依重险，高楼见五凉，山根盘驿道，河水浸城墙”的大唐盛世边关军镇的威武雄姿。,https://dimg04.c-ctrip.com/images/100k1f000001guem856AF.jpg
乌鲁木齐,柴窝堡湖,4655,43.500301,87.907405,4.9,柴窝堡湖呈圆形，似核桃状，面积约为28平方公里，湖水稍咸，由博格达峰及公格尔峰融雪汇集而成，是一个冷水性湖泊，水平如镜，清可鉴人。站在湖畔，旅游区内绿树成荫，湖边有草原，有林带，有田园，有荒漠，更有湿地沼泽，芦苇丛生。远处是茫茫雪山，近处是一潭碧水，有时微风拂面，树丛芦苇迎风摇曳，渔船穿梭，海鸥飞翔，令人乐而忘返，而有时又是大风肆虐，湖水浊浪排空，苍苍茫茫，景色壮观，天地间仿佛可见到流动的空气，这里白天天高云淡，空气清新，自然风光令您心旷神怡；夜晚繁星点点，抬头仰望，星空近得仿佛触手可及，令你分不清星光和灯光。,https://dimg04.c-ctrip.com/images/0106a12000dlniny08FF7.jpg
乌鲁木齐,红山公园大佛寺,120766,43.809785,87.60565,4.7,红光山大佛寺位于乌鲁木齐北面卡子湾附近的红光山，大佛寺山门红光山大佛寺建筑群始建于2002年，于2010年完工，历时8年，是中国西北的一个汉传佛教寺庙。大佛寺的山门，宽17米，高15.6米，高大雄伟，正面是新疆书法家协会副主席张沧书题写的“觉世大慈”，背面是书法家闵荫南题写的“悯世大悲”。红光山释迦牟尼佛始建于2002年7月19日，2004年底完工，历时两年，佛像通高40.8米，直径14米，佛手高5.7米，佛的耳朵高达2.6米。释迦牟尼金身像背后，是一组建筑群，占地面积约3万平方米，寺院坐东向西，主要有大雄宝殿、五百罗汉堂、千手观音殿、地藏殿、钟鼓楼、厢房等，建筑风格跟内地汉传佛教寺庙大体一致。,https://dimg04.c-ctrip.com/images/0102s120008ibt77e4C76.jpg
乌鲁木齐,五彩湾风景区,133975,44.911767,87.89171,3.3,五彩湾是一幅大自然的杰作。千百年来，由于地壳的运动，在这里形成极厚的煤层，后几经沧桑，覆盖地表的沙石被风雨剥蚀，使煤层露出，在雷电和阳光的作用下燃烧殆尽，就形成了这光怪陆离的自然景观。五彩湾地貌起伏，奇峰怪石，千姿百态，或蜿蜓如巨蟒；或威武似雄狮；或典雅如仕女；或玲珑似宝塔；让人扑朔迷离，应接不暇。适逢黄昏，登高远望，整个五彩湾被落日点燃，如火如炽，让人心潮澎湃，热血沸腾。  五彩湾不但风光雄奇，而且还是一座天然宝库，储藏着丰富的石油资源和大量的黄金、珍珠、玛瑙、石英、铁、铝、锌等20多种矿产。在沙漠植被地带还栖居着野驴等珍禽异兽。此外，这里还有许多如恐龙沟、硅化木、金矿等自然景观和人文景观。  ,https://dimg04.c-ctrip.com/images/0101d120009cylu5hD9B9.jpg
乌鲁木齐,天山野生动物园,56663,43.678339,87.808404,4.0,天山野生动物园也称为博格达南麓野生动物园，位于达坂城区原天山牧场二队，东临乌拉泊牧场、西至白杨沟村、南距吐乌大高速公路约1公里、距离乌鲁木齐市区25公里，北到柳木湖，占地63.12平方公里。天山野生动物园展馆有虎馆、狮馆、豹馆、熊馆、猴岛、白虎馆、大象馆、河马馆、长颈鹿馆、斑马馆、猩猩馆、科普馆、旅游商店、儿童乐园等。,https://dimg04.c-ctrip.com/images/01041120009zdd5kt4D13.jpg
乌鲁木齐,陕西大寺,4656,43.789437,87.621038,4.7,陕西大寺又名东大寺，始建于清朝，寺院较大，可同时容纳上千人做礼拜。这座隐藏在高楼大厦中的古老建筑，有着浓厚的中国式建筑风格。陕西大寺为庭院式建筑，坐西向东，大殿为古代传统砖木结构、琉璃瓦顶，高达10余米，系古老的砖木结构，风格颇似中国古代宫殿，前部为单檐歇山式，屋顶铺嵌着绿色琉璃瓦。大报周围走廊有36根红圆木柱，规模宏伟，十分壮观。大殿后部为上八下四的重檐式的“八角楼”，名叫望月楼，是阿訇登临观看月亮出没，宣告斋戒的场所。殿内四壁和门窗的装饰，刻工精美，砖雕木刻均采用花卉、瓜果等各种图案。大殿前面是宽敞的大院，除西面外，各面均建有厅堂。北厅是讲堂，南厅为浴室，东厅是各地阿訇进修之所。,https://dimg04.c-ctrip.com/images/10080j0000009zchtFEDA.jpg
乌鲁木齐,揽秀园,120923,43.805689,87.600249,4.8,"揽秀园，相邻人民公园和红山公园，面积不大。园内的建筑采用清代风格，园内集中种植了新疆境内稀有的乔、灌木。是打发时间、锻炼身体的好去处。揽秀园是红山公园的一部分。揽秀园以&ldquo;文星桥&rdquo;、&ldquo;仿古街&rdquo;为中心，分南、北两园，以仿苏式园林建筑风格为主。其中有棋盘广场，它是以国际象棋和中国象棋著名残局为主题精心设计制作的小品广场 , 是乌鲁木齐市颇具代表性的十个景点。其中包括：红山公园、人民公园等。揽秀园正门左侧是乌鲁木齐十大商场之一的红山商场。",https://dimg04.c-ctrip.com/images/10030z000000nlcpqF3D7.jpg
乌鲁木齐,红山公园-远眺楼,1703486,43.808073,87.603406,4.5,远眺楼位于公园中心处，在山顶区域，可以拍摄市区全景。近年，红山公园对远眺楼进行布景升级改造，在全疆首次引进人工造雾设备安装在环楼三层阶梯护栏上。该系统利用微孔高压撞击雾化原理，由高压动力装置自动控制与检测，水从微孔雾化喷出，配合荷艺盆景和各类水生植物、盆景，营造了“清香宜人、人间仙境”的优美意境，切实提升了景观美化效果，并起到降温、加湿与除尘的作用。,https://dimg04.c-ctrip.com/images/01053120009f0dzzvB6B8.jpg
乌鲁木齐,新疆地质矿产博物馆,56912,43.826956,87.588272,4.4,新疆地质矿产博物馆前身是新疆地质局地质陈列室，是介绍新疆找矿成就、普及地质学及相关科学知识的专业展馆。踏进博物馆，大厅地面是一幅巨大的新疆卫星照片，清晰的展示了新疆的山川地貌。左边是宇宙地球厅，系统的展示了宇宙和地球。右厅的生命演化厅，以大量的化石标本和模型，解释了生命的进化。二楼三楼是矿产资源厅，展示的是新疆的各种矿产资源。四楼的旅游地质厅，用一张巨大的新疆旅游地质沙盘和微缩景观模型，把新疆与地质作用相关的主要景点的旅游线路、景点概貌、特征等，清晰的呈现出来。,https://dimg04.c-ctrip.com/images/0100y12000ikpskyr893F.jpg
乌鲁木齐,新疆科技馆,120917,43.834057,87.577763,4.3,科技馆建筑面积约一万平方米，是自治区成立30周年十大献礼工程之一。展厅共四层，一层为临展厅，除科普小剧场、科技文化室外，主要引进展示国内外科技馆推出的重点巡展，如从现在开始将在科技馆新馆举办“科技圆梦想、和谐迎奥运”大型奥运科普互动体验展，日本未来馆“65亿人的生存环境”大型主题展览等；二层为科技乐园展厅，主要包括虚拟世界、视听乐园、设计师的摇篮等板块；三层、四层为新疆产业科技之光展厅，主要包括石油工业、人水和谐、通信科技、气象科技、测绘科普地理信息、人与健康等内容。,https://dimg04.c-ctrip.com/images/0102j120009skaobn013F.jpg
乌鲁木齐,儿童公园,56920,43.832664,87.581232,4.4,乌鲁木齐市儿童公园位于市中心，与新疆人民会堂、新疆国际博览中心接壤，占地约20万平方米，是新疆惟一一个集科普教育、游艺娱乐、园林观赏为一体的综合性儿童公园。公园每年都举办大型活动，如“乌鲁木齐大型花卉造型展”等，吸引了各族游客前来参观。,https://dimg04.c-ctrip.com/images/0101v120009skagctCE44.jpg
乌鲁木齐,新疆国际会展中心,1703183,43.878089,87.621121,4.8,新疆国际会展中心是中国西部地区面向中亚、规模较大、功能较全的国际性会展中心之一，是新疆维吾尔自治区乌鲁木齐市的城市标志性建筑，“中国—亚欧博览会”的举办地，是集会议、展览、大型庆典活动为一体的国际性场馆。新疆国际会展中心造型宛如一轮升起的明月，取“明月出天山”的意境。新疆国际会展中心的两边还将修建一对张开的钢结构“翅膀”，寓意新疆维吾尔自治区蓬勃发展。,https://dimg04.c-ctrip.com/images/0100g12000axe3mdaA7DB.jpg
乌鲁木齐,毛泽民故居,120697,43.792462,87.623083,4.7,毛泽民故居位于乌鲁木齐市明德路29号，首先进入眼帘的是一座铜像和大树。铜像由烈士之子毛远新捐赠，净高1.9米，形象栩栩如生。在新疆，毛泽民是很多人都熟悉的财政厅、民政厅“周厅长”。基本陈列：《毛泽民故居复原陈列》　毛泽民故居于1940年8月建成，为土木结构的两间半平房，同年烈士迁入居住，直至1941年7月迁出。1987年7月1日，故居维修后正式陈列展出《毛泽民生平事迹展》。2005年维修、扩建后，新增了烈士的铜像。《毛泽民生平事迹展》　真实再现了毛泽民同志担任新疆省财政厅代厅长时的生活状况及工作环境。全面记录了毛泽民同志光辉的一生，突出反映了毛泽民同志自1938年～1943年为新疆各族人民的解放事业建立的不可磨灭的功绩。,https://dimg04.c-ctrip.com/images/0100512000f6sgs7m0E2D.jpg
乌鲁木齐,乌鲁木齐银行(乌鲁木齐水磨沟区支行),1702867,43.82886,87.627873,4.8,乌鲁木齐市明德路西端，有一栋斯拉夫风格的二层建筑，这里是中国工商银行新疆分行营业部明德路支行所在地，当地人喜欢叫它“大银行”。二十世纪三十年代初，新疆省银行在这里定址。1939年，新疆省银行改组为新疆商业银行，毛泽民出任第—届理事长。1943年至1945年间，新疆省商业银行在此建成斯拉夫风格建筑，并以其朴实亲民的经营风格在新疆树立了良好的信誉和口碑，人们亲切地称之为“大银行”。,https://dimg04.c-ctrip.com/images/0102e120009s812hmF18F.jpg
乌鲁木齐,塔塔尔寺,4658,43.77958,87.616517,4.5,塔塔尔寺系塔塔尔族人士于1897年捐资所建，1919年当地一家德和洋行又出资重新修建，故又称洋行大寺。该寺占地3千余平方米，其中礼拜堂约占8百平方米，前廊柱多雕花彩绘，装饰华丽。礼拜堂4间，满铺地毯，可容千人礼拜。塔塔尔寺是乌鲁木齐市区维吾尔、塔塔尔、乌孜别克等民族宗教活动的主要场所，周围的许多建筑，具有浓厚的中亚风情。,https://dimg04.c-ctrip.com/images/0106k12000f6pv2gi85F8.png
乌鲁木齐,鲤鱼山公园,1702982,43.85102,87.580239,4.8,鲤鱼山公园是乌鲁木齐市内较大的原生态公园，园内没有游乐设施，以自然景观为主。鲤鱼山公园东门附近的街心花园大约5000平方米，摆放了包括象棋桌、乒乓球案、健骑机等近百套健身设施，是居民休闲锻炼的好去处。,https://dimg04.c-ctrip.com/images/0103m12000f6sjnwl0BF4.jpg
乌鲁木齐,乌拉泊古城,56661,43.638121,87.615778,3.0,乌拉泊古城位于乌拉泊湖畔，距今已达千年左右。据考证，唐朝边塞诗人岑参的名诗《白雪歌送武判官归京》中“轮台东门送君去，去时雪满天山路”所说的“轮台”就是乌拉泊古城。古城背倚天山，东扼吐鲁番和南疆的必经要道天山白杨沟口，位居要冲。古城略呈方形，周长逾两公里。城墙为土砖夯筑，残高达七米左右。四个城角处仍存有方形角楼遗迹。古城内，又以三道夯筑土墙将古城分为3个部分，隔成东北、西北和南面3个子城。古城内到处散布着唐、宋时期的陶片，也曾出土过少量元代瓷片。附近的农民还从古城内拾到过许多清朝各代的圆形方孔铜钱。乌拉泊水库附近曾经清理过约二十座古墓，这些古墓被认为是春秋战国直到汉唐时期的古墓，有的古墓由石头一圈圈地垒成，这是车师人墓葬的神秘习俗。而在古墓附近出土过一种巨人的部分遗骸，证明这里早前的居民是一种比现代人还高大的人种，但是有关这个人种的所有一切还都是个谜。,https://dimg04.c-ctrip.com/images/0104b12000b1f5v9h95C3.jpg
乌鲁木齐,大巴扎歌舞晚宴,137703,43.779429,87.617604,4.0,大巴扎歌舞晚宴是新疆民族歌舞、文化、饮食结为—体的大型歌舞宴会。在国际大巴扎餐厅内，每晚都会上演具有浓郁新疆民族风情的精彩表演。在这里，无论是视觉、味觉、听觉、嗅觉、触觉，都可以感受到别样的异域风情。大巴扎晚宴以分餐制为主，辅以新疆维吾尔族特色的歌舞表演，其间还穿插了阿拉伯舞蹈和乌兹别克斯坦的演唱组合表演，在大饱口福的同时更可大饱眼福。,https://dimg04.c-ctrip.com/images/0306p120009ns7ubnE2C4.jpg
乌鲁木齐,乌鲁木齐文庙,56915,43.8022,87.62953,4.7,乌鲁木齐文庙是一组砖木结构清代宇式建筑，建有前后大殿及东西两侧两组配殿，并有对称的两座钟鼓楼，前方正大殿飞檐斗拱，青砖筒瓦、雕梁画栋，钩心斗角，整体建筑，雄浑庄重，古色古香，雅致清幽。765－1767年清政府扩建乌鲁木齐城时，在后来的文化路（旧称文庙巷）建造了文庙，此文庙后来已无任何遗迹可寻。1884年新疆建省后，为纪念收复新疆的阵亡将士，遂在后前进路建造了昭忠祠。清朝灭亡后后改称忠烈祠。后来，原文庙内的木质孔子牌位被移到这里，忠烈祠变成了后来的文庙。这时的文庙，既祭祀孔子，也祭祀道教中掌管人世功名利禄的尊神“文昌帝君”。整个文庙占地2800平方米，呈中国传统古建筑风格，面阔三间，进深二间，有山门、前殿、大殿、两祖东、西厢房及钟楼、鼓楼。文庙开辟有孔子大成殿复原陈列，集全国文庙三特点，将孔子、四像、十二哲融为一室，大型雕像、高浮雕立像，个个栩栩如生，令人肃然起敬，《万世师表》、《生民未有》等匾额悬挂在孔子佛龛之上。孔子座像前摆放着各种祭器，供游人参拜。,https://dimg04.c-ctrip.com/images/1me1d12000ei4cxm592B3.jpg
乌鲁木齐,沙漠绿洲水疗会所,1415289,43.881645,87.528347,4.3,沙漠绿洲水疗会所位于经济技术开发区中亚北路，是一所星级标准的美健水疗会所。其亮点在于集水疗、康体健身、美容、餐饮娱乐等多元服务于一体，提供全方位的休闲放松体验。会所建筑面积广阔，设施齐全，是城市中的一片绿洲，让顾客在工作之余能够彻底舒展身心，享受专业星级服务。,https://dimg04.c-ctrip.com/images/0106z12000co99jfqB4F2.jpg
乌鲁木齐,燕儿窝风景区,46722,43.718021,87.588192,0.0,燕尔窝东依燕儿崖，西临乌鲁木齐河，有许多小燕山。春天，燕子飞舞鸣唱；夏秋，高大挺拔的榆树、杨树、槐树和丛丛蔟蔟的野玫瑰、野蔷薇以及盛开着红、黄、蓝、白、紫各色花朵的灌木，将这里点染成了一片鲜艳的世界。隆冬，冰封雪飘，银花满树，情趣无限。燕儿窝林地是乌鲁木齐首府的&ldquo;天然绿色空调&rdquo;，更是防风护沙的天然屏障。传说：古代有一位名叫&ldquo;燕尔&rdquo;的英雄少年，他跃入此河怒斩了兴妖作怪的河中蛟龙，平息了洪水，然灵魂却化作了千万只小燕儿，使这里从此变成了&ldquo;燕尔仙境&rdquo;。,https://dimg04.c-ctrip.com/images/0100112000bblt9db68B4.jpg
乌鲁木齐,西山老君庙,120893,43.801335,87.523334,3.7,西山老君庙位于乌璐木齐市区西侧，是一座拥有两百多年历史的道观，也是新疆历史上历史较悠久、规模较大的道教建筑，在当地，这样的道观显得独特少见。如今的西山老君庙是在2003年在原来破败不堪的遗址上重修的，整个道观纵深约有150米，大致可以分为前后两个院落，院落内主要有老君殿、药王殿、文昌殿、玉皇殿等等，各个殿宇各自供奉着一些道教的神灵，可以前来祈福。在道观内步行游玩，一一参观拜觐，大约1-2小时即可。 ,https://dimg04.c-ctrip.com/images/0102r120009dlzojg066B.jpg
乌鲁木齐,妖魔山,46719,43.771018,87.560503,4.4,妖魔山外缘周长约16公里，山体表而积约40平方公里。从地貌及地理位置上看它位于准葛尔盆地南缘，属于荒漠区。强烈的干热气候给这里留下深刻烙印，春秋两季较湿润，干旱相对不明显，夏季干旱，热量充足，冬季漫长而寒冷。在当地民间曾流传着“云罩妖魔山，地上水漂船”的民谣。当年屯田筑坝的清代军民，为了乞求妖魔山晴雨以遂人愿，在妖魔山尾部蜘蛛山修建八腊庙，供奉地神、农神、田神、虫神等八位与农事有关的神求吉祈福祉。因此，妖魔山又被称为富寿山、灵应山。如今美好的祈盼已变为现实，现在的妖魔山已是绿树成荫，东可望白雪皑皑的博格达峰，西可赏赤火通红的西山落霞，北可看鲤鱼翻跃逐浪，南可见燕戏碧水荡漾间。,https://dimg04.c-ctrip.com/images/0104b120008ferighB431.jpg
乌鲁木齐,新疆人民会堂,4660,43.831788,87.584176,4.4,这里是一座民族、地方、现代色彩兼具的大型建筑，建筑面积29000平方米。会堂前厅镶嵌着目前我国较大的一幅巨型大理石壁画－《天山之春》。礼堂中的自动可变舞台，是我国目前较长的大舞台（通长32米）。正厅三层，设有3160个带小桌的观众席位，并备有8种语言的“译意风”装置，侧厅亦为三层，分圆桌会议厅、多功能厅和13个地、州会议厅。正、侧厅有联廊相接。整个建筑，浑然一体，雄伟壮观。,https://dimg04.c-ctrip.com/images/0105v120009sk9zbtBA63.jpg
乌鲁木齐,汗腾格里清真寺,4659,43.790537,87.618497,4.8,汗腾格里寺位于乌鲁木齐市南门，因地处南门，又称南门大寺，是乌鲁木齐市内较大的维吾尔族清真寺之一。大寺坐西向东，造型美观。汗腾格里寺为塔楼型，分四层，地上地下各两层。底层为寺院商场，二层是寺院生活用房，第三层为礼拜大殿，四层则是经学班教学楼。,https://dimg04.c-ctrip.com/images/0103312000f6sd4jeA5E7.png
乌鲁木齐,乐8小镇,1678551,43.775156,87.590854,4.5,西北较大的儿童角色体验乐园——乐8小镇是西北地区比较大的儿童社会角色主题乐园，其全国少儿育乐模式，通过主题体验设计、立体的角色游戏，培养志趣，发掘孩子动手能力、协调统筹、团队合作和战胜挫折等四大关键能力，让孩子一生受益。,https://dimg04.c-ctrip.com/images/100t1f000001gqbgdB25F.jpg
乌鲁木齐,乌鲁木齐海洋馆,1409059,43.761781,87.611575,4.4,该海洋馆由盛贝特海洋水族馆有限公司兴建，于2001年4月建成正式开馆迎客。海洋馆位于乌市燕尔窝路2号，与新疆大型的游乐园水上乐园相邻，和南郊客运站相对，相距300米有公交车始发站，交通很便利。经过十多年经营、扩建，海洋馆现有展区面积8000平方米。馆内有独特的大水体画廊，是以展示奥妙的海洋动物与海兽表演为主题的综合性海洋馆，有各种海洋、淡水鱼类400多种，每天有精彩海狮、海豹表演、水下表演等项目。海洋馆设有热带观赏鱼展区，海洋生物展区，潜水表演区，海兽剧场，鳄鱼馆，鳐鱼馆，贝壳展馆和休闲购物等区域组成，每个展区、展馆都有自己鲜明的主题来展示、说明不同的物种、不同区域及环境下水生动物的特性。2012年9月有对原老的场馆进行装修改建，并新建“梦幻水母馆、珊瑚馆、多功能休闲厅。,https://dimg04.c-ctrip.com/images/1lo0n12000k64mba44037.jpg
乌鲁木齐,乌鲁木齐美术馆,120730,43.823432,87.613923,4.8,位于乌鲁木齐市中山路82号新拓大厦6楼的乌鲁木齐美术馆，是一个对外开放的群众文化艺术设施，展厅面积达到1000平方米，吸收了中国美术馆和南京国展中心的许多先进之处，采用轨道式展板可灵活的将美术馆分割成若干个大小不等的展厅，并且使用的科技水平较高的电脑音像控制系统，是目前新疆大型的设施完备的美术作品会展中心。美术馆开馆后，将不定期组织各类美术作品展。,https://dimg04.c-ctrip.com/images/10080j000000a10ijEF69.jpg
乌鲁木齐,新疆大学校本部,1703259,43.765046,87.616154,4.7,新疆大学校本部位于天山区胜利路那里。校园里有新疆各名族的学生和老师。来新疆大学一定要去看看新园市场后面的红湖，这是新疆大学的标志啊，就像北京大学有未名湖一样。夏天的红湖很美丽，周围被绿树环绕。湖中心有个人工建造的岛，上面有个亭子，适合情侣拍照。顺便可以游览一下被绿树环抱的阿扎提路，这是新疆大学校本部的主干道，也是新疆大学学子走的最多的一条路。,https://dimg04.c-ctrip.com/images/0106i12000d11qpl6173E.jpg
乌鲁木齐,石化公园,120793,43.956061,87.70127,4.5,"石化公园，坐落于乌鲁木齐石化总厂的大庆路东侧，总厂机关办公大楼南侧。
石化公园兴建于1984年，总占地十六万五千多平方米，各式仿古拱桥、九曲小桥、莲花亭，把假山和湖心岛连为一体，湖光山色，景色秀丽。
还有游乐设施，是游客与工薪阶层节假日好去处之一，",https://dimg04.c-ctrip.com/images/0100112000b855ricC02A.jpg
乌鲁木齐,新城公园,120959,43.88722,87.544882,4.3,新城公园成立于1991年，位于乌鲁木齐北京北路19号。近十年来，新城公园一直围绕“文化”这一主题进行基础设施建设，从生态环境和景观特色的角度出发，认真筛选植物品种，以乔、灌、草、花相结合，形成了多层次、多色彩的绿化结构。目前新城公园绿地面积己达265522平方米，绿化覆盖率为 82．46%，还建有200米的葡萄长廊，既有开阔的草坪，又有规则的花坛，景观与生态共生，美化与文化兼容，使人们在欣赏时产生意境之美，因而被誉为“首府新区的绿宝石”。新城公园在规划上突出“新、奇、特”特点，在内涵上以高雅、健康、明快为风格，在经济效益和生态效益上下功夫，是集文化景点、文化娱乐、旅游度假为一体的综合公园。,https://dimg04.c-ctrip.com/images/0103m12000bfakeh4C1ED.jpg
乌鲁木齐,二道桥清真寺,120720,43.779771,87.618781,4.8,这是一座展现伊斯兰建筑风格的宏伟寺庙，吸引着众多游客来此感受浓郁的宗教文化氛围。,https://dimg04.c-ctrip.com/images/0105312000ims28miDEF5.jpg
乌鲁木齐,维斯特生活方式温泉,2021743,43.842678,87.67054,3.5,维斯特生活方式温泉拥有一次接纳2000人的温泉疗养空间，拥有国内先进的37种水疗设备、52种不同温泉疗养、容纳1200个餐位的生态餐饮、300间风格炯异的客房、接待1500人会议的不同会议室、8个主题公园组成。,https://dimg04.c-ctrip.com/images/0104s12000aa0lisu9B99.png
乌鲁木齐,中国工农红军西路军总支队纪念馆,120700,43.802395,87.629793,3.5,中国工农红军西路军总支队旧址位于乌鲁木齐市五星路2号、4号、5号和西后街58号，共四组土木结构的民用平房，均为穹洞式大门。其中总部所在的5号院落占地面积为1436平方米。该旧址现今为新疆生产建设兵团第二中学、乌鲁木齐市第27中学、兵团医院、兵团汽车运输总站等单位。1999年，乌鲁木齐市委、市人民政府决定依照西后街58号院落（原中国工农红军西路军总支队医疗通讯班）原貌在西后街37号复原重建，并定名为中国工农红军西路军总支队纪念馆。2001年6月30日正式开馆，展厅由 17 个房间合抱的四合院构成，展厅内陈列有近200张历史图片和10件西路军左支队官兵们使用过的武器、生活用品以及书籍等实物。展厅内容分《长征胜利，奉命西渡黄河》、《组建西路军，血沃征程路》、《进驻新疆，再创辉煌》、《永恒的精神》4 个部分。,https://dimg04.c-ctrip.com/images/0103x120008s74al8A744.jpg
乌鲁木齐,乌鲁木齐市八路军驻新疆办事处纪念馆,120741,43.773546,87.615562,4.8,路军驻新疆办事处纪念馆是抗战时期中国领导新疆民众抗日救国的办事机构所在地。它再现的是1937年-1942年中国人在新疆进行抗日救亡运动和不屈不挠狱中斗争的历史全貌。,https://dimg04.c-ctrip.com/images/0ww2112000947s8y7A8F0.jpg
乌鲁木齐,雪莲山高尔夫俱乐部,1702846,43.841514,87.695681,0.0,雪莲山高尔夫球场建在被誉为新疆保护神的天山山脉博格达峰脚下，大漠的边缘，亚洲的中心，是世界上离海洋远的高尔夫球场。新疆乌鲁木齐雪莲山高尔夫球场坐落于风景秀丽、景色怡人的乌鲁木齐市水磨沟名胜旅游风景区。球场占地面积4107亩，是由国内的北京兰星高尔夫工程有限公司按国际标准设计，球场设计充分考虑新疆的大漠戈壁及天山山脉的气势，利用雪莲山自然的丘陵地形建造，充分体现了新疆地大物薄、豪迈宽广的地域特点，让每一位高尔夫爱好者都能在这里都能够尽情地发挥自我、享受自然，领略别具一格的新疆风貌。,https://dimg04.c-ctrip.com/images/01049120009jl3xsc381E.jpg
乌鲁木齐,维斯特滑雪场,1815445,43.844027,87.673247,3.8,维斯特滑雪场位于水磨沟区温泉东路，与水磨沟公园相邻，是集餐饮、住宿、休闲、娱乐、滑雪、滑冰运动为一体的大型滑雪场，也是西北地区完善的大型灯光滑雪场。目前已建成400余亩开设了一、二、三级滑雪道和拖牵索道，其中3000米的雪上摩托越野赛道为乌市。滑雪场特设了灯光夜场，在山舞银蛇，奔腾跳跃中令游客可以观赏到乌鲁木齐市绚烂的夜景。,https://dimg04.c-ctrip.com/images/100u1f000001gq9cbD97A.jpg
乌鲁木齐,新疆历代和阗玉博物馆,1703115,43.873719,87.625913,4.4,新疆历代和阗玉博物馆是中国首家经政府批准注册的省级和田玉专题博物馆，博物馆拥有藏品上万件，是新疆唯一的和田玉历史文化展示中心，也是业务辐射全世界的珍品创意设计基地。新疆历代和阗玉博物馆成立于2006，这里展示的是人类漫长的文明史中能够延续几千年之久而从未中断过的罕见物质文化。,https://dimg04.c-ctrip.com/images/0106d12000965du9iD5B4.png
乌鲁木齐,唯美·微度假(西北路店),69741,43.819612,87.586066,3.5,唯美假日休闲会所坐落于乌鲁木齐繁华商业区，是以休闲养生为主题的新型假日休闲会所，内部装饰高雅，经营有洗浴、餐饮、海鲜自助、养生、足道等项目。,https://dimg04.c-ctrip.com/images/0102e12000h7alsh16EAE.jpg
乌鲁木齐,神木生态园,120792,43.71329,87.588501,0.0,"神木生态园是根据南疆神木园、北疆神钟山而故名，由中国生态园创始人、著名造园大师夏岩先生亲手打造的全疆首家、全景观式,融入地域绿色文化的原生态餐饮食府。园内设有假山、荷塘、小桥流水、儿童乐园等各种精致的园林小品7处。园内投入大量的资金移植了热带及亚热带地区的不同花种树木，无论春夏秋冬，神木园永远是一派郁郁葱葱、生机勃勃的景象。夏季室外的林荫底下可以摆设餐桌、凉亭十几张，是休闲避暑、度假游玩的胜地。经过多年精心打造、神木园成为许多都市人旅游度假、休闲、聚会等理想的场所。",https://dimg04.c-ctrip.com/images/0105l12000drulobgED16.jpg
乌鲁木齐,新疆九龙生态园,120858,43.75607,87.459031,0.0,九龙生态园位于乌鲁木齐市西南郊，从乌鲁木齐市区乘公交可通，是乌鲁木齐市周边著名的旅游景区，同时也是一座生态陵园。九龙生态园的面积很大，比较空旷，各个建筑散落在园区内，园区的周围空旷无垠，显得建筑格外的宏伟，可以在园区内步行参观、拍照，大约2-3小时即可。九龙生态园大致分为塞外江南、丝绸之路、楼兰古城等几个主题区域，每个区域内主要都是反映这个主题的建筑。有众多胡杨木遍布的少数民族墓区、访古楼兰佛塔、晾房等极具西域特色的景观，也有龙道、巨鼎等汉民族传统建筑，园内还结合了很多江南园林式的风格，环境十分优美。生态园的一侧，是一些墓地陵园，这里是当地人会入葬的墓园之一，所以也有很多当地人来此祭祀。,https://dimg04.c-ctrip.com/images/0103n12000db4001a524A.jpg
乌鲁木齐,新疆生态与地理研究所标本馆,120819,43.867711,87.567472,4.8,本馆是一个具有内陆荒漠干旱区区域特色、涉及生态学和地理学两大学科，是集相关基础研究、标本保藏与科普教育基地为一体的多功能科学博物馆。 本馆于20世纪50年代在中国科学院新疆综合科学考察队的工作基础上建立。自1956年中国科学院新疆分院成立，即开始以新疆为代表的中国内陆干旱区生物、土壤标本采集、馆藏，迄今已有53年历史。馆藏包括植物、动物、微生物、土壤等多学科标本约12万余号，是我国西北地区馆藏标本种类、数量较多的综合性标本馆之一，在国际、国内均具有典型的区域代表性。 　　,https://dimg04.c-ctrip.com/images/0100n12000axa5bqz1469.jpg
乌鲁木齐,南大寺,120681,43.780244,87.616695,5.0,"南大寺接近解放南路南端。原在乌鲁木齐市南山的南台子，1919年迁至此处重建。南大寺的主要建筑礼拜殿，平面呈凸字形。屋顶前部作重檐歇山式，盖琉璃瓦。檐脊上安置了二龙戏珠等瓦饰，檐下五层画板绘有卷草花卉花纹精等五彩图案.,脊檩雕有22个飞龙。殿内后部砌砖墙，前部装木格门，格心致。步廊两侧看墙刻有兰、梅、竹、荷四画屏等。大殿分内外两殿，外殿深15米、宽22米，内殿深、宽各15米。殿内可容千人作礼拜。寺院内还设有宣讲楼、 淋浴池、阿訇住房和外宾接待室等。",https://dimg04.c-ctrip.com/images/0ww1b120009laq4ceF650.jpg
乌鲁木齐,石人沟,1703026,43.83392,87.78218,4.8,石人沟距离乌鲁木齐市区大约二十多公里，是乌鲁木齐水磨沟区所辖的周边景区之一，地处东山区边缘的一角，就坐落在石人沟村旁。石人沟因石人和石头得名，过去的石人现已被保存在自治区博物馆。而现在的石人，则是仿制品。沟内突兀的巨石像是从天外坠落而来。 远远就望见前面山坡上很突兀的石头，那嶙峋怪异的模样与背后缓缓的山坡如此不同，不像是原本就生长于此，倒像是从天外坠落下来的。 大自然的鬼斧神工不能不让人为之惊叹。此地山路较宽，适合徒步或驾车，沟内有多处天然泉眼，风景秀美，这两年游人蜂拥至此，促生了各种旅游消费。沟内度假村农家乐蒙古包，随处可见。主要景区有石人台、蝴蝶谷、石人水库。,https://dimg04.c-ctrip.com/images/100ahk114xa0g0udt21A6.jpg
乌鲁木齐,《丝路秀》演出,1732696,43.785531,87.611291,4.2,《丝路秀》大型民族歌舞表演打破新疆传统歌舞的表演形式重点突出少数民族歌舞的互动性和参与性，同时让观众自发的去感受和体验少数民族歌舞的激情豪放，让正常演出既轻松又能留下难以忘怀的新疆之行。《丝路秀》以新疆富有舞台表现力的维吾尔族、哈萨克族、蒙古族、塔吉克族为主线，汲取各民族生产、生活中趣味央然的情景故事，以创新的手段通过民族歌、舞、乐器等的燃情表现营造出舞台、演员、观众超强的参与型和互动性。同时这场歌舞秀是流动的绘画，是写意与写实的奇幻艺术之境。它通过1488多平方米的演出场地，先进的多维维亚、超级梦幻水效、炫彩夺目的多维激光，营造出巧妙的时空交错的立体景观层面，使之衍生出虚幻与现实，人物与情节的诗意缠绕，展现新疆山水、人文、美食、美景，表达出新疆各族人民善良、团结、和谐、美好、展示出新疆各民族儿女共同建设美好家园、创造幸福生活的美好愿望。,https://dimg04.c-ctrip.com/images/1lo3q12000b5h9c9066AE.jpg
乌鲁木齐,哈熊沟,1703182,43.82658,87.989734,4.0,哈熊沟，位于新疆米泉市东南58公里处的天山北坡，距离乌鲁木齐70公里，是自治区级森林公园，主要树种为云杉。哈熊沟是其中一条沟谷深处的一段。这里山景、水景、雪景、树景都十分迷人。山岭长满云杉，云杉随山势而起伏层叠，犹如排空的翠浪。山风吹来时，绿涛滚涌，满山遍野仿佛都在涌动，一派瑰丽雄奇的景致。哈熊沟空气凉爽湿润，水质极好，游人到此无不感到心情舒畅，精神愉悦。【天山龙脊度假区木栈道徒步攻略】停车场陡坡栈道入口  关键词：有停车场 栈道坡度较陡 请缓步攀爬天山国家森林公园科普馆正对面，路牌指示冰草台子方向，前行20米东侧即可看到木栈道入口。此处道路两侧有一定数量停车位，方便车辆停靠，适宜自驾人群进入。但此处木栈道爬升角度较陡，徒步爬梯难度大，通过较短阶梯，直上冰草台子山顶，行动能力有限的老人和孩子，建议缓步攀登，或选择下文所示缓坡入口进入。路边缓坡栈道入口  关键词：紧邻主路 入口无车位 栈道坡缓易攀行栈道入口紧靠景区主路X139县道，方便徒步游客找寻进入，但入口旁没有停车位。此入口段栈道，坡度平缓，绕山而上，深入松林，可以边徒步攀爬，边欣赏山林风景，适宜老人、小孩等亲子家庭休闲散步攀登。温馨提醒小贴士 木栈道间隔设有凉亭，徒步累了，可以停下休息。天山龙脊旅游度假区，云杉松柏茂密，林中视线遮挡，景观趋同，游客容易迷路，沿木栈道徒步行走，可以为游客指引路线方向，确保游览安全。,https://dimg04.c-ctrip.com/images/0105e1200092lj5hdB0A1.jpg
乌鲁木齐,植物园冰雪大世界,2519811,43.890564,87.556057,4.0,植物园冰雪大世界位于乌鲁木齐市新市区北京中路916号。有园内项目：滑雪圈、雷地坦克、真人CS、水上漂移车、水壶、滑冰刀、骑乘矮马、雪地摩托、海豚冰爬犁、欢乐蹦冰特色体验活动。,https://dimg04.c-ctrip.com/images/100f10000000p3w7e2A7F.jpg
乌鲁木齐,新疆相声巴扎,1673451,43.836301,87.654815,4.7,新疆相声巴扎是经乌鲁木齐市批准的新疆首家民营相声艺术团体，是首府第一家以观看相声、品尝茶点、轻松愉悦为一体的相声剧场。新疆相声巴扎是在新疆“以现代文化为引领，促进文化大发展、大繁荣”的形势下成立的，它以“继承传统相声艺术。打造疆味相声特色，开创新疆相声新时代”为己任，秉承“团队专业化、内容本土化、娱乐时尚化、运作市场化、服务品质化”的理念，不断拓展新疆曲艺事业发展新领域，满足各族群众多元化文化的需求，是一支活跃在新疆文艺战线的“轻骑兵”。新疆相声巴扎成为新疆戏剧家协会的一个直属曲艺团体，受新疆戏剧家协会的业务指导和管理，以党的文艺政策为指导，积极开展各项有益的社会文化活动。,https://dimg04.c-ctrip.com/images/0105p12000diyd13z9F2B.jpg
乌鲁木齐,小绿谷,3377242,43.837897,87.504541,4.6,小绿谷生态园位于乌鲁木齐市万寿山街和大明湖路交口，景区内有湖泊、湖中小岛，树木丛生、环境优美。景区内中间是以水为景，两边种植的是植被和各种树木，夏天是人们乘凉休闲的好地方，到了秋天，植物的叶子五彩缤纷，每天会有许多人来此散步，呼吸新鲜空气，是一个天然的氧吧。,https://dimg04.c-ctrip.com/images/0102g120008ov2ukc4F95.jpg
乌鲁木齐,巴里坤清真寺,120716,43.781568,87.61973,5.0,巴里坤寺位于乌鲁木齐市和平南路。该寺始建于1877年，占地面积1.7亩，建筑面积760平方米。有大殿、南北厢房、水房等。大殿系两廊出水，前面带卷棚，上面屋顶覆盖着青瓦，布局严整、自然。,https://dimg04.c-ctrip.com/images/0101w12000dccdy82855F.jpg
乌鲁木齐,宴艺大剧院,4385384,43.779444,87.617831,4.0,新疆国际大巴扎于2003年6月26日落成，是世界上规模很大的巴扎。大型歌舞秀《丝绸之路千年印象》是新疆国际大巴扎宴艺大剧院大型歌舞秀，专业的表演团队，穿越千年的丝路传奇，演绎一场丝路狂欢，享视觉盛宴同时，汇聚新疆经典美食自助，让人饱享西域美味精绝。,https://dimg04.c-ctrip.com/images/10060s000000hw91qFB56.jpg
乌鲁木齐,燕窝水世界,2473966,43.714555,87.591182,4.1,燕窝水世界游乐项目简介：魔幻四组合，新疆四组滑道同一平台的大型游乐项目，是勇敢者的天堂。滑梯滑道分为4组，分别为：时光穿梭、漩涡滑道、螺旋滑道、水上过山车，同时为多人游乐。为了满足勇敢者挑战极限的愿望，燕窝水世界引进了全国先进的高速滑梯项目—极速降落。大型四人浮筏同时承载4名游客高速飞翔在波浪形的滑道上，直接奔驰俯冲，加速冲到水池里，尽享风驰电掣的竞赛快感，带给游客的是头向下滑行的刺激。冲天回旋一定会让游客体验到完全不同于其他设备的全新滑行体验。大型亲子互动区，有开放式滑道、封闭式滑道、集水枪、水桶、喷泉等游玩设施，注重惊险刺激与温馨浪漫合家欢元素的融合。燕窝水世界各色小吃应有尽有，还有多种特色泡池，游客可以舒舒服服的做个SPA。特色鱼疗果冻，几千尾小鱼，一池温水，人一入池，小鱼立即将其围住“吻”个不停，果冻浴使用芦荟胶配以珍珠粉、玫瑰精油等各种名贵辅料配制而成，独特新颖的沐浴体验让您享受绝妙感觉，燕窝水世界内配有超专业的泳衣超市，泳衣款式多达45种，还有不同材质的毛巾，色彩亮丽的水枪，各种密封袋等小物品等。,https://dimg04.c-ctrip.com/images/0HJ0z12000g9050pn29CE.jpg
乌鲁木齐,南公园,2023790,43.766728,87.606826,4.7,乌鲁木奇的南公园自然风光秀丽，内设有儿童游乐设施和动物园展区，绿树成荫，休闲好去处。,https://dimg04.c-ctrip.com/images/0106h1200092lsgo60796.jpg
乌鲁木齐,新疆民街,1834732,43.785565,87.617588,4.1,新疆民街民俗博物馆是国家4A级景区，乌鲁木齐市新十景，位于乌鲁木齐市天山区龙泉街。从市区河滩快速路或主干道解放南路、新华南路可达。距新疆国际大巴扎和二道桥市场500米，是集旅游、观光、购物等为一体的综合性人文景观，也是人们了解、宣传新疆历史文化的窗口。,https://dimg04.c-ctrip.com/images/0102h12000iecdka3B28B.jpg
乌鲁木齐,金水缘国际假日水会,2015601,43.949701,87.655832,4.8,金水缘国际假日水会坐落于美丽的乌鲁木齐米东区华泰路，是集沐浴、餐饮、客房、演艺、休闲、娱乐、SPA调节、休养保健于一体的大型沐浴酒店。,https://dimg04.c-ctrip.com/images/100t1f000001gqd9o18F2.jpg
乌鲁木齐,野马美术馆,2705715,43.856443,87.575021,4.9,野马美术馆位于新疆乌鲁木齐昆明路158號，是当地较大的一家美术馆。馆内收藏了各式各样的油画600多幅，以及种类繁多的艺术品，如果你来了这里，一定会被吸引。,https://dimg04.c-ctrip.com/images/350j160000010nh229E5F.jpg
乌鲁木齐,天下第一馕,5566343,43.888079,87.688018,5.0,该景点位于馕文化产业园，是一个巨型馕的雕塑，象征着馕在新疆饮食文化中的重要地位。它作为园区的标志性景观，不仅吸引了大量游客前来拍照留念，也成为了乌鲁木齐市的一大文化地标。这个雕塑直径大约 7.1 米，是游客们入园后首先映入眼帘的标志性景观。这个巨大的馕造型逼真，色泽金黄，仿佛刚刚从馕坑中烤制出来，散发着诱人的香气，让人不禁对馕的美味产生无限遐想。馕在新疆有着悠久的历史和深厚的文化底蕴，它不仅是新疆各族人民喜爱的传统美食，更是新疆文化的重要象征。这座雕塑作为馕文化的集中展示，承载着新疆人民对生活的热爱和对传统文化的传承。,https://dimg04.c-ctrip.com/images/0104v12000f6ufu0sCFDE.jpg
乌鲁木齐,达板城东沟河谷次生林景区,4728351,43.422733,88.463237,4.8,达坂城河谷次生林景区，位于达坂城城区东北方向约15公里处，属于达坂城东沟乡境内，故又称为东沟乡景区，内有已经建设完善的徒步线路，约有20多公里长度，走完可以领略到次生林景区全部景点。河谷生态环境优越，具有大西北特有的景色，与江南相比，更豪放、更具野趣。,https://dimg04.c-ctrip.com/images/1me3112000ge59ils193D.jpg
乌鲁木齐,硅化木,5590459,43.851022,87.580241,4.9,新疆古生态园的硅化木发现于新疆准噶尔盆地，主要是银杏和松柏的化石。这些银杏和松柏生活在距今1.9亿——1.3亿年前的侏罗纪时期，和恐龙生活在一起。由于地质的变化和地震等灾害的原因，导致大陆板块下沉，这些树木顷刻间被埋入到了地层当中。土壤里的一些化学元素（如：二氧化硅，硫化铁，碳酸钙等）在地下水的作用下，在长年低温高压的环境下，渗入到了这些树木的木质细胞中，使它们不断的石化、玉化，直至变成我们现在看到的“硅化木”。,https://dimg04.c-ctrip.com/images/350n160000010d8eh6BDC.jpg
乌鲁木齐,新疆人民剧场,5143116,43.790945,87.6215,5.0,新疆人民剧场是位于中国新疆维吾尔自治区的一座重要文化设施，通常用于举办各种演出和文化活动。作为一个综合性的剧场，它可能承办戏剧、音乐会、舞蹈表演、传统民族艺术等多种类型的活动。剧场的设计通常融合了现代建筑风格和民族特色，旨在为观众提供舒适的观演环境。新疆人民剧场不仅是一个文化娱乐的场所，也是一个展示和传播新疆丰富多样文化的重要平台。剧场为三层结构，进厅三层，一层为大厅，二层设八角回廊，三层设活动室，是一座具有欧亚民族特色的宏伟文化建筑。,https://dimg04.c-ctrip.com/images/0102k120009s7vgz2C672.jpg
乌鲁木齐,BOBOZOO室内动物园·萌萌团主题店(万达广场乌鲁木齐德汇店),5604351,43.788177,87.58612,5.0,BOBOZOO室内动物园·消消乐萌萌团主题店坐落于新疆乌鲁木齐德汇万达广场五层，采用真实亚热带雨林植物造景，场馆内有近200多种、3000多只海陆空真实动物，做到动物与游客直接接触，零距离互动，面对面交流，聚合了时空小屋、森林奇遇记、萌宠游乐园、海底总动员、五彩百鸟园、疯狂动物城、主题售卖区七大主题区域，着力打造成新疆地区网红打卡地。,https://dimg04.c-ctrip.com/images/350d190000015jfkm9185.jpg
乌鲁木齐,红庙子道观,5076343,43.836545,87.547755,0.0,红庙子道观位于沙依巴克区，因其外墙朱红，在阳光的照耀下格外醒目，人们把这座道观称之为红庙子，是一座具有二百多年历史的道教庙宇。,https://dimg04.c-ctrip.com/images/0100512000cq7kzx02224.jpg
乌鲁木齐,南湖市民广场玛河公园,4611888,43.826552,87.61994,5.0,南湖市民广场玛河公园内有林间小道，人工湖，绿地，景色优美，人们在这里散步，跑步，跳舞。,https://dimg04.c-ctrip.com/images/01A5w120009hl42ls52A1.jpg
乌鲁木齐,新疆艺术剧院木卡姆艺术团剧场,4612327,43.754027,87.634848,4.5,新疆木卡姆艺术团剧场以搜集、整理、研究、传承木卡姆艺术并将其搬上舞台为主要任务，内有很多民间艺人表演相关民间艺术，是了解木卡姆艺术的好去处。,https://dimg04.c-ctrip.com/images/0102s12000axaygbbBA02.jpg
乌鲁木齐,国际博览中心,2628584,43.874492,87.59164,4.9,,https://dimg04.c-ctrip.com/images/0102012000b3mtd4vF024.jpg
乌鲁木齐,水磨沟风景区-清泉寺,69551268,43.829577,87.659741,5.0,清泉禅寺位于水磨沟公园内，古朴幽静，位于半山腰，可以俯瞰整个水磨沟景区。,https://dimg04.c-ctrip.com/images/01020120009e2dttfCE9F.jpg
乌鲁木齐,新疆民俗风情街,2523974,43.785368,87.617331,1.0,,https://dimg04.c-ctrip.com/images/0101112000f6u1fqf956E.jpg
乌鲁木齐,达板镇达板古城,5009391,43.326308,88.338613,0.0,达板古城因为一首歌曲《达板城的姑娘》而闻名，达板城地区植物种类繁多，还有雪豹和北山羊等野生动物，矿产资源丰富，景色优美。,https://dimg04.c-ctrip.com/images/100219000001822bq9588.jpg
乌鲁木齐,怪兽充电(新疆阿尔斯兰美食歌舞大剧院),3690665,43.830164,87.633925,5.0,新疆阿尔斯兰美食歌舞剧院是一个可以一边欣赏着歌舞表演一边用餐的餐厅，剧院内是新疆西域风情的装修风格，菜品也众多。,https://dimg04.c-ctrip.com/images/0103412000bvgnjr03F23.png
乌鲁木齐,植物园-动漫水世界,2481489,43.890324,87.554785,0.0,乌鲁木齐植物园动漫水世界占地5000平方米，是游泳，嬉水，水上大冲关体验的夏天休闲地。飞天滑道、彩虹滑梯、40米水上大冲关、水蹦床、水陀螺、香蕉船、龙滑梯、鲨鱼滑梯、龙鲨水池、岩石滑梯等水上娱乐项目等你来。超大的空间，配套储蓄、更衣、淋浴等服务和户外遮阳网，餐饮休闲区有各种特色小吃，带着家人、朋友来清凉一夏吧。,https://dimg04.c-ctrip.com/images/100h0t000000iokyiF443.jpg
乌鲁木齐,天山公园,4709349,43.755642,87.639261,5.0,乌鲁木齐天山公园中的特色就是拥有原生态树林，其次是景观湖，湖水从西边沿着鹅卵石铺就的小渠一路蜿蜒而下，直达天山公园中心的景观湖。漫步林间，看到的花、草、树都没有人工种植的痕迹，连猪耳朵草、刺刺花等都有，比较幽静。为保存原生态树林，采取“适地适种”方式，在树林周围种植了萱草、鸢尾、玉簪、蓝亚麻、冰菊等12种宿根花卉363万株。其实，天山公园是一个集绿色景观和运动休闲为一体的综合性公园。设有水上活动区、体育健身区、休闲游览区、安静休息区等区域。体育健身区有占地400多平方米的篮球场和200多平方米的门球场。,https://dimg04.c-ctrip.com/images/100m0t000000iwe9uA43D.jpg
乌鲁木齐,新疆天山博古苑博物馆,5704349,43.721145,87.589332,0.0,新疆天山博古苑博物馆坐落于新疆奇台县。该馆占地面积约十五亩，馆藏有民族家具、明清瓷器、名家字画、化石钱币火花等各类藏品约13万件。博物馆设有新疆和田玉陈列区、古代佛像陈列区、农耕文化陈列区、民族民俗陈列区等展区。,https://dimg04.c-ctrip.com/images/0HJ6a12000g2tht8a118C.jpg
乌鲁木齐,星空魔幻城,5675357,43.804063,87.608187,4.7,星空魔幻城经过研发团队前往日本、韩国等多地学习并结合网上粉丝所喜欢项目，专心研发了多种艺术光影错觉装置。研发出各种明星产品，包括火爆网上的无限星空，无缝拼接的镜子点缀不同色彩，用时明时暗色彩变换的设计和心跳般闪耀的节奏营造出一个唯美梦幻的场景；温情满满的夕阳剪影；浪漫满屋的kiss house；色彩斑斓动感的彩虹婚纱等近百主题，星空魔幻城是个适合情侣约会、家庭亲子游玩、朋友聚会的好去处，带给你一个与众不同的美好时光。,https://dimg04.c-ctrip.com/images/35031c000001cmlir237E.jpg
乌鲁木齐,左宗棠纪念馆,5591455,43.851022,87.580241,0.0,"左宗棠纪念馆位于新疆古生态园内，外观为灰色的建筑，2014年10月，野马集团董事长陈志峰决定，从浙江购置
一座老宅，在新疆为左宗棠修建一座纪念馆。在陈志峰看来，当今时代更需要左公精神，后人应当铭记他，新疆人民更应当铭记他。没有左宗棠，就没有今天的新疆。",https://dimg04.c-ctrip.com/images/0100v12000f6r5rcrA9AC.jpg
乌鲁木齐,新疆大学校史展馆,5170508,43.765579,87.614794,0.0,新疆大学校史展馆分为六个展厅，主题分别是“流金岁月”“红色传承”“坚守阵地”“笃志耕耘”“砥砺前行”“情系新大”。,https://dimg04.c-ctrip.com/images/0107012000d1udtf095FC.jpg
乌鲁木齐,乌鲁木齐种牛场绿化广场,4612317,43.720622,87.59242,0.0,,https://dimg04.c-ctrip.com/images/fd/tg/g1/M07/FC/25/CghzflW7IASANUuCAAAtJkkq6KA204.jpg
乌鲁木齐,三宫粱清真大寺,4611909,43.994467,87.470584,0.0,,https://dimg04.c-ctrip.com/images/fd/tg/g2/M02/AE/62/CghzgFW7IBCAHuSzAAAx3FcjVOM139.jpg
乌鲁木齐,留子庙清真大寺,4611917,44.160773,87.587634,0.0,,https://dimg04.c-ctrip.com/images/fd/tg/g2/M02/AE/62/CghzgFW7IBCAHuSzAAAx3FcjVOM139.jpg
乌鲁木齐,红雁池水库,69334161,43.715369,87.622231,0.0,现水面面积约4. 5平方公里，较大库容约5300万立方米，灌溉面积约1.06万公顷。坝高约22米，长约430米。为排洪灌溉、发电、养鱼和城市用水等综合利用的大型水库。建库后在春、秋季节常有鸿雁来此歇脚，又因这里石头皆呈红色，故名红雁池水库。,https://dimg04.c-ctrip.com/images/fd/tg/g1/M08/AF/62/CghzfFW7H_2AGejYAAA1IHaWIRI172.jpg
乌鲁木齐,新疆农业大学-图书馆,3661834,43.81369,87.56841,0.0,,https://dimg04.c-ctrip.com/images/0105612000anxz1gzC3A1.jpg
乌鲁木齐,和田玉市场信息联盟交易中心玉文化博物馆,4611879,43.791147,87.624425,0.0,和田玉市场信息联盟交易中心玉文化博物馆是新疆的一家玉文化博物馆，馆内展示了不同产地的和田玉矿物标本、新疆和田玉(白玉)子料分等定级标准，以及详尽的和田玉文化历史，是收藏、展示和利用和田玉藏品，研究、传播和田玉文化的专题博物馆。,https://dimg04.c-ctrip.com/images/fd/tg/g1/M08/AE/87/CghzfVW7IAOAbNKNAABCrs7mUrY425.jpg
乌鲁木齐,新话剧场,4607301,43.818193,87.585951,5.0,新疆艺术剧院话剧团剧场，简称新话剧场，有专业数字电影厅，电影机，音响设备等，是集文艺演出、话剧、电影放映多功能于一体的剧场。,https://dimg04.c-ctrip.com/images/0101i12000dc4v1ao559E.jpg
乌鲁木齐,十月影剧院,4627023,43.802563,87.598774,5.0,十月影剧院有蓝、红、绿三个电影厅，近900个座位，三个影厅都采用2k数字放映机。,https://dimg04.c-ctrip.com/images/0HJ4j12000g906ukz8AC4.jpg
乌鲁木齐,新疆维吾尔自治区区域古生物化石及典型岩矿标本陈列馆,2628483,43.887088,87.565311,4.3,,https://dimg04.c-ctrip.com/images/0101412000dq0zp0zB98C.jpg
乌鲁木齐,红湾花海,69569096,43.843048,87.784588,1.0,"红湾花海占地面积约500亩,其中花海景区面积280亩。在去年种植30亩、七八种郁金香的基础上,今年增加到40亩12个品种,花期将持续到5月中旬。除了郁金香,今年还新增了月季花、榆叶梅等6个品种的花卉,在随后的几个月还可观赏牡丹、芍药、野菊花等。此外,红湾花海今年新增的网红桥、亲子游乐设施等项目也将陆续开放。游客不仅可以赏花,还可以体验星空旅馆、自助烧烤、帐篷露营等休闲活动。",https://dimg04.c-ctrip.com/images/0103n12000b8xdvtt7135.jpg
乌鲁木齐,青湖清真寺,4611914,44.037334,87.52507,0.0,,https://dimg04.c-ctrip.com/images/fd/tg/g2/M02/AE/62/CghzgFW7IBCAHuSzAAAx3FcjVOM139.jpg
乌鲁木齐,火炬广场,4607294,43.85503,87.571155,0.0,火炬广场，位于乌鲁木齐市新市区火炬大厦对面，是一座集文化、休闲、娱乐为一体的大型现代化广场，周围环境优美，景色宜人。,https://dimg04.c-ctrip.com/images/0100712000l4etci39AD1.jpg
乌鲁木齐,空军新疆航空队纪念馆,2628186,43.784096,87.64737,0.0,,https://dimg04.c-ctrip.com/images/0105w12000czaafuuCD8D.jpg
乌鲁木齐,盈科广场,4627011,43.856263,87.570444,0.0,,https://dimg04.c-ctrip.com/images/0HJ5412000g66h13507A9.jpg
乌鲁木齐,和田街清真寺,4611875,43.787802,87.604483,0.0,,https://dimg04.c-ctrip.com/images/0102412000d1umgxm00E3.jpg
乌鲁木齐,凤翔寺,4611880,43.794444,87.615903,0.0,该寺位于乌鲁木齐市，约有100余年，建筑总面积约720平方米，原寺院大殿为砖木平房结构。,https://dimg04.c-ctrip.com/images/0105812000d41dt5yB39C.jpg
乌鲁木齐,乌鲁木齐市革命烈士陵园,3141382,43.734496,87.596512,0.0,,https://dimg04.c-ctrip.com/images/1me4m12000cioesjk4816.jpg
乌鲁木齐,新疆青少年科技中心,5170509,43.839694,87.575605,0.0,新疆青少年科技中心是由中国科协、中宣部、教育部、科技部命名的 “全国青少年科技教育基地”之一，是一家组织、指导、开展青少年科技教育机构。 其职能主要负责规划、指导、协调、组织自治区青少年科技教育活动和竞赛活动。负责组织开展国际与中国科协在新疆实施的有关青少年科技合作项目工作。组织实施青少年科技传播行动，推动自治区青少年科技教育事业的发展。,https://dimg04.c-ctrip.com/images/0101712000d3y8760387F.jpg
乌鲁木齐,五千年画廊,2628423,43.823579,87.61421,0.0,,https://dimg04.c-ctrip.com/images/fd/tg/g2/M02/C5/08/Cghzf1W7IAOADod_AAA1Xhhuy-U142.jpg
乌鲁木齐,南北新农业博览馆,2697025,43.825278,87.608832,0.0,,https://dimg04.c-ctrip.com/images/0101t12000d3ycz1j42C3.jpg
乌鲁木齐,中国棉花博物馆,3225695,43.935659,87.431931,0.0,中国棉花博物馆位于棉花原种场境内迎宾大道南侧，主体2层框架，建筑面积达3200平方米。展馆设计围绕专业性和趣味性做文章，同时还注意实物与高科技手段的综合运用。,https://dimg04.c-ctrip.com/images/0103l12000bmz9h439343.jpg
乌鲁木齐,乌鲁木齐龙骧马术滑雪场,2696315,43.818741,87.697993,0.0,,https://dimg04.c-ctrip.com/images/0101q12000cpj6g44DBFD.jpg
乌鲁木齐,峡门子旅游景区,69550521,43.907482,87.8848,0.0,峡门子景区位于米东区铁厂沟镇，距市区20多公里，系铁厂沟河的山口河段，也是哈熊沟旅游景区的外延部分，河床灌木丛生，榆树遍地，右岸有农田和草地，自然风光与田园风光交相辉映，景致独具特色。,https://dimg04.c-ctrip.com/images/0HJ4c12000g2r8505BE26.jpg
乌鲁木齐,水墨天山步道国家公园,69563185,43.818967,87.817462,0.0,水墨天山步道国家公园有登山步道，露营地，绿植茂盛，空气清新，适合户外徒步。,https://dimg04.c-ctrip.com/images/0103812000963gzpo938A.png
乌鲁木齐,绿城广场,4615362,43.873989,87.612091,5.0,,https://dimg04.c-ctrip.com/images/fd/tg/g1/M07/FC/25/CghzflW7IASANUuCAAAtJkkq6KA204.jpg
乌鲁木齐,葫芦岛生态园,4612315,44.033354,87.66568,0.0,,https://dimg04.c-ctrip.com/images/0HJ1o12000g6e3837B81A.jpg
乌鲁木齐,神木源马术俱乐部,69386229,43.713321,87.590069,0.0,,https://dimg04.c-ctrip.com/images/0103g1200098wb4v84A69.png
乌鲁木齐,石人沟蝴蝶谷,69534092,43.815897,87.823022,2.0,石人沟蝴蝶谷，这里的蝴蝶以橙红色的榆蛱蝶为主，还有带蛱蝶、荨麻蛱蝶、绢粉蝶、小蘖粉蝶等，种类繁多。,https://dimg04.c-ctrip.com/images/0101512000bb0oug5FB82.jpg
乌鲁木齐,乌鲁木齐科学技术馆,2695561,43.793616,87.604941,0.0,该馆建筑面积约6800平方米，设有三层五个展区，常设展品74件，涉及到数学、力学、声光学、能源、航空、电磁等学科类的科学原理和虚拟、仿真、环境、水利、生命健康类的知识。展品均采取参与互动的方式，通过参观者的亲身体验，使人们在接受科学知识熏陶的同时，逐步培养探索科学奥秘的兴趣和能力。,https://dimg04.c-ctrip.com/images/0104312000coxuzd6BB47.webp
乌鲁木齐,仓庆山公园,4611874,43.764572,87.593596,0.0,,https://dimg04.c-ctrip.com/images/fd/tg/g2/M02/C5/07/Cghzf1W7H_mAOouUAAA0-J5t66I153.jpg
乌鲁木齐,三宫清真大寺,4611901,43.905865,87.573033,0.0,,https://dimg04.c-ctrip.com/images/0104512000dlq9pvl1655.jpg
乌鲁木齐,米东区文化馆,3141266,43.963353,87.656361,0.0,,https://dimg04.c-ctrip.com/images/0105q12000975pbh1A7E4.png
乌鲁木齐,数字博物馆,4626868,43.819474,87.584137,5.0,数字博物馆有数字化体验厅，在这里观众不仅能够看到文物，还能够了解文物背后的故事。,https://dimg04.c-ctrip.com/images/0102712000dc41ufe837A.jpg
乌鲁木齐,乌鲁木齐艺术剧院,3617899,43.797509,87.619315,4.7,乌鲁木齐剧院环境干净，舞台宽敞，声光设备良好，节目丰富，包括歌舞、戏剧、交响乐、民族乐等，是当地人看表演的好去处。,https://dimg04.c-ctrip.com/images/0105b12000f6u1tq384DF.jpg
乌鲁木齐,大绿谷生态公园,69559889,43.841092,87.492971,0.0,大绿谷生态公园内设有栈道，可以登高徒步。还可以登上观景平台俯瞰美景。公园内设有人工湖、休憩茶室等，充分满足了市民的生活需求。,https://dimg04.c-ctrip.com/images/0106912000cqddf066D55.jpg
乌鲁木齐,天山丽都滑雪场,5705531,43.908537,87.852146,0.0,"天山丽都滑雪场位于新疆米东新区，占地200万平方米，拥有趣味滑雪场，常年商务会议接待中心，常年水、陆、空户外拓展训练基地，夏季马牙山榆树林至白桦林户外徒步，摄影走廊，常年体育休闲健康娱乐为主题的度假圣地，绿色环保立体养殖种植园及其衍生的原生态餐饮等项目。

年接待国内外游客1.8万余人次，为迎合和服务市场，今年雪场投入100余万元对通往园区的道路、雪具接待大厅、雪道等项目进行了全面改造，形成了以趣味滑雪为主的冰雪旅游场地。",https://dimg04.c-ctrip.com/images/0103012000crs7ant9E5F.jpg
乌鲁木齐,水磨剧场,3246114,43.828159,87.642237,0.0,“水磨剧场”由新疆文联戏剧家协会和乌鲁木齐市水磨沟区人民政府共同打造，“水磨剧场”举办了冬季惠民文艺演出，新疆曲艺艺术培训班等。另外，新疆相声巴扎每周五、周六晚在此进行常态化演出，这些活动的开展丰富了水磨沟区各族百姓的文化生活。,https://dimg04.c-ctrip.com/images/1me6312000e1p32s287D2.jpg
乌鲁木齐,新疆党校图书馆,3661832,43.80013,87.63,0.0,,https://dimg04.c-ctrip.com/images/0HJ5q12000g8hr6oz8EA3.jpg
乌鲁木齐,振兴村大寺,4627038,43.971448,87.683811,0.0,,https://dimg04.c-ctrip.com/images/fd/tg/g2/M02/AE/62/CghzgFW7IBCAHuSzAAAx3FcjVOM139.jpg
乌鲁木齐,新疆当代美术馆,3262365,43.83625,87.655385,0.0,新疆当代美术馆位于乌鲁木齐，美术馆共有两层，这里地理位置优越，环境优美，是人们欣赏绘画作品的好地方。,https://dimg04.c-ctrip.com/images/0101b12000cecnp17E552.webp
乌鲁木齐,石人子沟,4470542,43.81534,87.795546,0.0,石人子沟位于天山山脉东段的雪山草场。因沟口有一块状如人形的石头而得名。也是古代牧民划分自家草场的标记。,https://dimg04.c-ctrip.com/images/100j14000000x520a7C02.jpg
乌鲁木齐,新明社区科普展馆,2628534,43.897884,87.498385,0.0,,https://dimg04.c-ctrip.com/images/fd/tg/g2/M02/AE/60/CghzgFW7IAOAEslQAAA_0sCVZfg527.jpg
乌鲁木齐,红山清真寺,5067035,43.806708,87.61408,0.0,红山清真寺建于清朝乾隆年间，是乌鲁木齐市内古老的清真寺之一。寺内有一座古老的石碑，上面刻有清朝乾隆年间的历史记载，是研究乌鲁木齐历史文化的重要资料。,https://dimg04.c-ctrip.com/images/0HJ3l12000g8rg33m235D.jpg
乌鲁木齐,红山公园北园-林则徐纪念像,3141265,43.80804,87.60191,5.0,林则徐纪念像即为石碑英烈。该景点是为纪念民族英雄林则徐的伟绩，红山宝塔侧塑立了他的雕像，安放了禁毒铜鼎，因此红山成为新疆第一个禁毒教育基地。,https://dimg04.c-ctrip.com/images/0102y12000cg22xnzE3C8.jpg
乌鲁木齐,华隆美特商业街(万和街店),5171039,43.965148,87.651651,5.0,,https://dimg04.c-ctrip.com/images/010721200097mxxpj0664.png
乌鲁木齐,爱家步行街,5170504,43.865967,87.561425,0.0,,https://dimg04.c-ctrip.com/images/0107212000d41d3ldAB20.jpg
乌鲁木齐,温州商业街(北京南路店),5170660,43.840112,87.574137,0.0,步行街全长约300米，这里有各类的特色小屋、古色古香的徽派建筑，天南地北的特色小吃等，是当地的一处网红打卡地。,https://dimg04.c-ctrip.com/images/0HJ1i12000g90ty3x7D51.jpg
乌鲁木齐,陈氏太极拳新疆推广中心运动健身,123865736,43.80357,87.608978,0.0,"它将中国传统文化太极带进了西域城市商业文化中心,为寻求想要了解太极文化的人士,做一场传授与体验。",https://dimg04.c-ctrip.com/images/0107212000cjpzntp49A0.webp
乌鲁木齐,新疆大学-体育馆(延安路店),143273698,43.761045,87.623735,0.0,新疆大学-体育馆内设篮球场、排球场、羽毛球场和乒乓球馆等场馆，用于承办校内或社会各种赛事，平时用于学生学习和锻炼。,https://dimg04.c-ctrip.com/images/0101y12000deu4dh18D43.webp
乌鲁木齐,五一农场文化活动中心,143694181,43.985683,87.413163,0.0,,https://dimg04.c-ctrip.com/images/0102u1200086k28vc0A5C.jpg
乌鲁木齐,维尼宝贝儿童spa会馆,143702750,43.91652,87.545111,0.0,,https://dimg04.c-ctrip.com/images/0HJ2512000g6j2mri52F2.jpg
乌鲁木齐,汇园社区活动中心,143707435,43.903235,87.592682,0.0,,https://dimg04.c-ctrip.com/images/0102u1200086k28vc0A5C.jpg
乌鲁木齐,蓝峰竞速运动工场,143720342,43.899189,87.51809,0.0,,https://dimg04.c-ctrip.com/images/0102u1200086k28vc0A5C.jpg
乌鲁木齐,太平渠大寺,143727243,44.008453,87.63647,0.0,,https://dimg04.c-ctrip.com/images/fd/tg/g1/M06/FC/24/CghzflW7H_iATdynAAA-FlXAIeA738.jpg
乌鲁木齐,下八段清真寺,143729768,44.029388,87.485911,0.0,,https://dimg04.c-ctrip.com/images/fd/tg/g1/M06/FC/24/CghzflW7H_iATdynAAA-FlXAIeA738.jpg
乌鲁木齐,沙河子清真大寺,143746213,43.91441,87.420111,0.0,,https://dimg04.c-ctrip.com/images/fd/tg/g1/M06/FC/24/CghzflW7H_iATdynAAA-FlXAIeA738.jpg
乌鲁木齐,下三工清真大寺,143758611,43.92332,87.56364,0.0,,https://dimg04.c-ctrip.com/images/fd/tg/g1/M06/FC/24/CghzflW7H_iATdynAAA-FlXAIeA738.jpg
乌鲁木齐,酷街桌球俱乐部,145113138,43.880872,87.596448,0.0,,https://dimg04.c-ctrip.com/images/0HJ6o12000g6egfhoE6CF.jpg
乌鲁木齐,独山子大酒店-游泳池,145116275,43.817812,87.564754,0.0,,https://dimg04.c-ctrip.com/images/0102u1200086k28vc0A5C.jpg
乌鲁木齐,漓渊山庄,145124800,43.851017,87.797165,0.0,,https://dimg04.c-ctrip.com/images/0HJ2p12000g656a7w3AD4.jpg
乌鲁木齐,三屯碑清真寺,145162142,43.765433,87.612306,0.0,,https://dimg04.c-ctrip.com/images/0HJ4912000g3533anE3B3.jpg
乌鲁木齐,蓝雨星空网咖,145191803,43.953647,87.621097,0.0,,https://dimg04.c-ctrip.com/images/0HJ0e12000g2vnhql38A7.jpg
乌鲁木齐,石化回族清真寺,145221706,43.95337,87.688001,0.0,,https://dimg04.c-ctrip.com/images/0HJ5k12000g30d5qg598D.jpg
乌鲁木齐,雅矿公司退休人员活动室,145231517,43.852499,87.564973,0.0,,https://dimg04.c-ctrip.com/images/fd/tg/g1/M06/FC/24/CghzflW7H_iATdynAAA-FlXAIeA738.jpg
乌鲁木齐,退休人员活动站,145241566,43.880918,87.539025,0.0,,https://dimg04.c-ctrip.com/images/fd/tg/g1/M06/FC/24/CghzflW7H_iATdynAAA-FlXAIeA738.jpg
乌鲁木齐,苇湖梁基督教聚会点,144205843,43.857887,87.64749,0.0,,https://dimg04.c-ctrip.com/images/fd/tg/g1/M06/FC/24/CghzflW7H_iATdynAAA-FlXAIeA738.jpg
乌鲁木齐,碱梁清真寺,144205875,44.050661,87.596057,0.0,,https://dimg04.c-ctrip.com/images/fd/tg/g1/M06/FC/24/CghzflW7H_iATdynAAA-FlXAIeA738.jpg
乌鲁木齐,九龙生态园-千秋阁,144206219,43.757769,87.458686,0.0,,https://dimg04.c-ctrip.com/images/fd/tg/g1/M06/FC/24/CghzflW7H_iATdynAAA-FlXAIeA738.jpg
乌鲁木齐,九龙运动场,144206221,43.757313,87.46313,0.0,,https://dimg04.c-ctrip.com/images/0102u1200086k28vc0A5C.jpg
乌鲁木齐,八家户五队清真寺,144206384,43.866811,87.592653,0.0,,https://dimg04.c-ctrip.com/images/fd/tg/g1/M06/FC/24/CghzflW7H_iATdynAAA-FlXAIeA738.jpg
乌鲁木齐,九道湾水库,144206398,43.925282,87.670276,0.0,,https://dimg04.c-ctrip.com/images/fd/tg/g1/M06/FC/24/CghzflW7H_iATdynAAA-FlXAIeA738.jpg
乌鲁木齐,东九家湾寺,144206441,43.844384,87.560119,0.0,,https://dimg04.c-ctrip.com/images/fd/tg/g1/M06/FC/24/CghzflW7H_iATdynAAA-FlXAIeA738.jpg
乌鲁木齐,四斗渠,144206443,43.661062,87.430535,0.0,,https://dimg04.c-ctrip.com/images/fd/tg/g1/M06/FC/24/CghzflW7H_iATdynAAA-FlXAIeA738.jpg
乌鲁木齐,东工南大寺,144206534,43.998445,87.692026,0.0,,https://dimg04.c-ctrip.com/images/fd/tg/g1/M06/FC/24/CghzflW7H_iATdynAAA-FlXAIeA738.jpg
乌鲁木齐,西三斗渠,144206541,43.702824,87.407055,0.0,,https://dimg04.c-ctrip.com/images/fd/tg/g1/M06/FC/24/CghzflW7H_iATdynAAA-FlXAIeA738.jpg
乌鲁木齐,乌鲁木齐新中剧院,144206579,43.794901,87.617088,0.0,,https://dimg04.c-ctrip.com/images/0HJ6x12000g3872xe4693.jpg
乌鲁木齐,六队清真寺,144206596,43.950186,87.706442,0.0,,https://dimg04.c-ctrip.com/images/fd/tg/g1/M06/FC/24/CghzflW7H_iATdynAAA-FlXAIeA738.jpg
乌鲁木齐,乌鲁木齐市第六十四小学乡村学校少年宫,144206638,43.830246,87.683006,0.0,,https://dimg04.c-ctrip.com/images/fd/tg/g1/M06/FC/24/CghzflW7H_iATdynAAA-FlXAIeA738.jpg
乌鲁木齐,马兵台球俱乐部(七一广场店),145264544,43.81698,87.622887,0.0,,https://dimg04.c-ctrip.com/images/0HJ4e12000g30hh94FED3.jpg
乌鲁木齐,灵官殿,145280999,43.801091,87.523372,0.0,,https://dimg04.c-ctrip.com/images/fd/tg/g1/M06/FC/24/CghzflW7H_iATdynAAA-FlXAIeA738.jpg
乌鲁木齐,佳园社区游乐场,145284161,43.899643,87.609894,0.0,,https://dimg04.c-ctrip.com/images/0HJ5812000g74pe4z4579.jpg
乌鲁木齐,红墅小院里蓝卡别墅城市展厅,145350176,43.876619,87.582276,0.0,,https://dimg04.c-ctrip.com/images/fd/tg/g1/M06/FC/24/CghzflW7H_iATdynAAA-FlXAIeA738.jpg
乌鲁木齐,大十字商业大厦住宅小区活动室,145557835,43.814285,87.615242,0.0,,https://dimg04.c-ctrip.com/images/fd/tg/g1/M06/FC/24/CghzflW7H_iATdynAAA-FlXAIeA738.jpg
乌鲁木齐,老君殿,145570674,43.801819,87.523043,0.0,,https://dimg04.c-ctrip.com/images/0HJ4i12000g2u1516C266.jpg
乌鲁木齐,八家户北清真寺,145577358,43.87293,87.592548,0.0,,https://dimg04.c-ctrip.com/images/fd/tg/g1/M06/FC/24/CghzflW7H_iATdynAAA-FlXAIeA738.jpg
乌鲁木齐,君子好球台球俱乐部,145596883,43.910556,87.544474,0.0,,https://dimg04.c-ctrip.com/images/0HJ2x12000g67almjF647.jpg
乌鲁木齐,奥缘篮球训练中心,145596964,43.823921,87.566107,0.0,,https://dimg04.c-ctrip.com/images/0HJ6t12000g8t54rp998E.jpg
乌鲁木齐,北斗广场,145606773,43.843477,87.530346,0.0,,https://dimg04.c-ctrip.com/images/0HJ0z12000g92ue6jA66C.jpg
乌鲁木齐,浩天浴池(汤沐道热水浴幸福路店),145606783,43.788717,87.63263,0.0,,https://dimg04.c-ctrip.com/images/0102u1200086k28vc0A5C.jpg
乌鲁木齐,天俪池水疗城,145616614,43.88002,87.531272,0.0,,https://dimg04.c-ctrip.com/images/0102u1200086k28vc0A5C.jpg
乌鲁木齐,明珠桌球,145616624,43.814093,87.576291,0.0,,https://dimg04.c-ctrip.com/images/0HJ1k12000g2w1lm7F5C0.jpg
乌鲁木齐,乌鲁木齐市职工文体活动中心,145616638,43.79759,87.60168,0.0,,https://dimg04.c-ctrip.com/images/0HJ0212000g65arj719A6.jpg
乌鲁木齐,汇羽羽毛球俱乐部,145636166,43.786342,87.632876,0.0,,https://dimg04.c-ctrip.com/images/0HJ0d12000g66u3anCC29.jpg
乌鲁木齐,薪薪网络(幸福路店),145707726,43.783452,87.643837,0.0,,https://dimg04.c-ctrip.com/images/0102u1200086k28vc0A5C.jpg
乌鲁木齐,科普文化广场,146163341,43.878308,87.566366,0.0,,https://dimg04.c-ctrip.com/images/0102u1200086k28vc0A5C.jpg
乌鲁木齐,星巴诺克台球俱乐部,146163624,43.78093,87.60421,0.0,,https://dimg04.c-ctrip.com/images/0102u1200086k28vc0A5C.jpg
乌鲁木齐,侦探剧本推理社(小西门店),145449482,43.799133,87.610752,0.0,,https://dimg04.c-ctrip.com/images/0102u1200086k28vc0A5C.jpg
乌鲁木齐,新疆师范大学-音乐厅,145452526,43.83302,87.59263,0.0,,https://dimg04.c-ctrip.com/images/0102u1200086k28vc0A5C.jpg
乌鲁木齐,休新网咖,145478951,43.869148,87.4255,0.0,,https://dimg04.c-ctrip.com/images/0HJ6m12000g2svhd7BEBC.jpg
乌鲁木齐,大兵台球俱乐部,145489082,43.826969,87.574135,0.0,,https://dimg04.c-ctrip.com/images/0HJ6j12000g2td6y74C82.jpg
乌鲁木齐,超能星球智能运动馆(天山万科广场店),145489132,43.75862,87.627613,0.0,,https://dimg04.c-ctrip.com/images/0HJ4f12000g6iyuh4BBE4.jpg
乌鲁木齐,曼8赫台球俱乐部,145508827,43.807536,87.574868,0.0,,https://dimg04.c-ctrip.com/images/0HJ6o12000g87rpsv1F1B.jpg
乌鲁木齐,黔老贵 文化馆,145528368,43.833661,87.53107,0.0,,https://dimg04.c-ctrip.com/images/fd/tg/g1/M06/FC/24/CghzflW7H_iATdynAAA-FlXAIeA738.jpg
乌鲁木齐,河南海润德水上乐园设备,145538138,43.888082,87.858181,0.0,,https://dimg04.c-ctrip.com/images/fd/tg/g1/M06/FC/24/CghzflW7H_iATdynAAA-FlXAIeA738.jpg
乌鲁木齐,ROOM ESCAPE 实景剧情密室,145727594,43.797841,87.617005,0.0,,https://dimg04.c-ctrip.com/images/0102u1200086k28vc0A5C.jpg
乌鲁木齐,宝贝王早教中心(乌鲁木齐高新万达广场店),145730821,43.910679,87.571452,0.0,,https://dimg04.c-ctrip.com/images/0102u1200086k28vc0A5C.jpg
乌鲁木齐,探雾VR·PS5·XBOX(友好路店),145732046,43.820452,87.591381,0.0,,https://dimg04.c-ctrip.com/images/0102u1200086k28vc0A5C.jpg
乌鲁木齐,众联博艺武术散打跆拳道,145761144,43.805409,87.635091,0.0,,https://dimg04.c-ctrip.com/images/0102u1200086k28vc0A5C.jpg
乌鲁木齐,长江路圆点桌球厅,145774201,43.79054,87.59448,0.0,,https://dimg04.c-ctrip.com/images/0102u1200086k28vc0A5C.jpg
乌鲁木齐,第五季台球俱乐部,145775376,43.911549,87.544552,0.0,,https://dimg04.c-ctrip.com/images/0HJ6x12000g30nmsr3F7E.jpg
乌鲁木齐,奥斯卡国际影城(躺式情侣厅共3个),145781061,43.793999,87.616402,0.0,,https://dimg04.c-ctrip.com/images/0102u1200086k28vc0A5C.jpg
乌鲁木齐,探界Ps5·Xbox·Switch电动社主机游戏体验店,145794191,43.842592,87.519881,0.0,,https://dimg04.c-ctrip.com/images/0102u1200086k28vc0A5C.jpg
乌鲁木齐,童享乐DIY益智园(乌鲁木齐德汇万达广场店),145795857,43.787738,87.58684,0.0,,https://dimg04.c-ctrip.com/images/0102u1200086k28vc0A5C.jpg
乌鲁木齐,德迈商汇新疆乌市俱乐部,145801078,43.800265,87.593736,0.0,,https://dimg04.c-ctrip.com/images/0102u1200086k28vc0A5C.jpg
乌鲁木齐,万合桌球,145804208,43.836657,87.519018,0.0,,https://dimg04.c-ctrip.com/images/0102u1200086k28vc0A5C.jpg
乌鲁木齐,尚IN影咖私人影院,145814192,43.843019,87.518246,0.0,,https://dimg04.c-ctrip.com/images/0102u1200086k28vc0A5C.jpg
乌鲁木齐,星标桌球俱乐部,145820980,43.81259,87.463724,0.0,,https://dimg04.c-ctrip.com/images/0102u1200086k28vc0A5C.jpg
乌鲁木齐,英森台球俱乐部(安居北路西四巷店),145834078,43.830592,87.602823,0.0,,https://dimg04.c-ctrip.com/images/0102u1200086k28vc0A5C.jpg
乌鲁木齐,镭战大联盟真人CS(乌鲁木齐经开万达广场店),145834088,43.840785,87.51831,0.0,,https://dimg04.c-ctrip.com/images/0102u1200086k28vc0A5C.jpg
乌鲁木齐,星乔台球,145840923,43.812746,87.549419,0.0,,https://dimg04.c-ctrip.com/images/0102u1200086k28vc0A5C.jpg
乌鲁木齐,无双乔氏台球会馆(百商广场店),145860885,43.860534,87.588414,0.0,,https://dimg04.c-ctrip.com/images/0102u1200086k28vc0A5C.jpg
乌鲁木齐,叶子的黑八台球俱乐部,145860897,43.836185,87.552807,0.0,,https://dimg04.c-ctrip.com/images/0102u1200086k28vc0A5C.jpg
乌鲁木齐,联小玩VR2 PS5·Switch·XBOX电玩体验馆,145870715,43.902509,87.58687,0.0,,https://dimg04.c-ctrip.com/images/0102u1200086k28vc0A5C.jpg
乌鲁木齐,Zu个局潮级养生足疗·水系头疗·唐采SPA(喀什路机场店),145870804,43.886447,87.535103,0.0,,https://dimg04.c-ctrip.com/images/0102u1200086k28vc0A5C.jpg
乌鲁木齐,沸点桌球会所,145870814,43.806723,87.620071,0.0,,https://dimg04.c-ctrip.com/images/0102u1200086k28vc0A5C.jpg
乌鲁木齐,新疆体育中心-综合训练馆,145900660,43.87802,87.56264,0.0,,https://dimg04.c-ctrip.com/images/0102u1200086k28vc0A5C.jpg
乌鲁木齐,新红山澡堂,145910519,43.804464,87.5948,0.0,,https://dimg04.c-ctrip.com/images/0102u1200086k28vc0A5C.jpg
乌鲁木齐,众联博艺武术散打跆拳道(北京路校区),145930544,43.857763,87.569233,0.0,,https://dimg04.c-ctrip.com/images/0102u1200086k28vc0A5C.jpg
乌鲁木齐,中影国际影城(百商广场店),145930573,43.860462,87.588825,0.0,,https://dimg04.c-ctrip.com/images/0102u1200086k28vc0A5C.jpg
乌鲁木齐,广平棋牌室,145963338,43.82726,87.565909,0.0,,https://dimg04.c-ctrip.com/images/0102u1200086k28vc0A5C.jpg
乌鲁木齐,红山浴池,145965346,43.807275,87.617594,0.0,,https://dimg04.c-ctrip.com/images/0HJ2i12000g8s2dqnF1D7.jpg
乌鲁木齐,启梦轮滑(百商广场店),145973287,43.860534,87.588414,0.0,,https://dimg04.c-ctrip.com/images/0102u1200086k28vc0A5C.jpg
乌鲁木齐,DT篮球俱乐部,145980046,43.84473,87.530702,0.0,,https://dimg04.c-ctrip.com/images/0102u1200086k28vc0A5C.jpg
乌鲁木齐,台球俱乐部,145984310,43.776272,87.616344,0.0,,https://dimg04.c-ctrip.com/images/0102u1200086k28vc0A5C.jpg
乌鲁木齐,威灵格台球俱乐部(绿城旗舰店),145984369,43.873101,87.611457,0.0,,https://dimg04.c-ctrip.com/images/0102u1200086k28vc0A5C.jpg
乌鲁木齐,马良桌球俱乐部(唐山路店),148630783,43.903103,87.568128,0.0,,https://dimg04.c-ctrip.com/images/0102u1200086k28vc0A5C.jpg
乌鲁木齐,喜番里棋牌(万科生活广场店),148636508,43.913281,87.592993,0.0,,https://dimg04.c-ctrip.com/images/0102u1200086k28vc0A5C.jpg
乌鲁木齐,重炮拳击俱乐部,148639381,43.882231,87.664401,0.0,,https://dimg04.c-ctrip.com/images/0HJ0g12000g6m79zxDCEB.jpg
乌鲁木齐,夜色养生桑拿会所,148641534,43.806508,87.598556,0.0,,https://dimg04.c-ctrip.com/images/0102u1200086k28vc0A5C.jpg
乌鲁木齐,5D动感影院(乐福城市生活广场店),148650199,43.818301,87.613954,0.0,,https://dimg04.c-ctrip.com/images/0102u1200086k28vc0A5C.jpg
乌鲁木齐,风云台球·常聚阁棋牌,148651304,43.80177,87.598312,0.0,,https://dimg04.c-ctrip.com/images/0HJ1a12000g8xj4ybEF30.jpg
乌鲁木齐,乔巴桌球,148656005,43.899694,87.570362,0.0,,https://dimg04.c-ctrip.com/images/0HJ1512000g2tbzsg6477.jpg
乌鲁木齐,多乐台球(大绿谷五分店),148665677,43.837229,87.492286,0.0,,https://dimg04.c-ctrip.com/images/0102u1200086k28vc0A5C.jpg
乌鲁木齐,头屯河谷森林公园金鳞湖,148665703,44.001205,87.34964,0.0,,https://dimg04.c-ctrip.com/images/0HJ3r12000g2ufuqq9F71.jpg
乌鲁木齐,米可宝贝游泳馆(中海·会展九里店),148668604,43.881555,87.633934,0.0,,https://dimg04.c-ctrip.com/images/0HJ4y12000g8pkfu94CA4.jpg
乌鲁木齐,弹小娱自助台球室(百万庄机械城店),148678109,43.858213,87.603872,0.0,,https://dimg04.c-ctrip.com/images/0102u1200086k28vc0A5C.jpg
乌鲁木齐,蓝陵儿童乐园,148694533,43.890193,87.666218,0.0,,https://dimg04.c-ctrip.com/images/0102u1200086k28vc0A5C.jpg
乌鲁木齐,西南台球俱乐部,148694584,43.836548,87.60428,0.0,,https://dimg04.c-ctrip.com/images/0102u1200086k28vc0A5C.jpg
乌鲁木齐,莱昂保罗击剑俱乐部(经开区文体中心),148697428,43.839497,87.509345,0.0,,https://dimg04.c-ctrip.com/images/0102u1200086k28vc0A5C.jpg
乌鲁木齐,谈小娱24h自助台球(万科都会传奇店),148771164,43.821022,87.573049,0.0,,https://dimg04.c-ctrip.com/images/0102u1200086k28vc0A5C.jpg
乌鲁木齐,零乔台球,148780699,43.963509,87.645435,0.0,,https://dimg04.c-ctrip.com/images/0102u1200086k28vc0A5C.jpg
乌鲁木齐,爵美乐·来力台球俱乐部(铁路局店),148794095,43.86865,87.560129,0.0,,https://dimg04.c-ctrip.com/images/0102u1200086k28vc0A5C.jpg
乌鲁木齐,康华农庄采摘园,145320611,43.977924,87.432363,0.0,,https://dimg04.c-ctrip.com/images/0HJ6n12000g6qtp1cCF20.jpg
乌鲁木齐,朱老汉无公害蟠桃园,145320643,43.814325,87.492326,0.0,,https://dimg04.c-ctrip.com/images/fd/tg/g1/M06/FC/24/CghzflW7H_iATdynAAA-FlXAIeA738.jpg
乌鲁木齐,吉三泉水库,145360073,44.08075,87.609681,0.0,,https://dimg04.c-ctrip.com/images/fd/tg/g1/M06/FC/24/CghzflW7H_iATdynAAA-FlXAIeA738.jpg
乌鲁木齐,煜林体育大湾球馆,145389674,43.774675,87.634807,0.0,,https://dimg04.c-ctrip.com/images/0102u1200086k28vc0A5C.jpg
乌鲁木齐,随浴而安洗浴足疗,145469116,43.813569,87.552061,0.0,,https://dimg04.c-ctrip.com/images/0102u1200086k28vc0A5C.jpg
乌鲁木齐,891汽车文化美食游乐园,145655517,43.965511,87.684898,0.0,,https://dimg04.c-ctrip.com/images/fd/tg/g1/M06/FC/24/CghzflW7H_iATdynAAA-FlXAIeA738.jpg
乌鲁木齐,伯爵桌球俱乐部,145675145,43.825621,87.591713,0.0,,https://dimg04.c-ctrip.com/images/0HJ4e12000g2woqif5E7D.jpg
乌鲁木齐,强盛桌球,145880780,43.863865,87.302473,0.0,,https://dimg04.c-ctrip.com/images/0102u1200086k28vc0A5C.jpg
乌鲁木齐,万王之王网咖,145950358,43.793924,87.665153,0.0,,https://dimg04.c-ctrip.com/images/0HJ5o12000g316sqj0BFD.jpg
乌鲁木齐,星八台球,145990007,43.884417,87.435968,0.0,,https://dimg04.c-ctrip.com/images/0102u1200086k28vc0A5C.jpg
乌鲁木齐,黑石桌球,146009653,43.938559,87.628922,0.0,,https://dimg04.c-ctrip.com/images/0102u1200086k28vc0A5C.jpg
乌鲁木齐,英冠桌球厅,146019679,43.888717,87.522848,0.0,,https://dimg04.c-ctrip.com/images/0102u1200086k28vc0A5C.jpg
乌鲁木齐,扶榣沉浸式RPG互动演绎剧场,146019689,43.866067,87.584988,0.0,,https://dimg04.c-ctrip.com/images/0102u1200086k28vc0A5C.jpg
乌鲁木齐,拉斯维加斯台球,146019737,43.758235,87.631017,0.0,,https://dimg04.c-ctrip.com/images/0102u1200086k28vc0A5C.jpg
乌鲁木齐,王军雀友星牌台球城,146022776,43.808424,87.593302,0.0,,https://dimg04.c-ctrip.com/images/0102u1200086k28vc0A5C.jpg
乌鲁木齐,八洛克台球,146032658,43.979656,87.4992,0.0,,https://dimg04.c-ctrip.com/images/0102u1200086k28vc0A5C.jpg
乌鲁木齐,BF篮球馆,146039372,43.951071,87.658784,0.0,,https://dimg04.c-ctrip.com/images/0102u1200086k28vc0A5C.jpg
乌鲁木齐,小精灵乒乓球馆,146053549,43.798889,87.616551,0.0,,https://dimg04.c-ctrip.com/images/0102u1200086k28vc0A5C.jpg
乌鲁木齐,亿霖汗蒸养生馆,146054078,43.830401,87.604709,0.0,,https://dimg04.c-ctrip.com/images/0102u1200086k28vc0A5C.jpg
乌鲁木齐,煌庭洗浴会所,146062373,43.866322,87.589435,0.0,,https://dimg04.c-ctrip.com/images/0102u1200086k28vc0A5C.jpg
乌鲁木齐,球动力台球厅,146088865,43.901527,87.518794,0.0,,https://dimg04.c-ctrip.com/images/0HJ6j12000g33cs7h6F7F.jpg
乌鲁木齐,青柠私幕(瑞达店),146098958,43.767731,87.625925,0.0,,https://dimg04.c-ctrip.com/images/0HJ4l12000g2t8in5112C.jpg
乌鲁木齐,乌鲁木齐西域武道益宝贝跆拳道馆,146103047,43.898879,87.525438,0.0,,https://dimg04.c-ctrip.com/images/0102u1200086k28vc0A5C.jpg
乌鲁木齐,游戏基地GAME BASE,146108728,43.834066,87.557929,0.0,,https://dimg04.c-ctrip.com/images/0102u1200086k28vc0A5C.jpg
乌鲁木齐,众腾台球俱乐部,146128985,43.938022,87.526566,0.0,,https://dimg04.c-ctrip.com/images/0102u1200086k28vc0A5C.jpg
乌鲁木齐,众联博艺武术散打跆拳道(银川路校区),146141973,43.863643,87.59333,0.0,,https://dimg04.c-ctrip.com/images/0102u1200086k28vc0A5C.jpg
乌鲁木齐,黑豹竞速(恒大嘉凯店),146148668,43.870271,87.634846,0.0,,https://dimg04.c-ctrip.com/images/0102u1200086k28vc0A5C.jpg
乌鲁木齐,金山谷台球俱乐部,146148741,43.826863,87.497039,0.0,,https://dimg04.c-ctrip.com/images/0HJ3c12000g8m5wn22800.jpg
乌鲁木齐,漫步君台球厅,146165836,43.914969,87.629158,0.0,,https://dimg04.c-ctrip.com/images/0HJ4312000g2vbnr94B59.jpg
乌鲁木齐,勇盛台球俱乐部,146165839,43.868315,87.656943,0.0,,https://dimg04.c-ctrip.com/images/0102u1200086k28vc0A5C.jpg
乌鲁木齐,环游嘉年华(天山万科广场店),146165965,43.758418,87.62783,0.0,,https://dimg04.c-ctrip.com/images/0102u1200086k28vc0A5C.jpg
乌鲁木齐,九洲汗蒸能量养生馆,148577890,43.847221,87.591223,0.0,,https://dimg04.c-ctrip.com/images/0HJ5n12000g6v31ro9655.jpg
乌鲁木齐,磐石桌球健身棋牌(天津北路),148580809,43.877593,87.57481,0.0,,https://dimg04.c-ctrip.com/images/0HJ4c12000g6vzyxg9C81.jpg
乌鲁木齐,君康能阳光屋(新疆香槟水岸店),148591680,43.863147,87.523531,0.0,,https://dimg04.c-ctrip.com/images/0102u1200086k28vc0A5C.jpg
乌鲁木齐,动感嘉年华动漫城,148723530,43.836888,87.522656,0.0,,https://dimg04.c-ctrip.com/images/0102u1200086k28vc0A5C.jpg
乌鲁木齐,球鞋浴场(国际机场店),148733044,43.890105,87.482648,0.0,,https://dimg04.c-ctrip.com/images/0102u1200086k28vc0A5C.jpg
乌鲁木齐,营见露营基地,148742628,43.815283,87.791192,0.0,,https://dimg04.c-ctrip.com/images/fd/tg/g1/M06/FC/24/CghzflW7H_iATdynAAA-FlXAIeA738.jpg
乌鲁木齐,禅武武术馆,148742691,43.900836,87.516923,0.0,,https://dimg04.c-ctrip.com/images/0102u1200086k28vc0A5C.jpg
乌鲁木齐,上校台球俱乐部,148742710,43.899134,87.570609,0.0,,https://dimg04.c-ctrip.com/images/0HJ6d12000g66zrup897C.jpg
乌鲁木齐,英里台球俱乐部,148752228,43.806051,87.645051,0.0,,https://dimg04.c-ctrip.com/images/0102u1200086k28vc0A5C.jpg
乌鲁木齐,A888台球俱乐部(丝路新天地店),148752270,43.767456,87.6256,0.0,,https://dimg04.c-ctrip.com/images/0102u1200086k28vc0A5C.jpg
乌鲁木齐,儿童乐园,149269528,43.879839,87.609575,0.0,,https://dimg04.c-ctrip.com/images/fd/tg/g1/M06/FC/24/CghzflW7H_iATdynAAA-FlXAIeA738.jpg
乌鲁木齐,夹夹有娃(经开万达店),149269552,43.841863,87.51774,0.0,,https://dimg04.c-ctrip.com/images/0102u1200086k28vc0A5C.jpg
乌鲁木齐,吉康专业修脚,149269581,43.749895,87.565512,0.0,,https://dimg04.c-ctrip.com/images/0102u1200086k28vc0A5C.jpg
乌鲁木齐,海悦国际商务台球馆,149273517,43.818963,87.607831,0.0,,https://dimg04.c-ctrip.com/images/0102u1200086k28vc0A5C.jpg
乌鲁木齐,康居会所,149308496,43.901937,87.590726,0.0,,https://dimg04.c-ctrip.com/images/0102u1200086k28vc0A5C.jpg
乌鲁木齐,明园新时代商务KTV,151081879,43.832509,87.586721,0.0,,https://dimg04.c-ctrip.com/images/0102u1200086k28vc0A5C.jpg
乌鲁木齐,美聚休闲健身馆,151252183,43.9248,87.569807,0.0,,https://dimg04.c-ctrip.com/images/0102u1200086k28vc0A5C.jpg
乌鲁木齐,西域之星武术健身俱乐部(天山区分馆),151252258,43.793702,87.669391,0.0,,https://dimg04.c-ctrip.com/images/0102u1200086k28vc0A5C.jpg
乌鲁木齐,健力美健身馆,151257067,43.794611,87.604438,0.0,,https://dimg04.c-ctrip.com/images/0102u1200086k28vc0A5C.jpg
乌鲁木齐,多乐台球(云杉·城市奥莱店),151272049,43.868941,87.561951,0.0,,https://dimg04.c-ctrip.com/images/0102u1200086k28vc0A5C.jpg
乌鲁木齐,美伽普拉提塑美馆,151275154,43.877819,87.633665,0.0,,https://dimg04.c-ctrip.com/images/0102u1200086k28vc0A5C.jpg
乌鲁木齐,云击台球俱乐部,151281822,43.903271,87.571171,0.0,,https://dimg04.c-ctrip.com/images/0102u1200086k28vc0A5C.jpg
乌鲁木齐,艺伽瑜伽普拉提(南屏街店),151291786,43.87229,87.434022,0.0,,https://dimg04.c-ctrip.com/images/0102u1200086k28vc0A5C.jpg
乌鲁木齐,斑马电竞馆(会展中心店),151294863,43.876391,87.629364,0.0,,https://dimg04.c-ctrip.com/images/0102u1200086k28vc0A5C.jpg
乌鲁木齐,中8名仕台球俱乐部,151301385,43.910063,87.443784,0.0,,https://dimg04.c-ctrip.com/images/0102u1200086k28vc0A5C.jpg
乌鲁木齐,1995乔氏台球馆,151301386,43.836066,87.653039,0.0,,https://dimg04.c-ctrip.com/images/0102u1200086k28vc0A5C.jpg
乌鲁木齐,Igym健身工作室,151347366,43.770897,87.643052,0.0,,https://dimg04.c-ctrip.com/images/0102u1200086k28vc0A5C.jpg
乌鲁木齐,山鱼亭,150161333,43.868201,87.615779,0.0,,https://dimg04.c-ctrip.com/images/fd/tg/g1/M06/FC/24/CghzflW7H_iATdynAAA-FlXAIeA738.jpg
乌鲁木齐,极地篮球,150166994,43.803109,87.563558,0.0,,https://dimg04.c-ctrip.com/images/0102u1200086k28vc0A5C.jpg
乌鲁木齐,兰梦足浴,150170177,43.962945,87.628011,0.0,,https://dimg04.c-ctrip.com/images/0102u1200086k28vc0A5C.jpg
乌鲁木齐,叁马·壹号铁趣森林,150199725,43.808333,87.593576,0.0,,https://dimg04.c-ctrip.com/images/0102u1200086k28vc0A5C.jpg
乌鲁木齐,康怡养会足道·水疗,150332561,43.802361,87.543563,0.0,,https://dimg04.c-ctrip.com/images/0102u1200086k28vc0A5C.jpg
乌鲁木齐,Amigo Trap阿米果露营,150335717,43.828483,87.632337,0.0,,https://dimg04.c-ctrip.com/images/fd/tg/g1/M06/FC/24/CghzflW7H_iATdynAAA-FlXAIeA738.jpg
乌鲁木齐,第9星球(德港万达广场店),150336700,43.87716,87.533787,0.0,,https://dimg04.c-ctrip.com/images/0102u1200086k28vc0A5C.jpg
乌鲁木齐,御龙足道,150361132,43.958284,87.626139,0.0,,https://dimg04.c-ctrip.com/images/0102u1200086k28vc0A5C.jpg
乌鲁木齐,尚善古法头疗(新世界广场店),150361211,43.879906,87.583441,0.0,,https://dimg04.c-ctrip.com/images/0102u1200086k28vc0A5C.jpg
乌鲁木齐,米东区米古里西域水游城旅游中心,150370676,43.960255,87.643036,0.0,,https://dimg04.c-ctrip.com/images/fd/tg/g1/M06/FC/24/CghzflW7H_iATdynAAA-FlXAIeA738.jpg
乌鲁木齐,大派电影片场(新疆店),150370741,43.867169,87.560101,0.0,,https://dimg04.c-ctrip.com/images/0102u1200086k28vc0A5C.jpg
乌鲁木齐,大堂足道养生,150370780,43.945966,87.334058,0.0,,https://dimg04.c-ctrip.com/images/0102u1200086k28vc0A5C.jpg
乌鲁木齐,文武跆拳道,150373834,43.887066,87.582725,0.0,,https://dimg04.c-ctrip.com/images/0102u1200086k28vc0A5C.jpg
乌鲁木齐,悦来悦好足浴养生,150373838,43.841779,87.499287,0.0,,https://dimg04.c-ctrip.com/images/0102u1200086k28vc0A5C.jpg
乌鲁木齐,党史宣教展厅,150380239,43.910795,87.57133,0.0,,https://dimg04.c-ctrip.com/images/fd/tg/g1/M06/FC/24/CghzflW7H_iATdynAAA-FlXAIeA738.jpg
乌鲁木齐,御品养身(朝阳雅居店),150380268,43.963982,87.624486,0.0,,https://dimg04.c-ctrip.com/images/0102u1200086k28vc0A5C.jpg
乌鲁木齐,聚力台球俱乐部,150380316,43.772006,87.595923,0.0,,https://dimg04.c-ctrip.com/images/0102u1200086k28vc0A5C.jpg
乌鲁木齐,时光KTV,150389778,43.794701,87.595315,0.0,,https://dimg04.c-ctrip.com/images/0102u1200086k28vc0A5C.jpg
乌鲁木齐,云轩阁足道,150389801,43.861832,87.304371,0.0,,https://dimg04.c-ctrip.com/images/0102u1200086k28vc0A5C.jpg
乌鲁木齐,新疆艺术学院(金桥校区)-学生浴室,150399410,43.839569,87.416241,0.0,,https://dimg04.c-ctrip.com/images/0102u1200086k28vc0A5C.jpg
乌鲁木齐,捷越篮球馆,150408821,43.934782,87.628483,0.0,,https://dimg04.c-ctrip.com/images/0102u1200086k28vc0A5C.jpg
乌鲁木齐,理疗推拿,150408854,43.882488,87.662318,0.0,,https://dimg04.c-ctrip.com/images/0102u1200086k28vc0A5C.jpg
乌鲁木齐,蜀中推拿理疗,150408921,43.776513,87.65538,0.0,,https://dimg04.c-ctrip.com/images/0102u1200086k28vc0A5C.jpg
乌鲁木齐,莲花汇休闲娱乐KTV,150408928,43.835631,87.527447,0.0,,https://dimg04.c-ctrip.com/images/0102u1200086k28vc0A5C.jpg
乌鲁木齐,丝绸之路经济带旅游集散中心,150421561,43.84441,87.527887,0.0,,https://dimg04.c-ctrip.com/images/fd/tg/g1/M06/FC/24/CghzflW7H_iATdynAAA-FlXAIeA738.jpg
乌鲁木齐,观仪养生会所(世纪金龙时代广场店),150422492,43.804166,87.607893,0.0,,https://dimg04.c-ctrip.com/images/0102u1200086k28vc0A5C.jpg
乌鲁木齐,山与纪念馆,150437401,43.870735,87.632401,0.0,,https://dimg04.c-ctrip.com/images/fd/tg/g1/M06/FC/24/CghzflW7H_iATdynAAA-FlXAIeA738.jpg
乌鲁木齐,立健推拿保健中心,150437424,43.955103,87.692164,0.0,,https://dimg04.c-ctrip.com/images/0102u1200086k28vc0A5C.jpg
乌鲁木齐,鑫润乔台球,150443052,43.821082,87.698414,0.0,,https://dimg04.c-ctrip.com/images/0102u1200086k28vc0A5C.jpg
乌鲁木齐,奚胜按摩推拿店,150443108,43.837038,87.655014,0.0,,https://dimg04.c-ctrip.com/images/0102u1200086k28vc0A5C.jpg
乌鲁木齐,依家健身,151311172,43.835619,87.525592,0.0,,https://dimg04.c-ctrip.com/images/0102u1200086k28vc0A5C.jpg
乌鲁木齐,向日葵游泳馆(天山区爱乐鲸喜店),151314219,43.797371,87.658179,0.0,,https://dimg04.c-ctrip.com/images/0102u1200086k28vc0A5C.jpg
乌鲁木齐,木人巷沉浸剧情密室(汇嘉时代广场北京路店),151314230,43.875041,87.556907,0.0,,https://dimg04.c-ctrip.com/images/0102u1200086k28vc0A5C.jpg
乌鲁木齐,CHAO·健身,151320858,43.87339,87.558048,0.0,,https://dimg04.c-ctrip.com/images/0102u1200086k28vc0A5C.jpg
乌鲁木齐,游视界电竞网咖,151330596,43.788296,87.467649,0.0,,https://dimg04.c-ctrip.com/images/0102u1200086k28vc0A5C.jpg
乌鲁木齐,头屯河农场室外篮球场,151330598,43.869992,87.303986,0.0,,https://dimg04.c-ctrip.com/images/0102u1200086k28vc0A5C.jpg
乌鲁木齐,众联博艺体育搏击(青岛路馆),151333603,43.879554,87.537328,0.0,,https://dimg04.c-ctrip.com/images/0102u1200086k28vc0A5C.jpg
乌鲁木齐,快8台球俱乐部,150176882,43.89132,87.544737,0.0,,https://dimg04.c-ctrip.com/images/0102u1200086k28vc0A5C.jpg
乌鲁木齐,皇城足道,150186610,43.922503,87.571612,0.0,,https://dimg04.c-ctrip.com/images/0102u1200086k28vc0A5C.jpg
乌鲁木齐,财神殿,150186684,43.883088,87.614315,0.0,,https://dimg04.c-ctrip.com/images/fd/tg/g1/M06/FC/24/CghzflW7H_iATdynAAA-FlXAIeA738.jpg
乌鲁木齐,明珠国际商务台球馆,150186704,43.821295,87.591585,0.0,,https://dimg04.c-ctrip.com/images/0102u1200086k28vc0A5C.jpg
乌鲁木齐,星期八台球,150196520,43.958103,87.639,0.0,,https://dimg04.c-ctrip.com/images/0102u1200086k28vc0A5C.jpg
乌鲁木齐,御雅足道,150196539,43.89052,87.659319,0.0,,https://dimg04.c-ctrip.com/images/0102u1200086k28vc0A5C.jpg
乌鲁木齐,名将·羽毛球馆(156馆),150196582,43.803272,87.562332,0.0,,https://dimg04.c-ctrip.com/images/0102u1200086k28vc0A5C.jpg
乌鲁木齐,悟空台球厅,150196609,43.795552,87.67141,0.0,,https://dimg04.c-ctrip.com/images/0102u1200086k28vc0A5C.jpg
乌鲁木齐,蓝蓝台球馆,150196622,43.750882,87.566955,0.0,,https://dimg04.c-ctrip.com/images/0102u1200086k28vc0A5C.jpg
乌鲁木齐,星乔·独牙台球俱乐部,150200766,43.884025,87.634686,0.0,,https://dimg04.c-ctrip.com/images/0102u1200086k28vc0A5C.jpg
乌鲁木齐,水磨沟区七道湾北路康一堂推拿馆,150206329,43.879417,87.642766,0.0,,https://dimg04.c-ctrip.com/images/0102u1200086k28vc0A5C.jpg
乌鲁木齐,名角美容足疗养生会所,150206392,43.87344,87.42617,0.0,,https://dimg04.c-ctrip.com/images/0102u1200086k28vc0A5C.jpg
乌鲁木齐,疆渝盲人按摩,150209635,43.922672,87.570048,0.0,,https://dimg04.c-ctrip.com/images/0102u1200086k28vc0A5C.jpg
乌鲁木齐,丝路驿站马背部落,150216268,43.855406,87.576352,0.0,,https://dimg04.c-ctrip.com/images/fd/tg/g1/M06/FC/24/CghzflW7H_iATdynAAA-FlXAIeA738.jpg
乌鲁木齐,庆有康复推拿,150216273,43.870896,87.425294,0.0,,https://dimg04.c-ctrip.com/images/0102u1200086k28vc0A5C.jpg
乌鲁木齐,华宇娱乐动漫城,150235893,43.808886,87.595331,0.0,,https://dimg04.c-ctrip.com/images/0102u1200086k28vc0A5C.jpg
乌鲁木齐,恋爱博物馆(OL星辰汇店),150240018,43.80018,87.608362,0.0,,https://dimg04.c-ctrip.com/images/fd/tg/g1/M06/FC/24/CghzflW7H_iATdynAAA-FlXAIeA738.jpg
乌鲁木齐,博悦铭仕台球俱乐部,148538401,43.773993,87.468739,0.0,,https://dimg04.c-ctrip.com/images/0102u1200086k28vc0A5C.jpg
乌鲁木齐,狼吉猩,148541316,43.86031,87.535323,0.0,,https://dimg04.c-ctrip.com/images/fd/tg/g1/M06/FC/24/CghzflW7H_iATdynAAA-FlXAIeA738.jpg
乌鲁木齐,桌尔不凡·剧中人,148548347,43.868069,87.580202,0.0,,https://dimg04.c-ctrip.com/images/0HJ0y12000g2z9w5974D0.jpg
乌鲁木齐,无直线嗨八台球店(二分店),148558203,43.897126,87.573278,0.0,,https://dimg04.c-ctrip.com/images/0102u1200086k28vc0A5C.jpg
乌鲁木齐,新视界VR·PS5·SWITCH电玩体验馆,148562153,43.87248,87.558696,0.0,,https://dimg04.c-ctrip.com/images/0102u1200086k28vc0A5C.jpg
乌鲁木齐,蜗艾蜗家艾公馆(金碧华府店),148562679,43.802653,87.609589,0.0,,https://dimg04.c-ctrip.com/images/0102u1200086k28vc0A5C.jpg
乌鲁木齐,九州台球俱乐部,148571006,43.874831,87.583482,0.0,,https://dimg04.c-ctrip.com/images/0102u1200086k28vc0A5C.jpg
乌鲁木齐,逆时空·科技抗衰美肤(吾悦广场店),148601484,43.879536,87.631232,0.0,,https://dimg04.c-ctrip.com/images/0102u1200086k28vc0A5C.jpg
乌鲁木齐,吉木的萌小宠(会展吾悦店),148616997,43.879695,87.630965,0.0,,https://dimg04.c-ctrip.com/images/0102u1200086k28vc0A5C.jpg
乌鲁木齐,恰优益智玩学馆(天山万科广场店),148617101,43.75847,87.627623,0.0,,https://dimg04.c-ctrip.com/images/0102u1200086k28vc0A5C.jpg
乌鲁木齐,新疆维吾尔自治州图书馆中亚南路社区分管,148621010,43.880402,87.532079,0.0,,https://dimg04.c-ctrip.com/images/fd/tg/g1/M06/FC/24/CghzflW7H_iATdynAAA-FlXAIeA738.jpg
乌鲁木齐,美丽田园(时代广场店),148621029,43.804121,87.609294,0.0,,https://dimg04.c-ctrip.com/images/0102u1200086k28vc0A5C.jpg
乌鲁木齐,格拉度台球俱乐部(西域店),148866382,43.769287,87.644399,0.0,,https://dimg04.c-ctrip.com/images/0102u1200086k28vc0A5C.jpg
乌鲁木齐,迪泰酒店夜总会商务会所,149323435,43.849572,87.569946,0.0,,https://dimg04.c-ctrip.com/images/0102u1200086k28vc0A5C.jpg
乌鲁木齐,UP电竞酒(乌鲁木齐高铁宝能城店),149629641,43.837803,87.520595,0.0,,https://dimg04.c-ctrip.com/images/0102u1200086k28vc0A5C.jpg
乌鲁木齐,耳海式采耳SPA殿(经开万达店),149631761,43.841424,87.515901,0.0,,https://dimg04.c-ctrip.com/images/0102u1200086k28vc0A5C.jpg
乌鲁木齐,丫丫养生(X138店),149964093,44.112727,87.625364,0.0,,https://dimg04.c-ctrip.com/images/0102u1200086k28vc0A5C.jpg
乌鲁木齐,湘阅大众洗浴,149964131,43.769003,87.589473,0.0,,https://dimg04.c-ctrip.com/images/0102u1200086k28vc0A5C.jpg
乌鲁木齐,私人影院,149973994,43.814315,87.611191,0.0,,https://dimg04.c-ctrip.com/images/0102u1200086k28vc0A5C.jpg
乌鲁木齐,艺嘉画馆,149987627,43.942617,87.624811,0.0,,https://dimg04.c-ctrip.com/images/0102u1200086k28vc0A5C.jpg
乌鲁木齐,燕儿窝古树群,149987726,43.713986,87.587605,0.0,,https://dimg04.c-ctrip.com/images/fd/tg/g1/M06/FC/24/CghzflW7H_iATdynAAA-FlXAIeA738.jpg
乌鲁木齐,动杆地带台球俱乐部,150147215,43.865318,87.592093,0.0,,https://dimg04.c-ctrip.com/images/0102u1200086k28vc0A5C.jpg
乌鲁木齐,汰沽浬spa,150150377,43.857808,87.62776,0.0,,https://dimg04.c-ctrip.com/images/0102u1200086k28vc0A5C.jpg
乌鲁木齐,大丁盲人按摩,150157119,43.871248,87.424894,0.0,,https://dimg04.c-ctrip.com/images/0102u1200086k28vc0A5C.jpg
乌鲁木齐,水云轩足疗,150160297,43.778601,87.464479,0.0,,https://dimg04.c-ctrip.com/images/0102u1200086k28vc0A5C.jpg
乌鲁木齐,足养堂,150225995,43.886204,87.434144,0.0,,https://dimg04.c-ctrip.com/images/0102u1200086k28vc0A5C.jpg
乌鲁木齐,福临阁足道,150229183,43.780445,87.467042,0.0,,https://dimg04.c-ctrip.com/images/0102u1200086k28vc0A5C.jpg
乌鲁木齐,玉珠足浴,150245484,43.891126,87.65778,0.0,,https://dimg04.c-ctrip.com/images/0102u1200086k28vc0A5C.jpg
乌鲁木齐,动感8号台球,150245488,43.97553,87.542781,0.0,,https://dimg04.c-ctrip.com/images/0102u1200086k28vc0A5C.jpg
乌鲁木齐,东8台球俱乐部,150255351,43.970761,87.685152,0.0,,https://dimg04.c-ctrip.com/images/0102u1200086k28vc0A5C.jpg
乌鲁木齐,新足领(观园路店),150255387,43.794463,87.714188,0.0,,https://dimg04.c-ctrip.com/images/0102u1200086k28vc0A5C.jpg
乌鲁木齐,碰碰8台球俱乐部,150268257,43.899055,87.571015,0.0,,https://dimg04.c-ctrip.com/images/0102u1200086k28vc0A5C.jpg
乌鲁木齐,火星台球厅,150274743,43.831346,87.575389,0.0,,https://dimg04.c-ctrip.com/images/0102u1200086k28vc0A5C.jpg
乌鲁木齐,雅山登山步道-20号点,150284460,43.789549,87.563805,0.0,,https://dimg04.c-ctrip.com/images/0102u1200086k28vc0A5C.jpg
乌鲁木齐,久斯台球旗舰店,150313378,43.825953,87.604996,0.0,,https://dimg04.c-ctrip.com/images/0102u1200086k28vc0A5C.jpg
乌鲁木齐,舒生活艾究馆(温泉东路店),150313383,43.837684,87.66086,0.0,,https://dimg04.c-ctrip.com/images/0102u1200086k28vc0A5C.jpg
乌鲁木齐,清风营地,150322905,43.881211,87.75449,0.0,,https://dimg04.c-ctrip.com/images/fd/tg/g1/M06/FC/24/CghzflW7H_iATdynAAA-FlXAIeA738.jpg
乌鲁木齐,来客舒足浴,150322961,43.690233,87.383648,0.0,,https://dimg04.c-ctrip.com/images/0102u1200086k28vc0A5C.jpg
乌鲁木齐,CKL家庭娱乐中心(CC MALL·时代广场店),150323033,43.804161,87.608241,0.0,,https://dimg04.c-ctrip.com/images/0102u1200086k28vc0A5C.jpg
乌鲁木齐,小怪兽台球俱乐部,150342081,43.88491,87.515107,0.0,,https://dimg04.c-ctrip.com/images/0102u1200086k28vc0A5C.jpg
乌鲁木齐,薰益堂,150354682,43.812042,87.609796,0.0,,https://dimg04.c-ctrip.com/images/0102u1200086k28vc0A5C.jpg
乌鲁木齐,山野歌遥露营基地,150427827,43.916424,87.850462,0.0,,https://dimg04.c-ctrip.com/images/fd/tg/g1/M06/FC/24/CghzflW7H_iATdynAAA-FlXAIeA738.jpg
乌鲁木齐,洪岩修足工作室,150427853,43.981781,87.499435,0.0,,https://dimg04.c-ctrip.com/images/0102u1200086k28vc0A5C.jpg
乌鲁木齐,莲华古镇,151284925,43.836379,87.516264,0.0,,https://dimg04.c-ctrip.com/images/fd/tg/g1/M06/FC/24/CghzflW7H_iATdynAAA-FlXAIeA738.jpg
乌鲁木齐,旋转太空,148798623,43.750822,87.614459,0.0,,https://dimg04.c-ctrip.com/images/fd/tg/g1/M06/FC/24/CghzflW7H_iATdynAAA-FlXAIeA738.jpg
乌鲁木齐,VR科技体验馆,148790287,43.756378,87.610392,0.0,,https://dimg04.c-ctrip.com/images/0HJ2612000g6ta0eoAE21.jpg
乌鲁木齐,穿越火线,151281913,43.756572,87.611443,0.0,,https://dimg04.c-ctrip.com/images/0102u1200086k28vc0A5C.jpg
乌鲁木齐,谈小娱24h自助台球(尚沙生活广场店),148694622,43.792962,87.711658,0.0,,https://dimg04.c-ctrip.com/images/0105h12000lbs1w61B836.jpg
乌鲁木齐,谈小娱24h自助台球(卡子湾店),148716799,43.906269,87.618108,0.0,,https://dimg04.c-ctrip.com/images/0102412000lbtzwdjE633.jpg
乌鲁木齐,梵高足迹·数字光影艺术展,145113157,43.787643,87.58655,0.0,,https://dimg04.c-ctrip.com/images/fd/tg/g1/M06/FC/24/CghzflW7H_iATdynAAA-FlXAIeA738.jpg
乌鲁木齐,艺修堂专业修脚,150265051,43.959902,87.620114,0.0,,https://dimg04.c-ctrip.com/images/0102u1200086k28vc0A5C.jpg
乌鲁木齐,红光山玉文化中心,150235887,43.883037,87.612929,0.0,,https://dimg04.c-ctrip.com/images/fd/tg/g1/M06/FC/24/CghzflW7H_iATdynAAA-FlXAIeA738.jpg
乌鲁木齐,乌鲁木齐浙新丽景农旅园,145459197,43.913939,87.862667,0.0,,https://dimg04.c-ctrip.com/images/fd/tg/g1/M06/FC/24/CghzflW7H_iATdynAAA-FlXAIeA738.jpg
乌鲁木齐,紫枫网盟·紫枫电竞馆,148665658,43.709903,87.39089,0.0,,https://dimg04.c-ctrip.com/images/0102u1200086k28vc0A5C.jpg
乌鲁木齐,安若兮露营基地(自助烧烤),145478845,43.909282,87.875446,0.0,,https://dimg04.c-ctrip.com/images/fd/tg/g1/M06/FC/24/CghzflW7H_iATdynAAA-FlXAIeA738.jpg
乌鲁木齐,雅山玻璃栈道,150437469,43.785578,87.565369,0.0,,https://dimg04.c-ctrip.com/images/fd/tg/g1/M06/FC/24/CghzflW7H_iATdynAAA-FlXAIeA738.jpg
乌鲁木齐,marry me蜜月房-3D电影投影巨幕落地窗浴缸房,149308323,43.837831,87.520563,0.0,,https://dimg04.c-ctrip.com/images/0102u1200086k28vc0A5C.jpg
乌鲁木齐,丝路飞车谷,151197410,43.89168,87.690479,0.0,丝路飞车谷位于乌鲁木齐市水磨沟区腾汇三路天山明月城T字街对面，原 P2停车场。占地面积3.2万平米集国际飞车特技秀、飞车体验(漂移/侧峰/极速)、飞车培训、宝贝驾驶乐园、越野挑战、新车试乘试驾、餐饮美食休闲娱乐为一体的沉浸式汽车主题乐园,https://dimg04.c-ctrip.com/images/1lo3z12000kszyf7j9BC9.png
乌鲁木齐,新疆医科大学-图书馆,82975642,43.837721,87.578288,0.0,,https://dimg04.c-ctrip.com/images/0102c1200097jweet6699.png
乌鲁木齐,萌宠乐园(中枢北路店),145330457,43.886957,87.430896,0.0,,https://dimg04.c-ctrip.com/images/0102u1200086k28vc0A5C.jpg
乌鲁木齐,星辉LUXE巨幕电影公园(新世界广场店),145675130,43.881143,87.583046,0.0,,https://dimg04.c-ctrip.com/images/0102u1200086k28vc0A5C.jpg
乌鲁木齐,广汇篮球俱乐部,144237669,43.83441,87.668234,0.0,,https://dimg04.c-ctrip.com/images/0102u1200086k28vc0A5C.jpg
乌鲁木齐,爱马乐园赛马场,144230627,43.419085,88.352557,0.0,,https://dimg04.c-ctrip.com/images/0102u1200086k28vc0A5C.jpg
乌鲁木齐,云海游泳馆,144224715,43.819611,87.590008,0.0,,https://dimg04.c-ctrip.com/images/0HJ0812000g66cu2r7444.jpg
乌鲁木齐,清泉禅寺-天王殿,145221782,43.82965,87.65949,0.0,,https://dimg04.c-ctrip.com/images/1me5e12000fgfmbim8662.jpg
乌鲁木齐,海兰广场,145883896,43.895406,87.588554,0.0,,https://dimg04.c-ctrip.com/images/0102u1200086k28vc0A5C.jpg
乌鲁木齐,走8户外探险,145920524,43.833726,87.644517,0.0,,https://dimg04.c-ctrip.com/images/0102u1200086k28vc0A5C.jpg
乌鲁木齐,梦幻乐园(红山公园店),145300876,43.806141,87.60485,0.0,,https://dimg04.c-ctrip.com/images/fd/tg/g1/M06/FC/24/CghzflW7H_iATdynAAA-FlXAIeA738.jpg
乌鲁木齐,八户地清真大寺,145300860,43.881309,87.555558,0.0,,https://dimg04.c-ctrip.com/images/0HJ5612000g6h1ka55F1F.jpg
乌鲁木齐,水塔山公园,143748001,43.824447,87.649287,0.0,,https://dimg04.c-ctrip.com/images/0HJ1312000g8h9mj64167.jpg
乌鲁木齐,康祖专业修脚,145224869,43.817831,87.590094,0.0,,https://dimg04.c-ctrip.com/images/0HJ2q12000g8fxgmi228A.jpg
乌鲁木齐,乌鲁木齐奥体中心篮球公园,145983166,43.89782,87.631645,0.0,,https://dimg04.c-ctrip.com/images/0102u1200086k28vc0A5C.jpg
乌鲁木齐,环游嘉年华电玩城(星辉店),146128988,43.804053,87.609309,0.0,,https://dimg04.c-ctrip.com/images/0106e12000kl25clg2855.jpg
乌鲁木齐,乌鲁木齐 · 2024-2025张杰 未·LIVE—「开往1982」世界巡回演唱会,151717930,43.897379,87.634158,0.0,2025张杰未·LIVE—「开往1982」巡回演唱会   ⼀次时间的旅程，   一趟“开往1982”的列车，   ⼀个过去和未来碰面的时刻。   列车轰鸣的旋律推动着时间的指针，   诉说着一路的荆棘与骄傲，   憧憬着未来的蓬勃与鲜明。   人生一廿，此刻正好，   和张杰一同踏上未·LIVE—「开往1982」之旅，   去俯身招呼为梦想狂奔的小孩，   也去肆意追赶从不停歇的明天！     张杰未·LIVE—「开往1982」巡回演唱会将延续大家熟悉的“未·LIVE”主IP，在张杰出道20周年之际，一起回溯过往、回望初心，并以此为节点，继续描绘现在、憧憬未来。1982是梦想的萌芽，是初心的形状，也是向前的起点，与之对望，你是否也有很多话想要对一路走来的自己说？     本轮演唱会的主题将围绕“车站”、“火车”、“旅客”等元素展开，一场演出的进行，就像开启了⼀次时间之旅，而参与本轮演唱会的我们，则仿佛进⼊了⼀个时间的中转车站。车站就像人生，无数条轨道奔涌而来，无数个明日疾驰而去，当你手握⼀张无限车票，就可以选择任意⼀趟旅程，去开启未·LIVE的万般可能。「开往1982」将通过全新的视觉呈现与听觉盛宴，一步步串联起张杰一路走来的音乐故事，引发歌声中的情感共鸣，携手来来往往的“旅客”，一同开往过去、驶向未来。     本轮演唱会仍由顶配幕后团队亲自坐阵，由经纪公司行星文化统筹出品，曾主办过张杰未·LIVE-「曜·北斗」巡回演唱会的罗盘文化全程保驾护航，由「未·你好吗」2024跨年演唱会导演团队朱晓晶导演的EMBRACE LIVE负责整体制作，打造过众多金曲的著名音乐制作人曲世聪担任音乐总监，中国音乐界殿堂级音响师金少刚现场把控，创下众多一线艺人舞美热搜话题的舞台建造者李洪波担当设计……金牌团队集结，一同打破常规，制造声响！     在舞美设计上，「开往1982」有了全新的突破和升级，不论是舞台多组升降的运作配合，还是大屏幕的多样造型变幻，都能够针对不同的歌曲，直观地使演出效果最大化，让现场观众能在精彩迭出的视觉享受中，一览未·LIVE的魅力。同时，在乐队与音响区域的设置上，也会尝试给观众打造更为舒适又震撼的感官体验。     巡演内容的设计方面，也进行了全面提升，整体的逻辑与内容衔接更为流畅，歌曲与VCR紧密连接、相互引导，强化了演出的整体性。在本轮巡演同一主题下，巡演前期和后期将设计呈现出内容上的多维差异，希望观众们在这趟时间之旅中，能不断收获惊喜。此次巡演还精心设置了很多与观众近距离互动的环节，每一次的奔赴和互相辉映，让心跳同频，让面对面的现场更有意义！     在张杰出道的20年间，不断创造的时代金曲、逐步斩获的各大奖项、日积月累的音乐口碑，都成为了他在人生和音乐旅途上收获的风景。而同乘这趟列车的我们，又会有怎样的人生奇遇？列车即将启程，准备好一起开往1982了吗？,https://dimg04.c-ctrip.com/images/0101512000cf2q22066E1.png
乌鲁木齐,乌鲁木齐水上乐园欢乐世界,134445049,43.748186,87.611213,4.2,欢乐世界占地面积600多亩，共分五大娱乐板块有细尾獴、梅花鹿等二十多种动物组成的萌宠乐园，有让孩子们在玩乐中体验生活、探索自然的精灵部落组成的欢乐亲子区。汇集了亚洲首台“梦幻星球”设备、以及“双层旋转木马、过山车、”等二十多项热门游乐设备群组成的欢乐时光区。由元宇古概念打造的沉浸式光影体验，结合激光水秀、水上飞人等组成的元宇宙科技区。汇集有全国及新疆本地知名餐饮美食街区，以及回忆童年，快乐成长的互动嘉年华组成的欢乐大巴扎区游客在游玩闲暇之余，与亲朋好友行走在百亩林地中，感受清凉避暑的千米休闲长廊，万米生态步道组成的生态休闲区。除以上区域外，还将在冬季打造滑雪、冰上运动、花灯展、冰雕展等三富多彩的冰雪项目，品时，还格举办水雪跨年欢乐季，新春欢乐节等活动，将活动贯穿整个冬季;打造全年运营的欢乐世界，丰富乌市人民的休闲娱乐生活，提升家庭幸福指数。,https://dimg04.c-ctrip.com/images/0101m120009pr7rfkD913.jpg
乌鲁木齐,红山体育中心体育馆,123862983,43.808499,87.608788,0.0,,https://dimg04.c-ctrip.com/images/0107312000fqd51baA957.jpg
乌鲁木齐,腾飞农家乐有机采摘园,146049266,43.714867,87.430041,0.0,,https://dimg04.c-ctrip.com/images/0102u1200086k28vc0A5C.jpg
乌鲁木齐,RAPIDO GOLF(MM3美美购物中心店),148558197,43.860154,87.535411,0.0,,https://dimg04.c-ctrip.com/images/0102u1200086k28vc0A5C.jpg
乌鲁木齐,哈熊沟-露营地,145113256,43.826641,87.989717,0.0,,https://dimg04.c-ctrip.com/images/fd/tg/g1/M06/FC/24/CghzflW7H_iATdynAAA-FlXAIeA738.jpg
乌鲁木齐,新疆相声巴扎(北晟剧社店),133552394,43.816782,87.556102,0.0,新疆相声巴扎成立于2012年，主要以相声、快板书、小品、山东快书、双簧等曲艺艺术形式表演，它引领和推动着新疆曲艺事业的发展。,https://dimg04.c-ctrip.com/images/0HJ6n12000g2zojzx1D1B.jpg
乌鲁木齐,亲亲小剧场,140550060,43.865856,87.584089,0.0,,https://dimg04.c-ctrip.com/images/0104w12000dix3kd0B49D.jpg
乌鲁木齐,河州清真大寺,145552257,43.788634,87.620677,5.0,,https://dimg04.c-ctrip.com/images/fd/tg/g1/M06/FC/24/CghzflW7H_iATdynAAA-FlXAIeA738.jpg
乌鲁木齐,耕读园,140960301,44.075868,87.505558,0.0,耕读园，一处融合田园风光与书香文化的静谧之地。这里，绿意盎然，稻田随风轻摆，仿佛能听见大地的呼吸。游客可亲手体验农耕之乐，感受“锄禾日当午”的辛勤与满足。而园中一隅，书声琅琅，古色古香的书屋静候着每一位爱书之人。在这里，不仅可以品味农耕文化的深厚底蕴，还能在书香中寻觅心灵的宁静。耕读园，让人们在繁忙的都市生活中找到一片净土，体验“耕以养生，读以明道”的和谐生活哲学。,https://dimg04.c-ctrip.com/images/0104212000gwe5cosB60E.png
乌鲁木齐,伊柯塞克足球俱乐部,143691999,43.777564,87.616592,0.0,,https://dimg04.c-ctrip.com/images/0HJ6e12000g2usjyv31BD.jpg
乌鲁木齐,恒冠农大乒乓球俱乐部,143700631,43.815267,87.564837,0.0,,https://dimg04.c-ctrip.com/images/0102u1200086k28vc0A5C.jpg
乌鲁木齐,新民路街道新民西街社区老年活动中心,143716524,43.811357,87.607852,0.0,,https://dimg04.c-ctrip.com/images/0102u1200086k28vc0A5C.jpg
乌鲁木齐,新疆日报社-职工活动中心,143719964,43.80069,87.59988,0.0,,https://dimg04.c-ctrip.com/images/0102u1200086k28vc0A5C.jpg
乌鲁木齐,合聚变体育运动中心,143720586,43.880699,87.6288,0.0,,https://dimg04.c-ctrip.com/images/0102u1200086k28vc0A5C.jpg
乌鲁木齐,大草滩南寺,143731414,44.016842,87.7708,0.0,,https://dimg04.c-ctrip.com/images/fd/tg/g1/M06/FC/24/CghzflW7H_iATdynAAA-FlXAIeA738.jpg
乌鲁木齐,四宫清真寺,143735728,43.921694,87.555856,0.0,,https://dimg04.c-ctrip.com/images/fd/tg/g1/M06/FC/24/CghzflW7H_iATdynAAA-FlXAIeA738.jpg
乌鲁木齐,黑水清真寺,143736080,44.067147,87.553333,0.0,,https://dimg04.c-ctrip.com/images/fd/tg/g1/M06/FC/24/CghzflW7H_iATdynAAA-FlXAIeA738.jpg
乌鲁木齐,万家梁清真大寺,143736488,44.023046,87.566473,0.0,,https://dimg04.c-ctrip.com/images/fd/tg/g1/M06/FC/24/CghzflW7H_iATdynAAA-FlXAIeA738.jpg
乌鲁木齐,喀什东路清真寺,143742145,43.902271,87.583787,0.0,,https://dimg04.c-ctrip.com/images/fd/tg/g1/M06/FC/24/CghzflW7H_iATdynAAA-FlXAIeA738.jpg
乌鲁木齐,炉院街清真寺,143743230,43.775819,87.595482,0.0,,https://dimg04.c-ctrip.com/images/fd/tg/g1/M06/FC/24/CghzflW7H_iATdynAAA-FlXAIeA738.jpg
乌鲁木齐,环游嘉年华(卡乐士店),145121786,43.866723,87.584524,0.0,,https://dimg04.c-ctrip.com/images/0102u1200086k28vc0A5C.jpg
乌鲁木齐,新疆维吾尔自治区妇幼保健院-职工活动站,145121794,43.819382,87.588419,0.0,,https://dimg04.c-ctrip.com/images/fd/tg/g1/M06/FC/24/CghzflW7H_iATdynAAA-FlXAIeA738.jpg
乌鲁木齐,钟楼,145142068,43.801011,87.523628,0.0,,https://dimg04.c-ctrip.com/images/fd/tg/g1/M06/FC/24/CghzflW7H_iATdynAAA-FlXAIeA738.jpg
乌鲁木齐,乌鲁木齐职业大学-图书馆,145152051,43.784162,87.65142,0.0,,https://dimg04.c-ctrip.com/images/fd/tg/g1/M06/FC/24/CghzflW7H_iATdynAAA-FlXAIeA738.jpg
乌鲁木齐,大和洗浴休闲会所(宏大广场店),145155189,43.814128,87.616379,1.0,,https://dimg04.c-ctrip.com/images/0HJ6t12000g6q606aA9D9.jpg
乌鲁木齐,篮球馆乒乓球馆,145155195,43.834772,87.519603,0.0,,https://dimg04.c-ctrip.com/images/0HJ2s12000g31v6fv7DCA.jpg
乌鲁木齐,幸福花园七期小广场,145162069,43.776789,87.656074,0.0,,https://dimg04.c-ctrip.com/images/0102u1200086k28vc0A5C.jpg
乌鲁木齐,下沙河清真大寺,145171919,44.002578,87.608492,0.0,,https://dimg04.c-ctrip.com/images/fd/tg/g1/M06/FC/24/CghzflW7H_iATdynAAA-FlXAIeA738.jpg
乌鲁木齐,慢时空24小时自助台球厅,145182091,43.90234,87.525506,0.0,,https://dimg04.c-ctrip.com/images/0HJ1q12000g6zofsj7323.jpg
乌鲁木齐,瑞尔智业冷链设备-城市展厅,145191876,43.772365,87.476961,0.0,,https://dimg04.c-ctrip.com/images/fd/tg/g1/M06/FC/24/CghzflW7H_iATdynAAA-FlXAIeA738.jpg
乌鲁木齐,黄工水库,90497642,44.141701,87.639564,0.0,,https://dimg04.c-ctrip.com/images/fd/tg/g2/M07/C5/09/Cghzf1W7IA6Af_lBAAA0L7T7K_w505.jpg
乌鲁木齐,兵团乌昌新区规划展厅,145211698,43.97554,87.388055,0.0,,https://dimg04.c-ctrip.com/images/fd/tg/g1/M06/FC/24/CghzflW7H_iATdynAAA-FlXAIeA738.jpg
乌鲁木齐,乌鲁木齐环球酒店KTV,145211781,43.841502,87.575707,0.0,,https://dimg04.c-ctrip.com/images/0102u1200086k28vc0A5C.jpg
乌鲁木齐,卓声电子音响灯光展厅,145234682,43.920769,87.57847,0.0,,https://dimg04.c-ctrip.com/images/fd/tg/g1/M06/FC/24/CghzflW7H_iATdynAAA-FlXAIeA738.jpg
乌鲁木齐,BF球场,145241490,43.951652,87.658824,0.0,,https://dimg04.c-ctrip.com/images/0102u1200086k28vc0A5C.jpg
乌鲁木齐,幸福1号水库,145251405,43.786201,87.477266,0.0,,https://dimg04.c-ctrip.com/images/fd/tg/g1/M06/FC/24/CghzflW7H_iATdynAAA-FlXAIeA738.jpg
乌鲁木齐,妍舒·禅洗头疗·SPA(经开万达广场店),145350207,43.840819,87.518162,0.0,,https://dimg04.c-ctrip.com/images/0102u1200086k28vc0A5C.jpg
乌鲁木齐,绿园生态健身游泳中心,145354170,43.887669,87.551954,0.0,,https://dimg04.c-ctrip.com/images/0HJ0c12000g8804fm25B9.jpg
乌鲁木齐,光线绘馆(卡乐士YOHO广场店),145354545,43.865748,87.584027,0.0,,https://dimg04.c-ctrip.com/images/0102u1200086k28vc0A5C.jpg
乌鲁木齐,蜘蛛人网吧(古牧地西路店),145429791,43.96432,87.640836,0.0,,https://dimg04.c-ctrip.com/images/0HJ1812000g91ezi32190.jpg
乌鲁木齐,虬龙玩家俱乐部,145528341,43.855062,87.62717,0.0,,https://dimg04.c-ctrip.com/images/0HJ0g12000g8gljqhADCB.jpg
乌鲁木齐,西工清真寺,145577317,44.002647,87.660453,0.0,,https://dimg04.c-ctrip.com/images/fd/tg/g1/M06/FC/24/CghzflW7H_iATdynAAA-FlXAIeA738.jpg
乌鲁木齐,南大寺大殿,145659898,43.780203,87.616611,0.0,,https://dimg04.c-ctrip.com/images/fd/tg/g1/M06/FC/24/CghzflW7H_iATdynAAA-FlXAIeA738.jpg
乌鲁木齐,百姓公园(鸽们小院),145665444,43.840492,87.674749,0.0,,https://dimg04.c-ctrip.com/images/fd/tg/g1/M06/FC/24/CghzflW7H_iATdynAAA-FlXAIeA738.jpg
乌鲁木齐,乐哈哈益智亲子乐园,145684852,43.985406,87.678079,0.0,,https://dimg04.c-ctrip.com/images/fd/tg/g1/M06/FC/24/CghzflW7H_iATdynAAA-FlXAIeA738.jpg
乌鲁木齐,童行家门口社区少儿运动体育馆(蓝天森林花苑店),145707775,43.754361,87.561472,0.0,,https://dimg04.c-ctrip.com/images/0102u1200086k28vc0A5C.jpg
乌鲁木齐,KELESHENG潮玩运动中心,145717597,43.910635,87.572964,0.0,,https://dimg04.c-ctrip.com/images/0102u1200086k28vc0A5C.jpg
乌鲁木齐,爆米花剧场,145835230,43.965235,87.652406,0.0,,https://dimg04.c-ctrip.com/images/0102u1200086k28vc0A5C.jpg
乌鲁木齐,鲁兵健身活动中心,145840857,43.983149,87.419883,0.0,,https://dimg04.c-ctrip.com/images/0102u1200086k28vc0A5C.jpg
乌鲁木齐,金疗养生足道·私人影院spa(长春北路店),145850792,43.904374,87.572754,0.0,,https://dimg04.c-ctrip.com/images/0HJ3x12000g2vi09e3BCC.jpg
乌鲁木齐,玖沐大众洗浴,145880677,43.952664,87.660485,0.0,,https://dimg04.c-ctrip.com/images/0102u1200086k28vc0A5C.jpg
乌鲁木齐,美术教育跆拳道,145883897,43.866936,87.559362,0.0,,https://dimg04.c-ctrip.com/images/0HJ4712000g77pvak05E3.jpg
乌鲁木齐,战狼争锋国际格斗中心,145885031,43.87269,87.55822,0.0,,https://dimg04.c-ctrip.com/images/0HJ2j12000g91th94C79F.jpg
乌鲁木齐,鸽子广场,145885041,43.856399,87.571768,0.0,,https://dimg04.c-ctrip.com/images/0102u1200086k28vc0A5C.jpg
乌鲁木齐,昊元酒店-水疗中心,145890679,43.85997,87.534251,0.0,,https://dimg04.c-ctrip.com/images/0102u1200086k28vc0A5C.jpg
乌鲁木齐,星光里私影·游戏,145915380,43.793823,87.600283,0.0,,https://dimg04.c-ctrip.com/images/0HJ6c12000g8k3ve3DF09.jpg
乌鲁木齐,搏锐乒乓球俱乐部,145920505,43.773876,87.468813,0.0,,https://dimg04.c-ctrip.com/images/0102u1200086k28vc0A5C.jpg
乌鲁木齐,爱你爱我网吧卓威电竞馆(新天润店),145923558,43.913111,87.546057,0.0,,https://dimg04.c-ctrip.com/images/0102u1200086k28vc0A5C.jpg
乌鲁木齐,铁路花园-花园文化广场,145943427,43.871196,87.556096,0.0,,https://dimg04.c-ctrip.com/images/0102u1200086k28vc0A5C.jpg
乌鲁木齐,乌鲁木齐奥林匹克体育中心-训练馆,145950258,43.897126,87.630203,0.0,,https://dimg04.c-ctrip.com/images/0102u1200086k28vc0A5C.jpg
乌鲁木齐,准点吧台球厅,145960266,43.800332,87.526141,0.0,,https://dimg04.c-ctrip.com/images/0102u1200086k28vc0A5C.jpg
乌鲁木齐,奇迹台球俱乐部,145960271,43.884424,87.508039,0.0,,https://dimg04.c-ctrip.com/images/0HJ0g12000g2w67jdD57B.jpg
乌鲁木齐,云顶台球俱乐部,145960285,43.840921,87.64666,0.0,,https://dimg04.c-ctrip.com/images/0102u1200086k28vc0A5C.jpg
乌鲁木齐,妍航标杆台球俱乐部,145963318,43.956056,87.654596,0.0,,https://dimg04.c-ctrip.com/images/0102u1200086k28vc0A5C.jpg
乌鲁木齐,二宫羽毛球馆,145963339,43.879238,87.557574,0.0,,https://dimg04.c-ctrip.com/images/0102u1200086k28vc0A5C.jpg
乌鲁木齐,QD SPORTS,145964486,43.794378,87.61029,0.0,,https://dimg04.c-ctrip.com/images/0102u1200086k28vc0A5C.jpg
乌鲁木齐,近水阁足浴(西虹东路北二巷店),145964989,43.815298,87.60678,0.0,,https://dimg04.c-ctrip.com/images/0HJ6412000g6tkx4fA17A.jpg
乌鲁木齐,五大连池浴池,146158575,43.872207,87.592732,0.0,,https://dimg04.c-ctrip.com/images/0102u1200086k28vc0A5C.jpg
乌鲁木齐,云逸宝游戏厅(万达影城德港店),146162833,43.877312,87.533255,0.0,,https://dimg04.c-ctrip.com/images/0102u1200086k28vc0A5C.jpg
乌鲁木齐,IN拳格斗(星品汇店),123862290,43.86629,87.584832,0.0,,https://dimg04.c-ctrip.com/images/0103o12000coq7mfz35E0.jpg
乌鲁木齐,碧海银沙洗浴,5716087,43.79413,87.593247,3.3,碧海银沙洗浴位于东方海岸大酒店，酒店总建筑面积16000平方米，集休闲、洗浴、娱乐、商务会所、休闲会所、SPA水会、沐浴主题酒店、儿童娱乐、新疆特色演义节目于一体的大型娱乐休闲好去处。,https://dimg04.c-ctrip.com/images/0102b120008wpwb0xCC2F.jpg
乌鲁木齐,咪你轮滑运动馆,148538329,43.907612,87.543947,0.0,,https://dimg04.c-ctrip.com/images/0102u1200086k28vc0A5C.jpg
乌鲁木齐,卓威电竞馆·大禹海棠网咖(铁路局店),148552868,43.86849,87.560287,0.0,,https://dimg04.c-ctrip.com/images/0102u1200086k28vc0A5C.jpg
乌鲁木齐,御脚堂足浴,148558133,43.922394,87.572069,0.0,,https://dimg04.c-ctrip.com/images/0102u1200086k28vc0A5C.jpg
乌鲁木齐,来力台球(振兴中路店),148558164,43.953085,87.628981,0.0,,https://dimg04.c-ctrip.com/images/0HJ4712000g6r8uv11B25.jpg
乌鲁木齐,小旋风跆拳道,148561117,43.832409,87.556476,0.0,,https://dimg04.c-ctrip.com/images/0102u1200086k28vc0A5C.jpg
乌鲁木齐,来甫房车床车营地,148567988,43.794248,87.717185,0.0,,https://dimg04.c-ctrip.com/images/fd/tg/g1/M06/FC/24/CghzflW7H_iATdynAAA-FlXAIeA738.jpg
乌鲁木齐,辰熙头道汤美容养生spa会所,148570977,43.861783,87.632177,0.0,,https://dimg04.c-ctrip.com/images/0102u1200086k28vc0A5C.jpg
乌鲁木齐,极度撞球台球俱乐部(友谊路店),148587721,43.901022,87.517302,0.0,,https://dimg04.c-ctrip.com/images/0102u1200086k28vc0A5C.jpg
乌鲁木齐,耕读园白桦儿童游乐场水世界,148597575,44.075866,87.50556,0.0,,https://dimg04.c-ctrip.com/images/0102u1200086k28vc0A5C.jpg
乌鲁木齐,海棠湾水汇·足道SPA,148600455,43.872882,87.572061,0.0,,https://dimg04.c-ctrip.com/images/0102u1200086k28vc0A5C.jpg
乌鲁木齐,旺阁SPA会所,148607326,43.867669,87.584517,0.0,,https://dimg04.c-ctrip.com/images/0102u1200086k28vc0A5C.jpg
乌鲁木齐,壹号台球厅,148610166,43.86944,87.590458,0.0,,https://dimg04.c-ctrip.com/images/0HJ0m12000g2teokmB671.jpg
乌鲁木齐,厚朴园野,148616985,43.827452,87.787426,0.0,,https://dimg04.c-ctrip.com/images/0HJ0k12000g6ghh1827DE.jpg
乌鲁木齐,云晟台球俱乐部,148617061,43.858791,87.485346,0.0,,https://dimg04.c-ctrip.com/images/0HJ4j12000g91ibdc6E5D.jpg
乌鲁木齐,嘻哈桌球,148617062,43.875777,87.570676,0.0,,https://dimg04.c-ctrip.com/images/0102u1200086k28vc0A5C.jpg
乌鲁木齐,黑8台球俱乐部(南湖东路北五巷店),148617075,43.829615,87.626668,0.0,,https://dimg04.c-ctrip.com/images/0102u1200086k28vc0A5C.jpg
乌鲁木齐,指尖情缘网吧(喀什西路店),148626902,43.889225,87.543636,0.0,,https://dimg04.c-ctrip.com/images/0102u1200086k28vc0A5C.jpg
乌鲁木齐,球小友自助台球棋牌,148629753,43.788141,87.634038,0.0,,https://dimg04.c-ctrip.com/images/0HJ4612000g2tfwhe933C.jpg
乌鲁木齐,狼吉猩,148732953,43.910616,87.572362,0.0,,https://dimg04.c-ctrip.com/images/fd/tg/g1/M06/FC/24/CghzflW7H_iATdynAAA-FlXAIeA738.jpg
乌鲁木齐,卡奇乐启智儿童游乐园,148733082,43.800679,87.531939,0.0,,https://dimg04.c-ctrip.com/images/0HJ4o12000g90sceg36CE.jpg
乌鲁木齐,汇友台球俱乐部(克拉玛依西街店),148735934,43.819921,87.568562,0.0,,https://dimg04.c-ctrip.com/images/0HJ2p12000g902w8o7FAE.jpg
乌鲁木齐,网罗天下网吧(中山店),148745555,43.794622,87.614919,0.0,,https://dimg04.c-ctrip.com/images/0HJ6p12000g8u1zwq560B.jpg
乌鲁木齐,猫仨mao sa私人影院·轰趴聚会·棋牌(红旗路店),148756842,43.794923,87.620535,0.0,,https://dimg04.c-ctrip.com/images/0102u1200086k28vc0A5C.jpg
乌鲁木齐,点·线·力台球厅,148761750,43.836841,87.572412,0.0,,https://dimg04.c-ctrip.com/images/0102u1200086k28vc0A5C.jpg
乌鲁木齐,九龙生态园,148761763,43.809181,87.645763,0.0,,https://dimg04.c-ctrip.com/images/0HJ2012000g2t91mr4EF7.jpg
乌鲁木齐,美式拳击俱乐部,148771152,43.834528,87.624457,0.0,,https://dimg04.c-ctrip.com/images/0102u1200086k28vc0A5C.jpg
乌鲁木齐,龙强武术馆,148780736,43.891899,87.553252,0.0,,https://dimg04.c-ctrip.com/images/0HJ4p12000g2uid6mB0CA.jpg
乌鲁木齐,暴雪铭仕台球俱乐部,148790169,43.958947,87.643332,0.0,,https://dimg04.c-ctrip.com/images/0HJ5j12000g3649o65748.jpg
乌鲁木齐,圣丹亚运动馆,148790238,43.880467,87.624388,0.0,,https://dimg04.c-ctrip.com/images/0102u1200086k28vc0A5C.jpg
乌鲁木齐,乒乓球馆乌鲁木齐市新市区,148790243,43.863097,87.561254,0.0,,https://dimg04.c-ctrip.com/images/0102u1200086k28vc0A5C.jpg
乌鲁木齐,云逸宝游戏厅(万达广场店),148794584,43.787645,87.586552,0.0,,https://dimg04.c-ctrip.com/images/0102u1200086k28vc0A5C.jpg
乌鲁木齐,台球俱乐部,148796668,43.985945,87.678575,0.0,,https://dimg04.c-ctrip.com/images/0102u1200086k28vc0A5C.jpg
乌鲁木齐,新疆大学离退休职工服务中心,148796738,43.765309,87.62091,0.0,,https://dimg04.c-ctrip.com/images/fd/tg/g1/M06/FC/24/CghzflW7H_iATdynAAA-FlXAIeA738.jpg
乌鲁木齐,汇嘉电影院,148866351,43.875296,87.556992,0.0,,https://dimg04.c-ctrip.com/images/0102u1200086k28vc0A5C.jpg
乌鲁木齐,汇禾桌球(昊元上品店),148866373,43.86025,87.535991,0.0,,https://dimg04.c-ctrip.com/images/0102u1200086k28vc0A5C.jpg
乌鲁木齐,绿墅雅集轰趴,148874743,43.972625,87.52411,0.0,,https://dimg04.c-ctrip.com/images/0102u1200086k28vc0A5C.jpg
乌鲁木齐,乌鲁木齐恒大养生谷,149360165,43.898321,87.572401,0.0,,https://dimg04.c-ctrip.com/images/0102u1200086k28vc0A5C.jpg
乌鲁木齐,桌球,149951079,43.883238,87.526103,0.0,,https://dimg04.c-ctrip.com/images/0102u1200086k28vc0A5C.jpg
乌鲁木齐,圣丹亚凯越羽毛球俱乐部,145264503,43.88039,87.623817,0.0,,https://dimg04.c-ctrip.com/images/0HJ6n12000g65jrgpAD8E.jpg
乌鲁木齐,酷莱捌桌球俱乐部,145281010,43.823058,87.567996,0.0,,https://dimg04.c-ctrip.com/images/0HJ2o12000g6f8v5j54B4.jpg
乌鲁木齐,三道坝镇-社火之乡,145290901,44.110582,87.626074,0.0,,https://dimg04.c-ctrip.com/images/fd/tg/g1/M06/FC/24/CghzflW7H_iATdynAAA-FlXAIeA738.jpg
乌鲁木齐,新疆财经大学-图书馆,145310728,43.883099,87.551081,0.0,,https://dimg04.c-ctrip.com/images/0HJ2v12000g8z2ucpCC4F.jpg
乌鲁木齐,健身园,145320635,43.893461,87.48074,0.0,,https://dimg04.c-ctrip.com/images/0102u1200086k28vc0A5C.jpg
乌鲁木齐,塞外水乡度假村,145330389,43.993743,87.495276,0.0,,https://dimg04.c-ctrip.com/images/0102u1200086k28vc0A5C.jpg
乌鲁木齐,中心花园,145370044,43.79585,87.675026,0.0,,https://dimg04.c-ctrip.com/images/fd/tg/g1/M06/FC/24/CghzflW7H_iATdynAAA-FlXAIeA738.jpg
乌鲁木齐,小江保儿童欢乐俱乐部,145379782,43.959032,87.629178,0.0,,https://dimg04.c-ctrip.com/images/0HJ6012000g8rdoz13C6B.jpg
乌鲁木齐,古烽火台,145379856,43.605745,87.380795,0.0,,https://dimg04.c-ctrip.com/images/0HJ6h12000g8hv6868A7D.jpg
乌鲁木齐,追風台球厅,145379892,43.758635,87.640884,0.0,,https://dimg04.c-ctrip.com/images/0HJ6u12000g64t1151F3A.jpg
乌鲁木齐,星火铭仕台球俱乐部,145389675,43.827267,87.627251,0.0,,https://dimg04.c-ctrip.com/images/0HJ1n12000g2vpryuB770.jpg
乌鲁木齐,室内足球场,145399484,43.895183,87.516602,0.0,,https://dimg04.c-ctrip.com/images/0102u1200086k28vc0A5C.jpg
乌鲁木齐,即刻飞行主题乐园启扬航模,145403525,43.879699,87.558662,0.0,,https://dimg04.c-ctrip.com/images/0HJ0312000g8owfzu13FB.jpg
乌鲁木齐,黑豹竞速(宝山店),145410137,43.790432,87.585521,0.0,,https://dimg04.c-ctrip.com/images/0102u1200086k28vc0A5C.jpg
乌鲁木齐,火车头体育馆,145413288,43.888751,87.516055,0.0,,https://dimg04.c-ctrip.com/images/0102u1200086k28vc0A5C.jpg
乌鲁木齐,岩咖攀岩馆(徕远广场店),145442740,43.7977,87.622548,0.0,,https://dimg04.c-ctrip.com/images/0HJ5j12000g2z6bxj2C1C.jpg
乌鲁木齐,德港MS国际影城,145449531,43.85666,87.520123,0.0,,https://dimg04.c-ctrip.com/images/0102u1200086k28vc0A5C.jpg
乌鲁木齐,九家湾五队清真寺,145459288,43.826382,87.548145,0.0,,https://dimg04.c-ctrip.com/images/fd/tg/g1/M06/FC/24/CghzflW7H_iATdynAAA-FlXAIeA738.jpg
乌鲁木齐,M馆,145459307,43.776414,87.622377,0.0,,https://dimg04.c-ctrip.com/images/0HJ2z12000g6rpi4y9776.jpg
乌鲁木齐,乐伴宝贝亲子乐园,145482139,43.886699,87.535613,0.0,,https://dimg04.c-ctrip.com/images/0102u1200086k28vc0A5C.jpg
乌鲁木齐,小铁24h无人自助台球(中央郡店),145482149,43.823209,87.568588,0.0,,https://dimg04.c-ctrip.com/images/0HJ1b12000g8q8jjkB8AF.jpg
乌鲁木齐,四十户西大寺,145498972,43.987435,87.550392,0.0,,https://dimg04.c-ctrip.com/images/fd/tg/g1/M06/FC/24/CghzflW7H_iATdynAAA-FlXAIeA738.jpg
乌鲁木齐,文昌殿,145499020,43.801091,87.523058,0.0,,https://dimg04.c-ctrip.com/images/0HJ0212000g6labyeFDDB.jpg
乌鲁木齐,零八桌球,145771073,43.832577,87.629877,0.0,,https://dimg04.c-ctrip.com/images/0102u1200086k28vc0A5C.jpg
乌鲁木齐,奥斯卡国际影城(昆仑路北一巷店),145774199,43.84215,87.604597,0.0,,https://dimg04.c-ctrip.com/images/0102u1200086k28vc0A5C.jpg
乌鲁木齐,紫龙外星人电竞馆,145775381,43.881662,87.636036,0.0,,https://dimg04.c-ctrip.com/images/0102u1200086k28vc0A5C.jpg
乌鲁木齐,清屿养生管理,145776140,43.800561,87.59808,0.0,,https://dimg04.c-ctrip.com/images/0102u1200086k28vc0A5C.jpg
乌鲁木齐,博际台球俱乐部,145820926,43.876061,87.638054,0.0,,https://dimg04.c-ctrip.com/images/0102u1200086k28vc0A5C.jpg
乌鲁木齐,乌鲁木齐市红山公园冰场,145820962,43.80786,87.60455,0.0,,https://dimg04.c-ctrip.com/images/0102u1200086k28vc0A5C.jpg
乌鲁木齐,8090桌球俱乐部,145824110,43.951256,87.62627,0.0,,https://dimg04.c-ctrip.com/images/0102u1200086k28vc0A5C.jpg
乌鲁木齐,乒乓球运动体验馆(云杉·城市奥莱店),145860882,43.868562,87.561942,0.0,,https://dimg04.c-ctrip.com/images/0102u1200086k28vc0A5C.jpg
乌鲁木齐,游戏基地体验馆,146098906,43.834019,87.557898,0.0,,https://dimg04.c-ctrip.com/images/0102u1200086k28vc0A5C.jpg
乌鲁木齐,新海天假日水疗会所(希尔顿店),146098915,43.877467,87.613571,0.0,,https://dimg04.c-ctrip.com/images/0102u1200086k28vc0A5C.jpg
乌鲁木齐,爱上铭仕桌球俱乐部,146108720,43.863575,87.606667,0.0,,https://dimg04.c-ctrip.com/images/0102u1200086k28vc0A5C.jpg
乌鲁木齐,康城龙泉洗浴(百信康城店),146111828,43.889273,87.568743,0.0,,https://dimg04.c-ctrip.com/images/0102u1200086k28vc0A5C.jpg
乌鲁木齐,奥斯卡国际影城(七一酱园店),146111835,43.781547,87.600586,0.0,,https://dimg04.c-ctrip.com/images/0102u1200086k28vc0A5C.jpg
乌鲁木齐,雷雷桌球厅,146118604,43.884821,87.637252,0.0,,https://dimg04.c-ctrip.com/images/0102u1200086k28vc0A5C.jpg
乌鲁木齐,梦8台球俱乐部(时代橙堡店),146123364,43.856878,87.497975,0.0,,https://dimg04.c-ctrip.com/images/0102u1200086k28vc0A5C.jpg
乌鲁木齐,浴龙湾洗浴中心,146128961,43.692812,87.452407,0.0,,https://dimg04.c-ctrip.com/images/0102u1200086k28vc0A5C.jpg
乌鲁木齐,瑾瑜体育,146132049,43.814537,87.650921,0.0,,https://dimg04.c-ctrip.com/images/0HJ1512000g91mqwj106C.jpg
乌鲁木齐,星轶影城(乌鲁木齐米东吾悦广场府前西路店),146148685,43.972325,87.648408,0.0,,https://dimg04.c-ctrip.com/images/0102u1200086k28vc0A5C.jpg
乌鲁木齐,慢时空自助台球室,146148714,43.924094,87.638201,0.0,,https://dimg04.c-ctrip.com/images/0HJ5312000g8qzyry293C.jpg
乌鲁木齐,启航乒乓,146148754,43.806398,87.648245,0.0,,https://dimg04.c-ctrip.com/images/0HJ6512000g6flqio2CCC.jpg
乌鲁木齐,这里有坊-演绎大舞台,148548277,43.89001,87.669917,0.0,,https://dimg04.c-ctrip.com/images/0102u1200086k28vc0A5C.jpg
乌鲁木齐,清真寺(八一路),148548324,43.84784,87.291526,0.0,,https://dimg04.c-ctrip.com/images/fd/tg/g1/M06/FC/24/CghzflW7H_iATdynAAA-FlXAIeA738.jpg
乌鲁木齐,西域射艺俱乐部,148548356,43.838675,87.6464,0.0,,https://dimg04.c-ctrip.com/images/0102u1200086k28vc0A5C.jpg
乌鲁木齐,温暖游乐园(福润德店),148577900,43.848353,87.569983,0.0,,https://dimg04.c-ctrip.com/images/0102u1200086k28vc0A5C.jpg
乌鲁木齐,欢乐无界儿童乐园(七一广场店),148580811,43.81684,87.622608,0.0,,https://dimg04.c-ctrip.com/images/0102u1200086k28vc0A5C.jpg
乌鲁木齐,乐鼎台球俱乐部,148580813,43.864049,87.610257,0.0,,https://dimg04.c-ctrip.com/images/0102u1200086k28vc0A5C.jpg
乌鲁木齐,新疆公安英烈园,148636626,43.735312,87.597597,0.0,,https://dimg04.c-ctrip.com/images/fd/tg/g1/M06/FC/24/CghzflW7H_iATdynAAA-FlXAIeA738.jpg
乌鲁木齐,星棋聚台球俱乐部,148641327,43.817792,87.619185,0.0,,https://dimg04.c-ctrip.com/images/0HJ2j12000g2yti5zBA4A.jpg
乌鲁木齐,趣玩露营,148646237,43.91354,87.649378,0.0,,https://dimg04.c-ctrip.com/images/fd/tg/g1/M06/FC/24/CghzflW7H_iATdynAAA-FlXAIeA738.jpg
乌鲁木齐,盒子博士(花田小镇店),148646306,43.865837,87.584343,0.0,,https://dimg04.c-ctrip.com/images/0102u1200086k28vc0A5C.jpg
乌鲁木齐,Tamaxxa游戏馆,148656019,43.817414,87.57624,0.0,,https://dimg04.c-ctrip.com/images/0102u1200086k28vc0A5C.jpg
乌鲁木齐,龙龙儿童运动馆,149334097,43.86209,87.579661,0.0,,https://dimg04.c-ctrip.com/images/0102u1200086k28vc0A5C.jpg
乌鲁木齐,one two one运动馆,149353851,43.864116,87.646783,0.0,,https://dimg04.c-ctrip.com/images/0102u1200086k28vc0A5C.jpg
乌鲁木齐,喵东喵西水上亲子俱乐部,149353973,43.860578,87.535748,0.0,,https://dimg04.c-ctrip.com/images/0102u1200086k28vc0A5C.jpg
乌鲁木齐,华纳不夜城,149353997,43.838602,87.570273,0.0,,https://dimg04.c-ctrip.com/images/0102u1200086k28vc0A5C.jpg
乌鲁木齐,一然菌小屋老满城店,149378796,43.806724,87.572412,0.0,,https://dimg04.c-ctrip.com/images/0102u1200086k28vc0A5C.jpg
乌鲁木齐,知足养生馆,149549594,43.922798,87.568647,0.0,,https://dimg04.c-ctrip.com/images/0102u1200086k28vc0A5C.jpg
乌鲁木齐,1988潮玩大头贴(乌鲁木齐高新万达广场店),149621986,43.911091,87.572543,0.0,,https://dimg04.c-ctrip.com/images/0102u1200086k28vc0A5C.jpg
乌鲁木齐,众佑棋牌馆,149621998,43.78301,87.643485,0.0,,https://dimg04.c-ctrip.com/images/0102u1200086k28vc0A5C.jpg
乌鲁木齐,嘻游·局中局电竞(花田店),148665664,43.86725,87.585,0.0,,https://dimg04.c-ctrip.com/images/0102u1200086k28vc0A5C.jpg
乌鲁木齐,又友休闲馆,148665667,43.841155,87.598712,0.0,,https://dimg04.c-ctrip.com/images/0102u1200086k28vc0A5C.jpg
乌鲁木齐,千八克台球俱乐部,148670177,43.797428,87.618824,0.0,,https://dimg04.c-ctrip.com/images/0102u1200086k28vc0A5C.jpg
乌鲁木齐,回梦足疗,148684973,44.107222,87.65612,0.0,,https://dimg04.c-ctrip.com/images/0102u1200086k28vc0A5C.jpg
乌鲁木齐,英冠台球,148685026,43.773296,87.640046,0.0,,https://dimg04.c-ctrip.com/images/0HJ5x12000g6m84arB10C.jpg
乌鲁木齐,沙依巴克区万达广场德汇店乐之童早教中心(奇台路店),148687896,43.788226,87.586124,0.0,,https://dimg04.c-ctrip.com/images/0102u1200086k28vc0A5C.jpg
乌鲁木齐,雪莲广场,148694621,44.001488,87.355543,0.0,,https://dimg04.c-ctrip.com/images/0102u1200086k28vc0A5C.jpg
乌鲁木齐,和家网家博会,148698466,43.87809,87.62112,0.0,,https://dimg04.c-ctrip.com/images/fd/tg/g1/M06/FC/24/CghzflW7H_iATdynAAA-FlXAIeA738.jpg
乌鲁木齐,少年强体育健身俱乐部,148699512,43.799459,87.610397,0.0,,https://dimg04.c-ctrip.com/images/0102u1200086k28vc0A5C.jpg
乌鲁木齐,花田林海露营服务站,148704324,43.916987,87.274636,0.0,,https://dimg04.c-ctrip.com/images/0HJ6j12000g92cakr9E1E.jpg
乌鲁木齐,Man台球,148707130,43.88104,87.55424,0.0,,https://dimg04.c-ctrip.com/images/0HJ5t12000g2ymtleEABC.jpg
乌鲁木齐,谈小娱24h自助台球(华美大厦店),148723545,43.879899,87.575537,0.0,,https://dimg04.c-ctrip.com/images/0HJ6p12000g318fgjB96D.jpg
乌鲁木齐,君子好球,149629562,43.785071,87.590956,0.0,,https://dimg04.c-ctrip.com/images/0102u1200086k28vc0A5C.jpg
乌鲁木齐,汇龙台球俱乐部,149629614,43.749388,87.558645,0.0,,https://dimg04.c-ctrip.com/images/0102u1200086k28vc0A5C.jpg
乌鲁木齐,沃尔曼度假村,149636812,43.865723,87.798142,0.0,,https://dimg04.c-ctrip.com/images/0102u1200086k28vc0A5C.jpg
乌鲁木齐,大众洗浴(昆仑路南二巷店),149642890,43.835141,87.603323,0.0,,https://dimg04.c-ctrip.com/images/0102u1200086k28vc0A5C.jpg
乌鲁木齐,岩森休闲活动馆,145538251,43.882718,87.559975,0.0,,https://dimg04.c-ctrip.com/images/fd/tg/g1/M06/FC/24/CghzflW7H_iATdynAAA-FlXAIeA738.jpg
乌鲁木齐,超霸网吧(仓房沟北路店),145551126,43.763914,87.590338,0.0,,https://dimg04.c-ctrip.com/images/0HJ1v12000g8nqea1BA86.jpg
乌鲁木齐,财神殿,145655570,43.80143,87.522816,0.0,,https://dimg04.c-ctrip.com/images/0HJ1q12000g77ejv04FDB.jpg
乌鲁木齐,华瑞洗浴坊,145784240,43.807431,87.63224,0.0,,https://dimg04.c-ctrip.com/images/0102u1200086k28vc0A5C.jpg
乌鲁木齐,曼巴桌球俱乐部,145791107,43.823773,87.585452,0.0,,https://dimg04.c-ctrip.com/images/0102u1200086k28vc0A5C.jpg
乌鲁木齐,51桌球俱乐部,145791108,43.795454,87.600046,0.0,,https://dimg04.c-ctrip.com/images/0HJ5w12000g2xomwu7459.jpg
乌鲁木齐,台球俱乐部,145801056,43.984065,87.430389,0.0,,https://dimg04.c-ctrip.com/images/0102u1200086k28vc0A5C.jpg
乌鲁木齐,芳芳度假村,145810950,43.78357,87.80412,0.0,,https://dimg04.c-ctrip.com/images/0102u1200086k28vc0A5C.jpg
乌鲁木齐,尚祥体育台球,145811030,43.884824,87.507781,0.0,,https://dimg04.c-ctrip.com/images/0102u1200086k28vc0A5C.jpg
乌鲁木齐,清新泉洗浴,145900664,43.815478,87.611027,0.0,,https://dimg04.c-ctrip.com/images/0102u1200086k28vc0A5C.jpg
乌鲁木齐,新梦想米高轮滑(水磨沟旗舰店),145900677,43.836042,87.656851,0.0,,https://dimg04.c-ctrip.com/images/0102u1200086k28vc0A5C.jpg
乌鲁木齐,来力台球(科创路店),145900690,43.845908,87.405252,0.0,,https://dimg04.c-ctrip.com/images/0102u1200086k28vc0A5C.jpg
乌鲁木齐,宜家砭石汗蒸体验馆,146019608,43.956359,87.655174,0.0,,https://dimg04.c-ctrip.com/images/0102u1200086k28vc0A5C.jpg
乌鲁木齐,水之泉洗浴,146029586,43.857947,87.524152,0.0,,https://dimg04.c-ctrip.com/images/0102u1200086k28vc0A5C.jpg
乌鲁木齐,星牌卡卡台球(天山万科店),146029636,43.758191,87.628401,0.0,,https://dimg04.c-ctrip.com/images/0102u1200086k28vc0A5C.jpg
乌鲁木齐,27智力竞技俱乐部,146039464,43.812878,87.546853,0.0,,https://dimg04.c-ctrip.com/images/0102u1200086k28vc0A5C.jpg
乌鲁木齐,凯迪乐度假村,146049190,43.783511,87.804221,0.0,,https://dimg04.c-ctrip.com/images/0102u1200086k28vc0A5C.jpg
乌鲁木齐,清清淋浴,146049215,43.901823,87.570345,0.0,,https://dimg04.c-ctrip.com/images/0102u1200086k28vc0A5C.jpg
乌鲁木齐,华顺天连乒乓球俱乐部,146052390,43.801754,87.633014,0.0,,https://dimg04.c-ctrip.com/images/0102u1200086k28vc0A5C.jpg
乌鲁木齐,80台球休闲餐吧,146059273,43.846131,87.405144,0.0,,https://dimg04.c-ctrip.com/images/0102u1200086k28vc0A5C.jpg
乌鲁木齐,亿通电竞网咖(体育馆路),146059290,43.767663,87.650123,0.0,,https://dimg04.c-ctrip.com/images/0102u1200086k28vc0A5C.jpg
乌鲁木齐,嗨8台球俱乐部(碱沟西路店),146078997,43.957748,87.619507,0.0,,https://dimg04.c-ctrip.com/images/0102u1200086k28vc0A5C.jpg
乌鲁木齐,兵团五一新区(五一农场)全民健身体育活动中心,146079066,43.983163,87.419856,0.0,,https://dimg04.c-ctrip.com/images/0102u1200086k28vc0A5C.jpg
乌鲁木齐,星辉台球俱乐部(三屯碑西延高架店),146079117,43.76172,87.613635,0.0,,https://dimg04.c-ctrip.com/images/0102u1200086k28vc0A5C.jpg
乌鲁木齐,浩盛桌球,146082206,43.922573,87.57068,0.0,,https://dimg04.c-ctrip.com/images/0HJ1l12000g8zqa2m6F4F.jpg
乌鲁木齐,毛子度假村,146088787,43.868208,87.796171,0.0,,https://dimg04.c-ctrip.com/images/0102u1200086k28vc0A5C.jpg
乌鲁木齐,极度台球,146088870,43.808677,87.642073,0.0,,https://dimg04.c-ctrip.com/images/0HJ0812000g92xc8pA1D0.jpg
乌鲁木齐,美洲游泳健身,146101896,43.886067,87.515627,0.0,,https://dimg04.c-ctrip.com/images/0HJ1612000g2v4oxn6A57.jpg
乌鲁木齐,迪斯奈乐园,144205711,43.82401,87.653881,0.0,,https://dimg04.c-ctrip.com/images/fd/tg/g1/M06/FC/24/CghzflW7H_iATdynAAA-FlXAIeA738.jpg
乌鲁木齐,盘山渠,144206390,43.968005,87.788423,0.0,,https://dimg04.c-ctrip.com/images/fd/tg/g1/M06/FC/24/CghzflW7H_iATdynAAA-FlXAIeA738.jpg
乌鲁木齐,西一斗渠,144206417,43.694384,87.405044,0.0,,https://dimg04.c-ctrip.com/images/fd/tg/g1/M06/FC/24/CghzflW7H_iATdynAAA-FlXAIeA738.jpg
乌鲁木齐,上沙河村农民文化活动中心,144206471,43.96505,87.622452,0.0,,https://dimg04.c-ctrip.com/images/0102u1200086k28vc0A5C.jpg
乌鲁木齐,基督教聚会点,144206649,43.765071,87.5982,0.0,,https://dimg04.c-ctrip.com/images/fd/tg/g1/M06/FC/24/CghzflW7H_iATdynAAA-FlXAIeA738.jpg
乌鲁木齐,世界人跆拳道馆,144223055,43.869905,87.604477,0.0,,https://dimg04.c-ctrip.com/images/0102u1200086k28vc0A5C.jpg
乌鲁木齐,航模俱乐部,144223709,43.869368,87.55279,0.0,,https://dimg04.c-ctrip.com/images/0102u1200086k28vc0A5C.jpg
乌鲁木齐,MINl轮滑运动馆,149964020,43.907866,87.543639,0.0,,https://dimg04.c-ctrip.com/images/0102u1200086k28vc0A5C.jpg
乌鲁木齐,健康俱乐部,149964106,43.830339,87.608781,0.0,,https://dimg04.c-ctrip.com/images/0102u1200086k28vc0A5C.jpg
乌鲁木齐,火车头体育馆,149973993,43.870477,87.558046,0.0,,https://dimg04.c-ctrip.com/images/0102u1200086k28vc0A5C.jpg
乌鲁木齐,子泰足道·私人影院spa,149983478,43.915879,87.571907,0.0,,https://dimg04.c-ctrip.com/images/0102u1200086k28vc0A5C.jpg
乌鲁木齐,铭仕台球俱乐部,149984325,43.788263,87.467629,0.0,,https://dimg04.c-ctrip.com/images/0102u1200086k28vc0A5C.jpg
乌鲁木齐,天一篮球人民店,150394426,43.798524,87.616625,0.0,,https://dimg04.c-ctrip.com/images/0102u1200086k28vc0A5C.jpg
乌鲁木齐,八零后·美容养生SPA(经开店),150399416,43.837202,87.516811,0.0,,https://dimg04.c-ctrip.com/images/0102u1200086k28vc0A5C.jpg
乌鲁木齐,葳蕤之春·美容SPA(经开万达店),150403815,43.840293,87.516659,0.0,,https://dimg04.c-ctrip.com/images/0102u1200086k28vc0A5C.jpg
乌鲁木齐,舒韵足浴店,150408910,43.883779,87.435739,0.0,,https://dimg04.c-ctrip.com/images/0102u1200086k28vc0A5C.jpg
乌鲁木齐,随乐台球俱乐部,150408934,43.82567,87.595303,0.0,,https://dimg04.c-ctrip.com/images/0102u1200086k28vc0A5C.jpg
乌鲁木齐,航天吉祥桃园,151081753,43.715799,87.439959,0.0,,https://dimg04.c-ctrip.com/images/0102u1200086k28vc0A5C.jpg
乌鲁木齐,大话西游,151262170,43.886599,87.493689,0.0,,https://dimg04.c-ctrip.com/images/0102u1200086k28vc0A5C.jpg
乌鲁木齐,静普拉提瑜伽工作室,151262191,43.83843,87.664053,0.0,,https://dimg04.c-ctrip.com/images/0102u1200086k28vc0A5C.jpg
乌鲁木齐,石猴王台球俱乐部,151275195,43.783511,87.64396,0.0,,https://dimg04.c-ctrip.com/images/0102u1200086k28vc0A5C.jpg
乌鲁木齐,金属狗26小时共享健身(喀什西路店),151340218,43.886329,87.534882,0.0,,https://dimg04.c-ctrip.com/images/0102u1200086k28vc0A5C.jpg
乌鲁木齐,台球,151347805,43.860894,87.535767,0.0,,https://dimg04.c-ctrip.com/images/0102u1200086k28vc0A5C.jpg
乌鲁木齐,十二师文体中心,145201742,43.907856,87.54393,0.0,,https://dimg04.c-ctrip.com/images/fd/tg/g1/M06/FC/24/CghzflW7H_iATdynAAA-FlXAIeA738.jpg
乌鲁木齐,热拉,145201806,43.769536,87.64715,0.0,,https://dimg04.c-ctrip.com/images/fd/tg/g1/M06/FC/24/CghzflW7H_iATdynAAA-FlXAIeA738.jpg
乌鲁木齐,九号桌球俱乐部,145201818,43.916772,87.53549,0.0,,https://dimg04.c-ctrip.com/images/0102u1200086k28vc0A5C.jpg
乌鲁木齐,大池洗浴(四季风情园小区店),145204916,43.893888,87.572153,0.0,,https://dimg04.c-ctrip.com/images/0HJ1912000g2thhchBD26.jpg
乌鲁木齐,御水澜庭足道,150235812,43.946985,87.6441,0.0,,https://dimg04.c-ctrip.com/images/0102u1200086k28vc0A5C.jpg
乌鲁木齐,江河洗浴,150248633,43.951621,87.644737,0.0,,https://dimg04.c-ctrip.com/images/0102u1200086k28vc0A5C.jpg
乌鲁木齐,初星篮球馆,150255345,43.95615,87.62325,0.0,,https://dimg04.c-ctrip.com/images/0102u1200086k28vc0A5C.jpg
乌鲁木齐,V-ONE桌球,150259498,43.820538,87.576309,0.0,,https://dimg04.c-ctrip.com/images/0102u1200086k28vc0A5C.jpg
乌鲁木齐,苏妍阁足道(九鼎·翼龙华庭店),150259872,43.781071,87.486703,0.0,,https://dimg04.c-ctrip.com/images/0102u1200086k28vc0A5C.jpg
乌鲁木齐,悟空台球厅,150265069,43.878666,87.4099,0.0,,https://dimg04.c-ctrip.com/images/0102u1200086k28vc0A5C.jpg
乌鲁木齐,鑫旺足浴,150268178,43.923418,87.56901,0.0,,https://dimg04.c-ctrip.com/images/0102u1200086k28vc0A5C.jpg
