city,名称,id,纬度,经度,评价分数,介绍,封面图片
兰州,西固工人俱乐部,5534909,36.098663,103.621033,0.0,,https://dimg04.c-ctrip.com/images/1me6x12000b6q97ogA063.jpg
兰州,黄河铁桥,9487,36.064524,103.817061,4.7,黄河铁桥又名中山桥，位于城关区，是兰州标志性的建筑，也是游客到兰州游玩一定要去的地方。铁桥长两百多米，宽约有七八米，保持了一百多年前修建时的黑色铁架桥身，十分古朴。在百年来的修缮过程中，桥身上还架起了5座大铁拱，气势美观。铁桥南侧桥头处，有金色的“中山桥”三个大字，还有一块古老石碑，每天都有很多游客到此合影，作为来过兰州的留念。这座铁桥修建于清朝末年，是当时黄河上较早的一座常年通行桥，铁桥当年由德国人建设施工，所有的材料也都由德国运来。走上铁桥，下面便是安静流淌的黄河，而两岸的风景也很不错。铁桥南侧是兰州环境较好的街区滨河路，而北边则是有名的白塔山，山上有很多建筑和古迹，登山俯瞰拍摄铁桥和兰州全景更是非常漂亮。晚上时的铁桥则是另外一番美景，此时遍布桥身的彩灯都会亮起，整个铁桥的轮廓明亮清晰。桥的一侧是黄河外滩繁华街区的华灯，另一侧白塔山上观赏彩灯也全都亮起，非常漂亮，是拍摄兰州夜景较好的地方。,https://dimg04.c-ctrip.com/images/100n1f000001gpcykA2C5.jpg
兰州,甘肃省博物馆,9586,36.066543,103.774745,4.7,甘肃省博物馆位于兰州市七里河区，馆内珍藏了众多珍贵的文物珍宝，精彩和丰富程度在全国的博物馆中排名前列，是游玩兰州市区的标志性建筑之一。由于甘肃地处丝绸之路，同时又是汉藏地域的交界地，所以能反映西域、中原、藏区文化的文物都有大量的出土展示，使博物馆中的文物丰富多彩又别具风格，非常值得参观。馆内的马踏飞燕铜像、驿使图画砖等更是闻名遐迩的珍贵国宝，来此参观一定不能错过。博物馆一共有三层，分为丝绸之路文明展、甘肃佛教艺术展、甘肃彩陶展、古生物展和红色甘肃几个主题常设展馆，其中以丝绸之路、佛教和彩陶三个主题较为精彩，可以根据兴趣前去参观。一层处还有一座临时展馆，经常举办临时的文物和艺术品展览。博物馆里展品众多，一般走马观花参观一圈下来需要将近半天时间。丝绸之路文明展位于二楼，是甘肃省博物馆的核心展览，有名的马踏飞燕铜奔马像便展示在这里，这尊铜像的造型现在是中国旅游的标志，铜像只有一足着地却能站稳，展示了古代铸造的高超技艺，马踏飞燕也是整馆的镇馆之宝。有名驿使图画砖也在这里，上面画着的驿使图现在已经是中国邮政行业的标志。除了这两个国宝外馆内有古丝路上的众多珍贵文物，其中有中原文化的器物，有西域甚至欧洲文明在古代时途径丝绸之路到达这里留下的珍宝，还有伊斯兰教在古代中国留下的文化，具有特色。在有些区域通过沙盘等方式复原了古代西域诸国的生活方式和习俗，十分具有少数民族风情，让人大开眼界。甘肃佛教艺术展位于三楼，也是馆内的重要的展览，这里有从莫高窟、麦积山石窟复制而来的石窟，藏传佛教巨大的白塔和转经筒等等，走进展馆好像置身于一座辉煌巨大的寺院。馆内展示的佛像、法器等也都十分精美，既有汉传佛教的历史文物，也有藏传佛教珍贵的宗教器物，这样的融合只有在甘肃这样汉藏融合的地带才能看到，非常有特色。甘肃彩陶展也在三楼，一走进展馆便好像置身于一个远古时期的部落，古代的茅草屋和正在劳作的部落人群都被复制出来。展馆里的人像非常逼真，走近观看会让人产生那是真人的错觉。馆内展示了马家窑文化、齐家文化、仰韶文化等距今四五千年的众多陶器，虽然是几千年前，但当时的陶器已经非常精美，有各种漂亮的花纹和独特造型，可以一一参观。古生物主题展分为两个展馆，二楼的为化石展，里面展示了恐龙等古代生物的化石，较有名名的是黄河古象化石，是我国先进发现较大的古象化石。三楼的则是古象和恐龙的模型展，走进展馆好像置身于恐龙世界，小朋友们会比较喜欢。位于二楼的红色甘肃主题展馆则展示了革命时期南梁根据地和陕甘宁边区的革命文物，可以前去观看。博物馆的二楼有一个咖啡厅，价格与外面一般的咖啡厅相同，如果走累了可以进去喝杯咖啡休息一下。馆内有不定时的志愿者为大家提供讲解服务，但不一定遇得上。请专人讲解需要提前电话预约，价格根据人数和语言不同约100-300元不等。也可以通过手机连接馆内无线网，通过扫文物的二维码收听语音讲解。另外馆内还有免费的轮椅借用和行李寄存等服务，具体详情请见官网。,https://dimg04.c-ctrip.com/images/100r1f000001gopbzB1AD.jpg
兰州,白塔山公园,9575,36.06926,103.811908,4.7,白塔山公园位于兰州市中区附近的黄河北岸，入口处与中山桥连接，是兰州市内的重要景点。白塔山以山顶的古老白塔为，山间还有多座宫殿式的建筑，在建筑周围种植了很多树木，在此登山锻炼、摄影拍照都十分不错。更重要的是，登上白塔山即可看到兰州市区壮观的全景，视野十分开阔。白塔山的佳游玩时间是夏季。山顶的海拔约1700多米，不过相对与山下的兰州城高度只有200米左右，山并不高，登起来并不费力。路上有一些古建筑的院落、寺院等，还有漂亮的树木和草坪等，可以一一观赏。到达山顶区域观看白塔、拍摄兰州全景，然后前往山背后的兰州碑林后即可下山返回，一般游玩时间2-3小时左右。另外，如果体力不足的话也可以在黄河对岸乘坐黄河索道，索道穿黄河而过，后到达白塔山山腰。在白塔山的登山路上大致有三个层次的古建筑，其中有巨大的牌坊、城楼和寺院阁楼等。在这些建筑之间，有很多树木，造就了西北少见的树木成荫的环境，登山时感觉十分惬意。建筑的院落里有些还有草坪，每到春夏季节会开出野花，十分漂亮。另外，山路上还会有人售卖葫芦雕刻、黄河石雕等手工艺品，一般几十块钱一件，感兴趣的话可以选购。山顶处是一座白塔，一共七层高十七米，这座塔曾是当年忽必烈纪念在此病故的西藏佛教师萨班而建的，后来又在明朝时重建，是兰州市的标志之一，也是白塔山名字的由来。山顶还有象皮鼓、青铜钟等明清时代的文物，也是传说中的镇山之宝，可以根据介绍看看这些文物背后的故事。更重要的是，在山顶区域回头一看，便可以看到兰州城市全景。一条黄河在脚下穿城而过，河岸两侧则是鳞次栉比的楼房，非常壮观，如果是傍晚或天黑后前来，楼房和路灯亮起，更适合拍摄城市的美丽夜景。在山背后的西北一侧，有一座兰州碑林，是一座类似圆形的访古院落。在院落的墙内侧，有从远古时代一直到近代的多位知名书法家的书法石刻复制，历史上的西宁王碑、《惠安西表》、《淳化阁帖》等在此都有复制或篆刻，另外还有甲骨文、藏语、西夏文、八思巴文等特别文字的书法石碑，值得前去一看。游客游玩兰州通常是将白塔山公园和兰州水车博览园、中山桥等一并游玩，时间充足的话还会加上甘肃省博物馆。建议在安排行程时将爬白塔山放在下午，傍晚下山刚好看看黄河两岸的夜景，再去不远处的正宁路夜市品尝美味小吃，十分惬意。,https://dimg04.c-ctrip.com/images/100p1f000001gpgsq931A.jpg
兰州,滨河路绿色长廊,9589,36.063049,103.842426,4.7,滨河路绿色长廊又称黄河外滩，是指兰州市的南滨河路。这条马路全长约三十多公里，在穿城而过的黄河南侧沿河而建，路上种植了很多树木，环境优美，又有众多的雕像和主题公园等，是兰州市内较适合游玩的马路。每到夜晚时，黄河两侧夜景十分漂亮，来此散步纳凉、观光摄影十分不错。滨河路西起西固区，穿过整个兰州城区直到东端的东岗立交桥附近，长约几十公里，不过大部分游客都不会游览全部道路。滨河路绿色长廊景观较为集中的是在七里河区和城关区一带，这里分布着黄河母亲像、黄河铁桥、水车博览园、小西湖公园、玄奘师徒雕像等众多景点，一般沿路逛逛走走，看着黄河风景漫步拍照即可，游玩大约2-3小时为宜。另外，白塔山公园和甘肃省博物馆也都距此不远，可以一并游览。黄河母亲像和中山桥是滨河路一带较为有名的景点。其中黄河母亲像是兰州市有名的建筑，黄河母亲是一座母亲怀抱婴儿的雕塑，象征着中华民族由母亲河黄河孕育哺养，来到了兰州，一定要到这里合影一下。中山桥是黄河上修建的一座铁桥，已有一百多年历史，也是黄河的标志之一。另外，在水车博览园处，还可以观看西北古老的灌溉水车，乘坐羊皮筏子渡河，体验古老的西北民俗。每到夏季夜晚时，滨河南路成为兰州市民和游客们喜爱的地方，其中尤其以中山桥一带较受欢迎。晚上河对岸白塔山上彩灯亮起，河岸之上微风徐徐，在这里纳凉、拍照都非常不错。另外，在桥下的河中停靠着一些大船，船上售卖兰州特色的三炮台茶和黄河啤酒，在夏夜河上的微风中与三两朋友对饮畅谈，十分惬意。,https://dimg04.c-ctrip.com/images/1009060000001yq9h5AAB.jpg
兰州,兰州水车博览园,9590,36.06352,103.84336,4.5,水车博览园位于兰州市南滨河东路黄河河岸边，是滨河路绿色长廊的一部分。公园以兰州黄河水车为基础，汇集了全国各地的各种水车，集中展示在园区内，来此可以参观了解各地水车的特点。景区内还有池塘、花卉、雕塑等景观，环境优美。水车博览园沿着黄河而建，长约1公里左右，宽仅有100米左右，进入后步行游玩即可，大约1-2小时为宜。如今的水车博览园主要分为三个部分。第一个区域为水车广场，这里有兰州黄河水车，还有几十轮国内外各地不同风格的水车，可以来此参观了解。第二个区域为水车园，这里修建了池塘、雕像，还有树木花卉等，环境很是优美，几十架水车在池塘周围和黄河里运行着，场景十分好看，可以拍照游玩。在这里漫步放松，观看河滨美景也十分不错。第三个区域是园区东侧的文化广场，这里有兰州奇石馆、甘肃民俗馆、水车展览馆等展室，可以进入参观一下。另外还有纪念品商店等，可以了解选购。,https://dimg04.c-ctrip.com/images/1007190000018ju3j9B3F.jpg
兰州,黄河母亲像,9591,36.066477,103.798721,4.6,黄河母亲雕塑位于兰州黄河南岸的滨河路中段，是全国诸多表现中华民族的母亲河——黄河的雕塑艺术品中较漂亮的一个。雕塑由甘肃雕塑家何鄂女士创作，长6米，宽2.2米，高2.6米，由“母亲”和一“男婴”组成构图，分别象征了哺育中华民族生生不息、不屈不挠的黄河母亲，和快乐幸福、茁壮成长的华夏子孙。雕塑下基座上刻有水波纹和鱼纹图案，源自甘肃古老彩陶的原始图案。,https://dimg04.c-ctrip.com/images/0105x1200063n9odv5A5E.jpg
兰州,五泉山公园,9585,36.036622,103.824235,4.7,五泉山公园位于兰州市区南侧，是兰州较出名的公园。五泉山的历史很是悠久，因传说霍去病将军曾在山上鞭打五下打出五眼泉水而得名。如今的五泉山上泉水已经很小，但是山间修建了众多的古代建筑和寺庙等，公园内绿树成荫，环境古朴优雅。来此可以登山锻炼、拜佛祈福，还能够登到山顶俯瞰兰州城区的美景。五泉山相对高度并不高，爬山大概1-2小时左右，山顶处可以俯瞰兰州城。很多游客来此并不会登顶，在山腰之间也能看到不错的城区景色。公园内大部分的建筑都分布在山腰之间，出名的有浚源寺、嘛呢寺、卧佛寺、地藏寺等，多为明清建筑，香火很旺，可以进入祈福。山下处有儿童游乐设施，可以带着小朋友前来娱乐，这里也是老年人晨练、唱歌、跳舞的地方。在公园旁边，还开辟了一座五泉山动物园，里面有上百种动物，适合带小朋友前来游玩参观。,https://dimg04.c-ctrip.com/images/100v1f000001h1dnuC8F2.jpg
兰州,大众巷,133967,36.061892,103.822015,4.7,兰州的小吃街不少，张掖路以北的大众巷尤其知名。这里集中了多家在兰州声望很高的老字号，如“马子禄牛肉面”、“灰豆王”、“茹记烤肉”“金城炒面片”等等。除此以外，这里还有一些小店，虽然籍籍无名，却依然口味地道，如很受姑娘们喜欢的酿皮、油炒凉粉、灰豆子、冬果子，在这里都可以吃到。总之，大众巷每天都演绎着纯粹的兰州美食传说，到了这里，不怕没的吃，只怕肚子小。,https://dimg04.c-ctrip.com/images/0106m12000a9rheyi1605.jpg
兰州,兰州西关清真大寺,9592,36.059654,103.811825,4.5,兰州西关清真大寺位于兰州市城关区萃英门 1 号，始建于明朝洪武或永乐年间，因过往信教群众常来此参加宗教活动，故有 “客寺” 之称。这座清真寺历史上历经多次重建与重修。清康熙二十六年重建，雍正七年重修，嘉庆九年再次重建，后也进行过扩建和重修。1983 年在原址开始重建，1990 年 4 月新寺落成。现有建筑由礼拜大殿、小礼拜殿、讲经堂、宿舍等组成。大殿为 4 层圆形建筑，面积 3000 平方米，可容纳 3000 多人同时礼拜，总高度约 37 米。从空中看，建筑既有伊斯兰风格，又包含中式建筑平面布置元素。底层设有办公室、讲经堂、宿舍、沐浴室等，上部三层为礼拜大殿，大殿平面呈圆形，内部朝向经过巧妙设计，正对 “克尔白” 方向。,https://dimg04.c-ctrip.com/images/10061b000001awm92F96A.jpg
兰州,小西湖,51485,36.064717,103.798338,4.5,小西湖位于七里河东侧，西津东路与滨河中路之间，原系明肃王府园林，名曰“西园”，几经战火，1880年，总督杨昌俊由浙调甘，再次重建，为寓不忘乡土之意，改名为“小西湖”，号称兰州古八景之一，又名“莲池夜月”。由于历史变迁，原“小西湖”园林已无法恢复。 1982年，兰州市委、市政府为恢复古文化遗址，均衡城市绿地，修建具有地方传统风格的综合性游憩公园——小西湖公园。公园的修建力求按原“小西湖”的布局，侧重突出江面园林风貌，开创“借景九洲，倚临黄河，湖光山色，殿阁掩映”的景观，既现北国地方风格，又效江南水乡秀美。全园以水景取胜，整个湖面大小不等、聚散有致，分为东侧、中湖、西湖和旭岛琼瑶内的莲荡池四个水面。湖面以东是大面积的草坪，植物造景以及可调式大型水幕彩灯喷泉；以北则为游览休息区，有蔷薇花墙、贺兰菊园、月季花圃、竹林、柏树台等多处花木景点，湖岸柳浪闻莺，游人纳凉垂钓、泛舟湖上。在公园西部建成了现代化8000平方米露天游泳池，分为深水池，浅水池和儿童戏水池三部分，陆地种植草皮，没置桌凳，可供游人休息娱乐。,https://dimg04.c-ctrip.com/images/0104912000j6g7l7t2874.jpg
兰州,白云观,9577,36.062562,103.810562,4.5,白云观也叫吕祖庙，始建于清道光十七年（公元1837年），是由陕甘总督瑚松额捐俸修建的，也是古代兰州三观之一。白云观山门额雕“升云得路”，门楣悬邓宝珊所题“白云观”木匾。观内供奉有吕洞宾的塑像，有东西望河楼、戏楼以及前、中、后院等一组三进的建筑群，两侧为云水堂、钟鼓楼、道院等。后殿有花园、八仙阁潇洒轩、鹤鹿亭、来仙亭、聚仙亭、群仙楼等建筑，古香古色，道教风格浓郁。白云观，殿堂建筑雄伟，香火旺盛，道教文化气氛浓厚，在当地可谓独具风貌，观内7颗国槐参天挺拔，枝繁叶茂，使白云观更显清净优雅，1997年兰州市人民政府将这7颗国槐作为重点古树名木挂牌保护，成为全城仅有的一处名胜道观与古树名木融为一体的景点。近20年来，兰州白云观已成为荟萃十方全真道士和联络全省正一派道士以及信教群众开展宗教活动的中心场所。同时，也是海内外道教信徒及游人观光朝拜交流的道观。近年曾先后接待过美国、日本、新加坡等国的参观团参访朝拜及文化交流活动。每年来这里敬神参观的香客游人达20余万人次，成为展现道教传统文化风貌、增进学习交流和友好往来的重要窗口。漫步在游人如织的滨河路，凝视白云观色泽古旧的山门，以及从观内徐徐升起的香烟，让人顿生几分“此地有仙山”的感慨。白云观，作为黄河风情线上一座有着仙家氛围的古观，将长久地吸引着南来北往的信众和游人，在此驻足、流连。,https://dimg04.c-ctrip.com/images/100w1f000001gw9iyCE5B.jpg
兰州,八路军兰州办事处纪念馆,51467,36.050371,103.826511,4.8,兰州八路军办事处纪念馆是第二次国共合作时期，中国在蒋统区设立的公开办事机构，老一辈无产阶级革命家谢觉哉、彭嘉伦、伍修权等曾领导“八办”工作。“八办”1963年被批准列为省级文物保护单位。1978年在旧址筹建了兰州八路军办事处纪念馆，并于1981年1月正式开放。馆内共有革命文物150余件，照片170余幅。,https://dimg04.c-ctrip.com/images/100k1f000001guhva42E8.jpg
兰州,金城公园,51413,36.081097,103.623002,4.2,金城公园即原来的西固公园，园内有可供夏天游船，冬季滑冰的人工湖，有占地840平方米的彩色电子音乐喷泉，有占地1800平方米，独具西式风格的西班牙建筑群－碧波大世界。公园游乐场内，有大型游乐项目激流勇进、海盗船、惯性滑车，还有碰碰车、小跑车、高空脚踏车、高空观览车、飞旋荡椅、豪华转马等各种游乐设施，供广大游客尽情娱乐。随着公园的扩建和重新规划，新公园广场将被设计为“两轴（礼仪文化轴、生态休闲轴）、两中心（礼仪表演中心、滨水活动中心）、四大功能区（文化展馆区、滨水活动区、花卉展销区、林下休闲区）”，涵盖了黄河文化、五千年文明史、军堡文化和小吃文化。,https://dimg04.c-ctrip.com/images/010081200087jfr5q05C3.jpg
兰州,兰山公园,9584,36.027536,103.839024,4.7,皋兰山海拔2129.6米，是兰州城南的天然屏蟑和第一高峰，兰山公园就位于山顶制高点上，高度近500米，是兰州第一座人造森林公园。山上楼台亭阁，错落有致，红柱碧瓦，相映成趣，是人们纳凉赏景的理想场所。园内三台阁是兰州市南屏障的顶端建筑。高三层，上建一亭，气势雄伟。在此俯瞰市容，黄河穿城而过，市容尽收眼底。傍晚时分，远山云蒸霞蔚，市内万家灯火，场景壮观。公园附近有四千多年前的人类活动遗址，清代军事防卫墩台，解放兰州的营盘岭战场等文物古迹。,https://dimg04.c-ctrip.com/images/0102q120008h3q24gDAD0.jpg
兰州,白衣寺塔,9583,36.055482,103.834063,4.6,兰州市博物馆为地方性综合博物馆，馆藏文物13000余件，其中马家窑文化马厂类型的彩塑陶鼓是我国已知较早的打击乐器。出土于红古区的马家窑类型彩陶瓮，高63厘米，肩宽56厘米，为迄今发现的较大的彩陶器。此外，像西周青铜簋、东汉写字纸、唐三彩云头鞋、末代青瓷堆塑瓶、明肃王白瓷造像、鲁土司盔甲等，都是珍贵文物。博物馆有名的是白衣寺塔，历史与艺术价值很高。塔为实心砖塔，高约30米。塔基呈错牙式方形，长、宽各7米，高2.8米，四面镌刻花卉图案。塔身下部呈覆钵状，高约8米，较大处直径为6米。正南与塔基连接处开一佛龛，原龛内供有三佛像。塔身上半部为八角形锥体，高18.5米，共做密檐12层，层数为偶数，在国内罕见。每层每面各开佛龛1个，内各塑佛像1尊，共计96尊；每层每角悬挂风铃1个，共计96个，塔刹高约1米，形若宝瓶，以外镀铜的金属做成。,https://dimg04.c-ctrip.com/images/0100o12000ikrtnf61D83.jpg
兰州,雁滩公园,9587,36.061007,103.855481,4.4,雁滩公园位于南滨河东路，靠近水车博览园，原本是黄河中的十八个沙岛，因常年有大雁来此栖息而得名。1958年这里先后筑成了长达20公里的环滩大坝和10公里的柏油马路，穿过黄河支流连接雁滩和市区，后辟为公园。园中林木茂密，风光明媚，建有楼台亭阁，与黄河景色互相映衬，十分壮美。公园辟有人工湖，水域面积达155亩，湖中立有假山、亭阁、小桥，玲珑精巧，与碧湖绿树相映成趣。在湖中划船钓鱼，甚是舒怡。,https://dimg04.c-ctrip.com/images/100i1f000001gp1wg5B82.jpg
兰州,府城隍庙,9619,36.060824,103.822513,4.4, 兰州城隍庙位于张掖路步行街，创建于北宋，系祭祀汉大将军纪信为城隍而建。现存的古建筑为明清建筑，是一座四进式宫殿式木结构园林古建筑群。庙宇大门3间，为忠烈侯坊，二门为硬山顶式环廊戏楼，北有卷棚歇山顶式享殿，后为重檐歇山顶式正殿，左右有厢房、钟鼓楼等。回廊下原有壁画，现已不存。现有建筑按中轴线依次为牌坊、享殿、正殿、寝官、客堂，牌楼由节园颜妃墓前的贞列遗旰牌坊改建而成，院内石狮一对，距今已有200多年历史。城隍庙现为兰州市的工人俱乐部，形成集古玩、字画、文房四宝、玉器、瓷器、铜器、刻葫芦、雕砚台、绣品、文化礼品、黄河奇石、古旧书籍、钱币、邮票等具有地方特色兰州较大的文化古玩市场，有近300商户常年在此经营。每年春节传统文化庙会为兰州市民提供了一道丰富的文化大餐，听秦腔、看展览、猜谜语、耍狮子，各种民间手工艺、地方小吃云集此地。成为市民休闲、娱乐的固定场所。,https://dimg04.c-ctrip.com/images/1me0z12000ag2k3m6A8CB.jpg
兰州,兰州银滩湿地公园,145253,36.088592,103.715848,4.8,银滩湿地公园位于兰州市安宁区北滨河路西端银滩大桥北段的东西两侧。银滩湿地公园是全面反映黄河生态多样性的主题公园，公园有荷花、芦苇、小香蒲、榆叶梅、丁香、黄刺玫等45万株水生植物。全园有各类桥22座，草亭9座，鱼类、禽鸟类10余种。该公园设计紧紧围绕黄河湿地文化这一主题展开，围绕“水、草、路、桥、石”造景，建造了“一水、一道、四湖、二十四桥”等景观，被誉为“镶嵌在黄河边上的绿宝石”。公园内有4个功能区，即生态保护区、自然景观复原区、科普教育区和休闲游览区。生态保护区以保护黄河湿地中的动植物资源为主题，形成系统的生物生存环境；自然景观复原区以恢复黄河滩地自然湿地景观为主，用仿自然的手法营造环境，达到虽为人做，宛如天开的自然景观效果；科普教育区，集中开展有关湿地生态效益和经济价值方面的公众教育活动，广泛普及湿地和湿地保护科学知识；休闲游览区则以休闲、观赏活动为主。,https://dimg04.c-ctrip.com/images/100h1f000001grthqA37D.jpg
兰州,兰州极地海洋世界,1979745,36.061715,103.770276,4.0,兰州海洋极地世界自2016年初开业以来，已经成为备受欢迎的海洋极地主题公园。园内栖息着各种海洋和极地动物，游客可以近距离观察这些神奇的生物，了解它们的生活习性。此外，园区提供特色的动物表演和互动游乐项目，如海豚表演和海狮秀，精彩纷呈，深受孩子们的喜爱。无论是漫步于海洋隧道，还是参与互动活动，都能让人感受到海洋世界的奇妙与壮观。,https://dimg04.c-ctrip.com/images/1lo1k12000hrxr6g3AF22.jpg
兰州,兰州植物园,51494,36.119073,103.705239,4.7,植物园于1993年在兰州市施家湾苗圃的基础上开始筹建，已有46亩人工湖、油松林休闲区、特色餐厅、文化活动室及会议厅等。园内林木繁茂，树种多达100余种，其中有银杏、水杉、冷杉、杜仲等较为珍贵的植物品种。植物园内的花卉温室占地7000多平方米，培育花草100多个品种，室内观赏花卉50多个品种，是兰州市主要花卉研种培养基地。同时又在人工湖岸增建了百合园、宿根花卉园两个植物专类园。植物园内景色宜人，湖光树影、鸟语花香，春夏秋三季花开不断，苗木基地郁郁葱葱、浓荫如盖，是近郊难得的休闲去处。,https://dimg04.c-ctrip.com/images/0105r120008e2k7wg766C.jpg
兰州,石佛沟国家森林公园,9582,35.91287,103.890017,3.6,石佛沟国家森林公园分石佛沟、铁冶、七道梁、大尖山四个园区。其中以连接天都山、大沟的石佛沟为核心园区。公园东连兴隆山自然保护区，西接关山森林公园。公园从海拔1950米至3124米，自上而下，阶梯分布着白桦林、紫桦林、云杉林等多种林相，锦鸡、斑颈稚、林麝、石貂等100多种鸟兽游逡期间。园内群山连绵，绿屏如障，鸟语花香。公园的人文景观主要有：灵岩寺、佛吟谷、伏虎洞、七星泉碑刻、森林文化碑刻长廊等。,https://dimg04.c-ctrip.com/images/100c1b000001axqtr55C0.jpg
兰州,兰州市地震博物馆,51496,36.115031,103.730376,5.0,兰州地震博物馆兴建在一座长达400米的大型人防山洞里。它是目前我国规模较大，收集、陈列、研究、宣传地震史料和地震知识较为丰富的地震博物馆。博物馆主体展厅神秘莫测；展馆门口是一条古地震断裂带，断层面清晰可见，十分壮观。整个博物馆分为6个分馆：有地震知识壁画馆、实物史料馆、地震泥塑馆、地震仪器馆、音像馆和地震字画馆。壁画馆设在主洞道，壁画长104米，高1.3米，上面绘制了383个真实的地震故事，囊括古今中外1000多个人物。实物史料馆陈列着300多件地震文物和史料。地震泥塑馆以“报马送信”、“夜守孤灯”、“斩断恋情”等8组泥塑，再现了公元138年张衡地动仪测出的兰州地震时的情况。字画馆收藏有许多与地震有关的题字和画卷。藏品中，有许多国内外罕见的地震文物和史料，如万年以前地震生成物－固化沙柱和碳化断层泥珍品，固原大地震铜币“沙板”，我国首张地震烈度图－清代山西平陆大地震后钦差大臣手绘地震烈度御览图等。,https://dimg04.c-ctrip.com/images/0100v12000b1l0sve7AA3.jpg
兰州,甘肃地质博物馆,1480772,36.069012,103.861019,4.8,甘肃地质博物馆位于兰州市城关区滩尖子团结路6号。建筑面积12568平方米，布展面积4860平方米。馆内设有序厅、地球厅、矿物岩石厅、宝玉石厅、生命演化厅、土地资源厅、地质环境厅、矿产资源厅等8个常设展厅，以及穹幕影厅和临时展厅，馆外设有矿石林和影雕文化墙。馆内收藏有国内外地质矿产、古生物、矿物和岩石标本共3万余件，展示有大夏巨龙、兰州龙和甘肃鸟等一大批精品。展厅内循环播放《甘肃地质》、《甘肃矿产》、《甘肃土地》、《甘肃遨游》和《甘肃地质公园》等20多部影视片，以及《宝石趣闻》、《地震体验》等一系列寓教于乐的互动项目。甘肃地质博物馆先后获得全国科普教育基地、全国青少年科技教育基地、甘肃省科普教育基地、国土资源科普基地等称号。甘肃地质博物馆是一座全面展示和介绍甘肃省国土资源概况的自然类博物馆，是集收藏、科研、科普教育和娱乐休闲诸功能为一体的公益性设施。同时也是对大众，特别是广大青少年进行地学知识普及和爱国主义教育的基地。,https://dimg04.c-ctrip.com/images/0105w12000f6t6cg05CC8.jpg
兰州,兰州创意文化产业园,1703542,36.047748,103.882436,4.5,兰州创意文化产业园是利用原来兰州油嘴油泵厂的厂房建起来的，有着工厂原来质朴的气氛。但是一进入创意产业文化产业园的“车间”里面，就有一种浓浓的艺术气氛扑面而来。所有的布置和展示，虽然将过去车间粗糙的墙体露了出来，但都与文化和艺术连接在了一起，走在这里感觉到非常舒服，是一个可以休闲、探讨话题的地方。但是，当你走过所有的地方，才能够感到它其中的创业的魅力，并且高科技在这里有着非常多的元素，在文化艺术的层面中，现代时尚的东西却占了绝大部分。大厅内有和政古动物化石；世界上较大的三趾马化石产地；世界上较丰富的铲齿象化石铲齿象头骨个体发育系列史；世界上较早的披毛犀头骨化石；世界上较大的真马埃氏马；世界上较大的鬣狗巨鬣狗。创意资源之丰富，创意表现之跨度，创意手法之广泛，可以说都是在中国史上少有的。,https://dimg04.c-ctrip.com/images/0101w12000az47d1r3752.jpg
兰州,兰州非物质文化遗产陈列馆,121607,36.066485,103.815166,4.6,兰州非物质文化遗产陈列馆北依黄河北岸的九州山，面对滔滔东去的黄河，在故金城关遗址上改扩建而成。陈列馆是一座“工”字型的仿明清建筑，毗邻中国秦腔博物馆和正在修建中的兰州彩陶博物馆。陈列馆采用了实物陈列、场景再现、多媒体等现代化手段，多视觉、全方位地呈现兰州非物质文化遗产的多姿多彩。陈列馆包括序厅、展示厅、茶园演艺厅、古金城民俗一条街等。在序厅和展示厅，采用全息数字化环形银幕技术、新型材料上镂刻图谱、微型浓缩景观模型、实物展示等形式，集中了兰州一批有代表性的非遗项目，如兰州太平鼓、黄河水车、旱田压沙技术、兰州鼓子、永登高高跷、微缩古建模型兰州四合院、兰州剪纸、兰州刻葫芦、兰州泥塑等。在非遗馆二楼是兰州鼓子的保护基地，大家可坐在古香古色的茶园演艺厅里，一边品茶，一边通过180度的环幕电影，欣赏兰州非物质文化遗产代表性项目的精彩镜头。,https://dimg04.c-ctrip.com/images/100f1f000001gqcr4F170.jpg
兰州,秦腔博物馆,136288,36.066313,103.815879,4.5,中国秦腔博物馆通过秦腔的发源、兴盛、传播的过程，探讨秦腔的艺术内涵和生命力。博物馆从策划布局到每一件展品，从历史演变到剧本创作，从脸谱服饰到各个时期的名家名唱，可以说是集秦腔之大成。 秦腔博物馆分原汁原味的秦腔表演区，历代秦腔名人蜡像区，小型皮影戏。据内容分为13个部分，有戏曲与秦腔；秦腔的音乐、艺术特点；秦腔的传承及教育机构；班社与剧团；秦腔的剧目；从戏楼、戏园到现代剧场；秦腔的名人；秦腔在发展中的鼎盛时期；西秦腔；陇剧；秦腔木偶戏；秦腔皮影戏；各种演出交流、秦腔艺术节会演活动。在演员篇展厅中，有甘肃梅花奖得主窦凤琴、谭建勋，有“花脸王”张兰秦等名家名角；在班社篇中，不但有陕西易俗社这样的知名剧团，兰州文化社、鸿盛社等也一一在列。在名角名家厅，只要你点击喜欢的名角唱段，系统也将自动播放。在剧目厅，一个容纳有1000部剧目的电脑系统将为你服务，并随着点击显示参观者想要阅读的剧本。而在观演厅里，不仅有人们在剧场看戏的雕塑群，而且利用幻影成像技术制作的十多部秦腔影像也会轮番播映。参观者置身博物馆，就有在剧场的现场感觉和气氛。,https://dimg04.c-ctrip.com/images/10041f000001gpb0cD432.jpg
兰州,兰州《丝路花雨》演出,137815,36.044939,103.84096,4.7,兰州《丝路花雨》演出的大量舞蹈动作、造型设计都取材于敦煌壁画，舞剧中所跳的“反弹琵琶舞”、“千手观音”等都可以在壁画中找到原型，是敦煌舞的杰出的代表。,https://dimg04.c-ctrip.com/images/10070v000000kiz9mCFFE.jpg
兰州,徐家山国家森林公园,9581,36.091084,103.857516,3.0,徐家山公园依山傍水，山势起伏，园内树木葱郁，空气清新，溶自然景观与人文景观于一体，是维护多年的人工森林公园。山间拥有国内及海外赠与的花木种类，有各类树木百余种，30多万株全部为人工栽植。红柳梁下为日本国鹿儿岛市“绿色遣唐使”植树访华团与兰州市民共同营造的“中日友好纪念林”。此外，该区还有“三八”纪念林、榄胜楼、香柳亭、香柳野趣等景点。各类小型野生动物出没于林间，有蒙古兔、松鼠、雉鸡等约20余种，成为森林公园的特有景观。公园内还有为游人开设森林木屋、听涛园、烧烤园、野营村、赛车场、杏花村、碧秀园、怡和老人公寓等。,https://dimg04.c-ctrip.com/images/100g0k000000bvs5y3D43.jpg
兰州,黄河索道,2503685,36.072622,103.811764,4.4,黄河索道缆车于1994年建成运营，为单线脉动循环吊厢式索道，共有四组吊厢，每组三辆，每辆可乘坐6人。兰州被称作“黄河之都”，黄河穿城而过，坐在缆车上看滔滔的黄河水又是另外一个感觉了。,https://dimg04.c-ctrip.com/images/0101b12000eyod2208848.jpg
兰州,仁寿山公园,9578,36.127627,103.688473,4.5,公园位于安宁区刘家堡北部的桃园之中，距市中心约15公里。公园内绿树成荫，山上亭台楼阁。山坡上塑一长27米的青龙，似腾空跃起，怒目奋爪。山中还建有玄武庙、凌云阁、祖师殿、仁寿亭等仿古建筑。仁寿山周围有十里桃海，每逢桃花盛开之际，这里隆重举办桃花会，观者如潮。,https://dimg04.c-ctrip.com/images/10051f000001gsqld5D9D.jpg
兰州,雁滩黄河大桥,1834884,36.07413,103.861606,4.6,"雁滩黄河大桥享有兰州黄河“第一彩虹桥”的美誉，全长816米，桥型为三跨连续钢管混凝土刚架系杆拱桥，桥面宽31米，西引桥长75米，东引桥长440米，为钢筋混凝土连续梁桥，由主桥、引桥、引道、辅道、雨水、照明等组成。
雁滩黄河大桥位于兰州市区东部，是兰州市北出口与312国道衔接的枢纽工程，也是连接兰州黄河南岸雁滩和北岸盐场堡交通的咽喉工程。桥长791m，工程总投资1.728亿元，于2001年1月开工建设，2003年竣工通车。大桥被兰州市列为“十五”重点项目，是兰州市的标志性建筑。",https://dimg04.c-ctrip.com/images/10060700000025ghr8FC9.jpg
兰州,兰州黄河游轮,2483968,36.065608,103.818221,4.2,兰州黄河游轮是一项独具特色的水上观光体验，带您领略黄河的壮丽风光和兰州的城市魅力。作为一种结合自然景观与城市文化的旅游项目，兰州黄河游轮为游客提供了一个舒适而独特的视角来欣赏这条母亲河的雄伟与宁静。兰州黄河游轮沿着黄河缓缓行驶，游客可以在甲板上欣赏两岸的风光，感受黄河水的奔腾与城市的繁华。途中经过的中山桥、、白塔山、黄河铁桥等地标性景点，都是拍摄和观赏的最佳位置。专业导游会为游客讲解沿途的历史故事和文化背景，让您在欣赏美景的同时，深入了解兰州的历史与发展。夜间航行更是别具一格，灯光璀璨的城市与静谧的河水交相辉映，呈现出一幅迷人的画卷。乘坐兰州黄河游轮，荡漾在母亲河。这里不仅是欣赏自然与城市的地方，更是一个感受黄河文化和兰州魅力的理想之地。,https://dimg04.c-ctrip.com/images/0104m12000ln6385f66F6.jpg
兰州,金天观(兰州市工人文化宫),9576,36.060174,103.805608,4.2,金天观建于明建文二年（公元1400年）。因观内供有雷祖神像，又名“雷坛”，是早年道教在兰州传经的地方。昔日金天观殿阁崇巍，回廊幽曲，松柏槐榆错杂遍布。中为雷坛，东为坛祠，西为吾祠，西北角有一花园。现被辟为兰州市工人文化宫。据记载，金天观里原有36株唐槐，称为“三十六部雷将”。现存唐槐3株、树龄120年以上的明清柏3株。较高的—株唐槐达20余米，胸径近3米。院南有明清碑刻十余块。其中有移自节园的明肃王妃“碧血碑”，立于原二清殿西廊。明崇祯十六年(1643)，李自成大顺军将领贺锦攻占兰州，末代肃王朱识鋐被擒。肃王妃颜氏、赵氏、顾氏，嫔田氏、杨氏率宫人200余人从凝熙园奔上北城墙上的拂云楼，准备从北城墙上投黄河自尽。当时追兵迫近，颜氏扑向立于拂云楼上的肃王诗碑，触碑而亡。其余妃嫔跳墙、自刎、上吊，全部殉难。当地人把肃王妃嫔的尸体收集起来，在园里掘了个大墓，全部埋葬。从此后，叠立在拂云楼上的肃王诗碑上颜妃洒血的地方，留下了—块碗大的血痕，每逢阴雨或天气变化，痕迹就非常明显。,https://dimg04.c-ctrip.com/images/0100z12000f6t2yp2D581.jpg
兰州,河口古镇,1510034,36.171509,103.439136,3.9,来到河口乡河口村的入口时，路口伫立着一座木制牌坊，上面缠绕着彩条布，在风中飘动。沿着村道行进，两侧有砖混结构的民居，也夹杂着残垣断壁。到了村中心，一幢由青砖绿瓦构建而成的崭新的钟鼓楼出现在眼前，此时，一丝古镇余韵的感觉才涌上心头。这就是河口村——一座相伴在古今风貌中的昔日古镇。多年以前，河口是黄河‘黄金水道’的重要港口，西北各地的长途运输多要途经此处，在河口古码头卸货、装货，运输各类货物。河口村古码头早已不复存在，现代化的水泥建材占据了整个河口古码头。2013年，河口村申报全国历史文化名村，可惜名落孙山，但它却成了甘肃省历史文化名村。同时，由于深厚的历史文化底蕴，河口村也与金城关一同成为兰州市申报全国历史文化名城的重要内容。如此一来，重建河口古镇，保护河口历史文化的愿望将逐渐成为现实。2014年年初，在各级政府的关注下，重建河口古镇的规划方案经过多位旅游、历史、规划专家的审议终定案。根据规划方案，重建河口古镇主要包括六个方面，即重建、保护、整治、保存、维护及修复，进而恢复河口古镇的文物古迹、体现景区文化特色和历史风貌。,https://dimg04.c-ctrip.com/images/100d1f000001goqi32325.jpg
兰州,天主堂,1831986,36.050243,103.83746,4.6,兰州天主教堂在金昌南路上，天主教堂为哥特式建筑， 粉红色的外观看上去很是扎眼。,https://dimg04.c-ctrip.com/images/100l1f000001gqfa723D7.jpg
兰州,兰州市南关清真大寺,1831981,36.05156,103.826731,4.5,该寺庙位于兰州市繁华市区南关什字南侧的酒泉路中段西面，原南城门与拱兰门（南稍门）之间，所以又称为南稍门大寺。根据有关地方史料和原寺珍藏石碑记载，初建在明洪武年间（1368—1398年），是当地有名的寺庙之一。,https://dimg04.c-ctrip.com/images/100s1f000001gx59v5CD5.jpg
兰州,兰州城市学院谷仓当代影像馆,1703717,36.104597,103.742834,4.8,在这个600平方米左右的空间里，谷仓当代影像馆曾经举办过在世界摄影圈内都颇有影响力的大师马克吕布和荒木经惟的个人影展。创办人王西野曾是一名在全国有众多连锁店的企业家，创建谷仓完全是出于自己的喜好，基本是公益性。,https://dimg04.c-ctrip.com/images/0100h12000cvq2lgh663A.jpg
兰州,庄严寺,9622,36.038108,103.822478,4.7,大业十三年（617年），薛举在兰州称帝后，将庄严寺作为其皇宫。唐平定薛举后改为佛寺，由山门、厢房及前殿、正殿、后殿等构成三院落。原山门匾额“敕大庄严禅院”六字，为元代著名书法家李浦光所书，字体遒劲。正殿后壁观音壁画，仪态端庄优美，身披白衣，宛然如纱，净瓶柳枝，翠色如新。,https://dimg04.c-ctrip.com/images/10021f000001gxbyjF645.jpg
兰州,兰州滨河公园,1831976,36.066483,103.796776,4.8,兰州是一个东西向延伸的狭长型谷地，夹于南北两山之间，黄河在市北的九州山脚下穿城而过。经过城建部门的规划建设，沿黄河南岸，已开通了一条东西数十公里的滨河路。因路面宽阔笔直，两旁花坛苗圃，星罗棋布，被誉为绿色长廊。沿滨河路以东到西依次有雁滩公园、省书画院、儿童公园、中山桥、白云观等。沿路公园、雕塑鳞次栉比，景点众多，黄河风情独特迷人，简直是一座没有篱墙的开放性“公园”，素有“绿色旅游长廊”之称。黄河外滩今已日臻完善。游人到此，可见路边杨柳依依；园内亭台楼阁、古朴庄严、水色波光、相映成辉。游客游览滨河路，可以欣赏黄河风情，参观沿途点缀的平沙落雁、搏浪、丝绸古道、黄河母亲、西游记等众多精美的雕塑；并参观中山铁桥、白塔山公园、水车园等景点。在旅游旺季，可看到古老的皮筏摆渡，体验“吹牛皮，渡黄河”的古韵；也可乘坐橡皮艇在黄河上漂流。滨河路被誉为兰州的“外滩”，已成为老年人晨练和年青人浪漫的场所。外地游客来兰州旅游，必先到滨河路，从东到西一游。兰州滨河公园位于甘肃省兰州市城区北侧，黄河南岸，沿滨河马路分布，全称为“滨河路带状公园”。,https://dimg04.c-ctrip.com/images/0103t120008k0dnjtA0A1.jpg
兰州,兰州安宁大青山滑雪场,1494018,36.12837,103.724111,3.1,兰州安宁大青山滑雪场位于兰州市安宁区孔家崖的费家营大青山黄土山坳里，是西北地区规模大、配套设施齐全的现代滑雪场——西北高原（兰州）滑雪场。兰州安宁大青山滑雪场总投资4000多万元，集滑雪、健身娱乐、高尔夫运动场馆、度假休闲、景观园林、度假山庄为一体，占地面积600亩，可容纳2000多人次滑雪。随着山形，就着地势，穿越在茫茫雪原。或随好友从山顶鱼贯而下，追逐嬉戏。或一个人缓辔而行，悠然自得。高兴了，放开速度，左冲右突，飞坡过坎，所过之处，雪沫飞溅。疲倦了，席地而躺，展开四肢，仰望天空，看流云掠过。,https://dimg04.c-ctrip.com/images/100w0p000000ftz3o950B.jpg
兰州,邓家庄花园,121647,36.059778,103.843668,4.8,邓家花园也叫“慈爱园”，坐落在甘肃兰州市区广武门后街4号。1922年甘肃督军张广建的副官韩鲁在此建亭种花，1932年邓宝珊购为别墅，种植了众多名贵花木。1941年邓夫人及其子女遭日军飞机轰炸遇难，葬于此园。于佑任为该园题写门额“慈爱园”。解放后，邓宝珊仍在园中办公、居寝，并会见过不少中央领导及名人。,https://dimg04.c-ctrip.com/images/0102d12000b1n93siA0A2.jpg
兰州,天斧沙宫,1703603,36.135846,103.696842,3.9,天斧沙宫是兰州市的自然景观，是一处距今约2500万年的红色砂岩，经过长期的风化水蚀而形成的一组类丹霞地貌奇观。在2500万年历史长河中，那里曾经是远古黄河的支流，经过洪水的冲刷和黄土沉积之后，再经过流水侵蚀、雨水淋蚀、风沙吹蚀，把这里的原始地形地貌，条块分割成古老的沟壑和一座座的山体，露出橘红色砂砾层、黄土和砾石层，仿佛是大自然用鬼斧神工般的魔力，精雕细凿成酷似古罗马宫殿、中国古城、佛塔等“类丹霞地貌”的宫殿奇观。这处逐渐形成的天斧沙宫特殊地貌，不仅结构严谨、形体壮丽、造型精美、布局和谐。,https://dimg04.c-ctrip.com/images/1A0c13000000uzdxr9751.jpg
兰州,金城盆景园,121557,36.056649,103.841405,4.6,兰州市金城盆景园位于兰州市城关区南昌路797号，占地面积42亩，是我市唯一一处以盆景保护、展览、观赏为主，集书画欣赏、餐饮、休闲、娱乐为一体的专题公园。盆景园解放前系私家“梨园”，解放后为省委干休所，1978年省、市政府决定建为南昌路公园（分南、北两部分，北为邓宝珊将军的私家花园、南为南昌路公园）。上世纪80年代初，将邓家花园独立出去，南昌路公园更名为兰州市金城盆景园，1984年10月正式对外开放。公园大门入口建有天然观赏石制作的假山，宛如一个大型盆景与古香古色的大门相映成辉。园内汇集了200多盆各类植物和山石盆景，其中对节白蜡盆景更是盆景中的珍品。并建有亭台、楼阁、长廊、水榭、人工湖，布置精巧，独具匠心，登亭环视，近有荷花漫池，远有翠竹相映，树影婆娑，绿拂水面，特别是到了夏季让人真有“绿树浓荫夏日长，楼台倒影入池塘”之感，身在其中，品茶纳凉，联欢聚会，打牌弈棋、下钩垂钓、让人仿佛置身于江南园林。,https://dimg04.c-ctrip.com/images/0105012000ax5pynpB511.jpg
兰州,和平清真大寺,51487,36.072947,103.793944,4.0,位于小西湖大桥北头，四座高耸的塔楼围着一个高大的圆顶。塔楼顶部和大圆顶都是钛金做成，在阳光的照射下，烁烁生辉，十分耀眼。大殿外围的68根大柱，高12米、直径90公分，异常壮观。,https://dimg04.c-ctrip.com/images/100o1b000001bfgvv854C.jpg
兰州,上西园清真大寺,121624,36.062461,103.7908,4.8,该地位于小西湖立交桥南端，大唐宫后面。是没有明显苏菲支派学理特征的大众寺，在附近算是规模比较大的。,https://dimg04.c-ctrip.com/images/0HJ1s12000g90ug9p0F7A.jpg
兰州,至公堂,9621,36.061356,103.813551,4.8,至公堂为清代贡院应试之堂。同治年间，陕甘总督左宗棠上书清廷，请求在兰州设立贡院。当时贡院地盘纵140丈，横90丈，号称可容纳考生4000名，左宗棠题写匾额“至公堂”。 如今的兰州大学的前身，便是以至公堂为中心建筑的甘肃举院，至公堂是为兰州大学较早的图书馆。主体建筑至公堂、衡鉴堂和观成堂3座大殿保存基本完好，另有回廊、厢房等。 大门左右两侧设点名厅和搜拣厅。进大门，自西朝东，沿中轴线分布有龙门、明远楼、至公堂、观成堂、衡鉴堂、雍门、录榜所。明远楼两侧建南北号房。至公堂南北分设监临总督署、提调道署、监视道署、对读所、誊录所、弥封所、收掌所等。至公堂后为穿廊，穿廊两侧为走廊，中间穿廊紧接内帘门，门左为内收掌署，门右为内监试署。观成堂左为北衡文署，右为南衡文署。衡鉴堂前为北五房和南五房，堂后设有栅栏，中立牌坊一座，栅栏内南侧为执事厅，北为受卷所。举院建筑群布局合理，结构严谨，气势恢弘，可谓兰州一时之人文胜景。,https://dimg04.c-ctrip.com/images/1A0k1600000107mfrA14F.jpg
兰州,培黎广场,1703578,36.099785,103.745185,4.7,培黎广场，位于甘肃省 兰州市 安宁区，为纪念新西兰作家和诗人、伟大的国际主义战士、原培黎石油学校创始人路易·艾黎（Rewi Alley，1897-1987）为中国的职业教育事业作出的巨大贡献而修建此广场。广场中心区是一个直径18米的圆形喷泉，路易艾黎雕像在喷泉中心处，广场地面全部是用花岗岩配出来的图案，道牙采用黑基石，使整个广场显得庄重、时尚。培黎广场将集休闲、娱乐、健身、观光、购物等功能为一体。培黎广场地下是人防工程，平时主要用于商业经营。地面共分为观景平台区、广场中心区和入口区三大部分，广场北侧的浮雕用花岗岩来还原，效果更加逼真。,https://dimg04.c-ctrip.com/images/100g1b000001bkvir6737.jpg
兰州,八盘峡,51479,36.144067,103.419547,4.7,八盘峡即是兰州市黄河上游西端的八盘峡水库，这里是黄河与湟水的汇合口，环境条件优美独特，非常适合开展水上体育运动及娱乐。在这里可以乘坐兰州市豪华的游轮观光，也可以乘坐快艇，享受风驰电掣般的感觉。此外，这里还有百亩果园、卡丁车场、植物园、游泳池等可供观赏和游玩。库区内的八盘峡水电厂是一座坐落在百万以上人口城市中的水力发电厂，您能够了解水力发电的全过程，丰富和拓展您的知识面。清澈见底的游泳池是按照正规比赛标准建设，设有8条泳道，可承办游泳比赛，是游泳爱好者一展身手的场所，也是您夏日消暑的好去处。,https://dimg04.c-ctrip.com/images/0HJ5k12000g939xei6DD1.jpg
兰州,关山森林公园,9580,35.999795,103.62302,4.7,关山森林公园属于省级森林公园，内有燕子山、龙山、虎头山等名山。山中有金花仙娘娘大殿、泉神庙、九泉圣母慈庙；有神泉、灵泉、龙泉；有许仙峰、白蛇沟、关山沟等。山顶平台有英国传道士于光绪年间建造的消夏别墅，后几经修复，风姿依旧。山上还有历史碑文、展览厅、履望台等古迹和丰富的动植物景观。,https://dimg04.c-ctrip.com/images/10051f000001gsrh31F32.jpg
兰州,五一山省级森林生态旅游区,121639,36.085285,103.81835,5.0,五一山森林生态旅游区位于兰州市城关区黄河北岸，总经营面积1336.5亩。经过40年的人工造林，森林覆盖率达到72.5%，现已形成乔灌花草一体化的人工植被群落。有合欢、水杉、枇杷、金枝国櫆、白玉兰、雪松、刺柏、侧柏、国櫆、刺櫆、丁香、连翘、牡丹、月季等乔木、花灌木60多个品种。旅游区距市中心1.5公里，126路公交直达山脚下，交通十分便利；山岗起伏，树木茂盛；山顶平坦，林荫遮天，湖水映日，草坪含翠，花圃飘香，自然风光奇异，环境温馨优雅，负氧离子丰富，是兰州市久负盛名的“绿色氧吧”。,https://dimg04.c-ctrip.com/images/0102t12000axyx8o0AF61.jpg
兰州,甘肃大剧院,2516165,36.070527,103.852262,4.9,作为文化甘肃标志，甘肃大剧院的建设内容主要包括1500座剧场兼大会堂1个，300座小剧场1个，50-200座会议厅20个，还设有新闻发布、贵宾休息和会见等配套设施等，以大型歌剧、舞剧演出为主要功能，兼顾音乐、曲艺、杂技和话剧的表演，同时具备承办各类政务性会议以及各种类型的国际会议和商务会议等功能，是目前我省规模较大、功能较全、设施较完善、建筑智能化水平较高的观演及会议建筑，可同时满足3000人观演和开会。,https://dimg04.c-ctrip.com/images/100h0q000000g947o3BE7.jpg
兰州,金城老码头,2933781,36.063738,103.818955,5.0,金城老码头位于甘肃省兰州市城关区。濒临黄河，眼观中山桥，面朝白塔山公园和金城关古建筑群等。,https://dimg04.c-ctrip.com/images/100n1f000001gpa7uC2EB.jpg
兰州,兰州市民公园办公室,1831883,36.062642,103.834896,4.5,兰州儿童公园位于甘肃省兰州市城关区，初建在1982年，至今已有25年的历史，曾经给数百万儿童留下了美好的回忆。现为开放性市民广场，是休闲娱乐的好地方。,https://dimg04.c-ctrip.com/images/0103z12000b23l34gF95F.jpg
兰州,兰州黄河桥梁博物馆,5598348,36.065873,103.816181,4.5,兰州黄河桥梁博物馆坐落于金城关文化博览园广场东侧，建筑面积870平方米，于2013年5月1日面向广大市民免费开放。本馆基本陈列以《九曲飞虹》为题，分为《天堑通衢》和《天下黄河第一桥》两大部分，展览采用珍贵实物，微缩景观模型，图片资料等多种手段，全面展示黄河桥梁概貌和兰州黄河铁桥的百年历史沧桑。《天堑通衢》，通过大河桥影、古今桥韵、名桥集萃三个单元向大家介绍了黄河上从古至今桥梁的演变历史以及黄河流域知名桥梁的展示介绍；《天下黄河第一桥》，以古渡重关、新政创修、百年沧桑、人文铁桥等四个单元，通过文献、实物等陈展方式将百年中山铁桥的建造历史做了详尽的梳理和展示。,https://dimg04.c-ctrip.com/images/100r1b000001auf9882C1.jpg
兰州,水善汤泉汗蒸时代,4002324,36.047158,103.909031,3.8,兰州水善汤泉汗蒸时代坐落于兰州市城关区雁儿湾路244号，由知名设计师依照中国汉唐文化为基础，结合现代新中式的设计理念，融合“新亚洲风”温泉特色打造。内有日式汤泉、夏威夷冲浪、水上乐园泳池、土耳其鱼疗、韩式汗蒸、盐盘浴、功能休息厅等娱乐休闲项目。内有日式汤泉、夏威夷冲浪、日式泡缸、水上乐园泳池、土耳其鱼疗、玉石火炕、芬兰盐蒸、扬州四面搓、陕北窑洞、韩式汗蒸、盐盘浴、汉唐睡楼、竹林氧房、国学书吧、3D影院、儿童乐园、电子竞技室、胶囊旅馆、自助美食、时尚火吧、豪华棋牌客房、功能休息厅、特色饮吧、自选超市等娱乐休闲项目。,https://dimg04.c-ctrip.com/images/100h1f000001grw068D0C.jpg
兰州,陕西清真大寺,121630,36.062121,103.808869,0.0,陕西清真大寺，原名宝家寺，由陕西籍宝子明哈吉创建，整个寺院由大殿、宣礼塔、水房、学堂用房及贵宾接待室组成，融现代与阿拉伯建筑风格于一体。这个寺是一个苏菲清真寺，和单家沟清真寺同属一脉，为撒拉门宦，因为其首位当家人是萨拉人尔泽子而得名。,https://dimg04.c-ctrip.com/images/fd/tg/g2/M08/C5/09/Cghzf1W7IBCAamqWAAAqiwnGo_0059.jpg
兰州,甘肃科技馆,3141559,36.099131,103.704861,4.8,甘肃科技馆位于安宁区银安路，主要由甘肃科技馆和甘肃省科协机关办公楼两部分组成，建设总规模4.18万平方米。,https://dimg04.c-ctrip.com/images/01054120008ov0aufA342.jpg
兰州,黄河羊皮筏子漂流中心,4048121,36.063647,103.803634,4.5,黄河羊皮筏子漂流中心位于兰州水车园，羊皮筏子漂流中心的成立主要是为了配合水车园景区的整体提升改造，更好地带动兰州一日游发展，也是为了对羊皮筏子这一黄河流域非物质文化遗产更好地保存和发展。兰州黄河羊皮筏子漂流中心的挂牌成立，为兰州旅游经济的提升增加了动力。市旅游局相关负责人表示，希望通过兰州黄河羊皮筏子漂流中心的正式挂牌，吸引更多人关注这一传统工艺，能使之更好地传承下去。,https://dimg04.c-ctrip.com/images/0106b120008ov05c9D7E4.jpg
兰州,白塔山公园-法雨寺,4626921,36.067577,103.817388,4.5,法雨寺位于兰州市中心。寺院始建于宋代，饱经风霜，现存下来的建筑多为明清时期遗留下，保存完善，香火鼎盛。,https://dimg04.c-ctrip.com/images/1003160000010hhh0B0F2.jpg
兰州,盛源安宁游泳馆,4385376,36.123787,103.724772,5.0,盛源安宁游泳馆外围树木植被茂盛，游泳馆内装修一新，功能齐全完善，主场馆分设成人泳池和儿童戏水池，成人泳池长43米，宽21米，浅水位1.2米，深水位1.8米，可以同时满足不同水平程度游泳爱好者的需求；儿童戏水区设有滑滑梯、跷跷板、踏板车等娱乐设施，使小朋友们在学习游泳技能之余可以进行水中互动娱乐，尽情戏水玩耍。,https://dimg04.c-ctrip.com/images/100l0s000000hsfwc83C6.jpg
兰州,华林山烈士陵园,3141505,36.042438,103.799054,0.0,,https://dimg04.c-ctrip.com/images/01005120008osml1i0241.jpg
兰州,兰州碑林,5143820,36.070089,103.809533,4.6,兰州碑林位于甘肃省兰州市城关区，该地陈列着翻刻或收集到的甘肃有名碑刻，有汉和西夏两种文字的西夏碑、汉藏两种文字的大崇教寺碑、汉蒙两种文字的西宁王碑、汉和八思巴文两种文字的镇海寺碑，王仁裕神道碑、弘化公主墓碑、岣嵝碑等。东西碑廊陈列着历代甘肃籍名人作品和历代名人手札。,https://dimg04.c-ctrip.com/images/0105y12000f6ucnkjF862.jpg
兰州,甘肃国际会展中心,2585687,36.068471,103.850018,4.9,甘肃国际会展中心包括展览中心、大剧院兼会议中心、五星级大酒店三部分，是当地各种大型会展活动和文艺活动的举办场所。,https://dimg04.c-ctrip.com/images/100r1b000001bf1mgA1D6.jpg
兰州,志公观,5015380,36.03445,103.827868,4.9,兰州的一处有着悠久历史的道教庙宇，临于闹市中的清修之地。,https://dimg04.c-ctrip.com/images/10070x000000lgxry0A32.jpg
兰州,兰州城广武门旧址,3145303,36.05884,103.839728,4.5,广武门旧址位于兰州市城关区，目前保留的，只有一个碑。,https://dimg04.c-ctrip.com/images/0104g12000bv7byk4A063.jpg
兰州,兰州战役纪念馆,5629388,36.038508,103.798386,0.0,兰州战役纪念馆坐落于七里河区华林坪以南、沈家岭北麓，是为纪念1949年8月在兰州战役中牺牲的烈士而修建的。,https://dimg04.c-ctrip.com/images/1me4412000cbk0ku2F6F2.jpg
兰州,八路军驻甘办事处与甘肃抗日救亡展览,5164372,36.050464,103.826571,4.8,,https://dimg04.c-ctrip.com/images/01A2a120009b5f9wc335C.jpg
兰州,兰州大兰山景区,4623863,36.044893,103.816557,4.7,大兰山生态景区可划分为金城龙脊人文休闲片及将军山生态休闲片两大主题功能片。金城龙脊人文休闲片对现有华夏第一长廊做主题景观的提升，开发观光文化休闲等功能。将军山生态休闲片主要完善城区的生态安全体系，不断发展生态休闲、户外健身、养老康复及山地体验等功能，对城关区以南面山一侧的生态景观进行改造，形成“山瞰城景，城观山色”的主体景观，生态景观建设区主要包含伏龙坪、五泉山公园、民族梁、营盘岭和桃树坪等特色人文风貌保护区。,https://dimg04.c-ctrip.com/images/0105y12000941blxjD548.jpg
兰州,甘肃三木自行车博物馆,5702846,36.078815,103.869713,4.8,"甘肃三木自行车博物馆位于甘肃省兰州市城关区新港城张家滩1号，筹建于2009年，占地面积6600平方米，，建筑面积18650平方米，三木自行车博物馆，2007年动议，2009年经省有关部门批准，历时十年，完成了立项、开工建设、布展，酸甜苦辣尽在其中。博物馆总投资2.4亿，收藏品价值约1.6亿。收藏品从70年代开始，历经40年收藏，本馆珍藏了世界上近200年以来，各国生产的古董自行车1300余辆，自行车的相关配件、文稿、书籍、图片13500余件。本馆目前是世界上体量大、数量多、品种全的自行车专题博物馆。从规模、数量、藏品种类、品相在世界范围内可以说是独特的。甘肃三木自行车博物馆已完成陈展、目前正在进行展览提升改造项目，准备对外免费开放。这些藏品是近代工业文明的象征，是世界工业文明发展的缩影，是""丝绸之路""上又一个旅游观光的景点。",https://dimg04.c-ctrip.com/images/0106c12000b5n5nh9AB2B.jpg
兰州,金城关,5068100,36.067071,103.805951,4.6,金城关位于兰州市黄河北岸滨河中路，这里集中了五个小博物馆，是一个仿古建筑物群，主要是由展览馆，商铺，餐厅共同构成的一个商贸圈，晚上往往有节目表演。,https://dimg04.c-ctrip.com/images/100r1b000001aufdz6971.jpg
兰州,敦煌艺术馆,3141442,36.061884,103.847746,4.9,敦煌艺术馆是一个展示敦煌艺术和文化的独特场所，位于甘肃省会兰州市。艺术馆通过丰富的展品和多媒体展示，向游客介绍敦煌石窟艺术的辉煌历史和文化内涵。馆内收藏了大量复制的壁画、雕塑和文物，生动再现了敦煌莫高窟的艺术精髓。参观者可以在这里欣赏到精美的壁画复制品，了解古代丝绸之路的文化交流和宗教艺术的发展。艺术馆还提供导览服务，帮助游客更深入地理解展品背后的历史故事。多媒体展区通过现代技术手段，增强了观赏体验，使游客仿佛置身于敦煌石窟之中。馆内设有纪念品商店，出售与敦煌文化相关的书籍和工艺品，是购买纪念品的好去处。参观时请遵循馆内的拍照规定，以维护良好的参观环境。兰州市内交通便利，游客可以选择公共交通或出租车前往艺术馆。,https://dimg04.c-ctrip.com/images/1me4b12000baiawstFE40.jpg
兰州,霍去病主题公园,4623816,36.074389,103.86386,4.5,公园中间有一座巨大的霍去病雕像，公园的环境很不错，很适合散步。,https://dimg04.c-ctrip.com/images/0106b120009dgrj2599FC.jpg
兰州,西北民族大学,5073015,36.044047,103.819512,4.3,西北民族大学历史悠久，其主要是由少数民族地区的学生组成，是一所很有民族特色的高校。,https://dimg04.c-ctrip.com/images/0102o12000b06ylpv7855.jpg
兰州,报恩寺,4627889,36.150962,103.626215,4.7,报恩寺位于兰州市安宁区，始建于万历年间。寺庙背靠凤凰山，面迎黄河而建，内供释迦牟尼佛像。,https://dimg04.c-ctrip.com/images/0106k120009e16wcm5834.jpg
兰州,隋唐金城关旧址,4623790,36.066054,103.809395,4.3,金城关在古代是军事要地，隋唐·金城关旧址位于一个文化风情区，这里修建了很多仿古的建筑，非常具有历史感。,https://dimg04.c-ctrip.com/images/0105m12000awz0hj2B31D.jpg
兰州,兰州水烟博物馆,4623873,36.035597,103.824281,4.8,兰州水烟历史悠久。博物馆内主要讲述了水烟的发展史，一些用具等。是一处集展览，科普，教育于一体的场馆。,https://dimg04.c-ctrip.com/images/0101612000bt2o4w536E8.jpg
兰州,张掖路商业街,5164397,36.059082,103.824451,4.7,张掖路商业街自古以来是兰州的城市标志和核心地段，是兰州人心目中资格较老的商业街，是集观光，餐饮，休闲于一体的街道。也是极具文化历史底蕴的街道。,https://dimg04.c-ctrip.com/images/0102f12000f6udhv71B7C.jpg
兰州,文溯阁,4623940,36.089932,103.784078,3.0,文溯阁坐落于兰州北山九州台，是兰州市的一个藏书楼。这座外二内三的仿古建筑，构思精巧、其实恢弘，是丝绸之路甘肃段上又一颗璀璨的明珠。,https://dimg04.c-ctrip.com/images/0100d12000a51enhp8775.jpg
兰州,明·王保保城旧址,4623857,36.06965,103.822061,3.0,明·王保保城旧址是新石器时代遗址，曾出土过多件马家窑类型的彩陶，包括盆、钵、罐、壶、瓶等。,https://dimg04.c-ctrip.com/images/0107012000ctp2gsj9714.jpg
兰州,沈家岭战场遗址,4623821,36.013069,103.800483,1.0,,https://dimg04.c-ctrip.com/images/0104w12000b7fjhiaEAD5.jpg
兰州,兰州灵岩禅寺,4623703,35.927216,103.884331,5.0,灵岩禅寺位于石佛沟腹地，是一所佛教寺院，寺内供奉有释迦牟尼和莲花生大师的佛像。,https://dimg04.c-ctrip.com/images/1A0h16000001050w07328.jpg
兰州,龙王庙,1730300,36.067314,103.856712,0.0,龙王庙位于兰州市城关区南滨河东路，是地方民众为了祈求风调雨顺而为龙王建的龙王庙，祈求得到庇护。,https://dimg04.c-ctrip.com/images/0102a12000b7g3l985987.jpg
兰州,甘肃四方博物馆,5705348,36.061629,103.842842,0.0,甘肃四方博物馆展品展示了甘肃彩陶的精华马家窑彩陶。,https://dimg04.c-ctrip.com/images/0102712000c52frl4E272.jpg
兰州,迷你飞机,4623969,36.081208,103.70334,0.0,,https://dimg04.c-ctrip.com/images/fd/tg/g2/M09/AE/60/CghzgFW7H_qAfXrjAAAw66zmCm4580.jpg
兰州,兰州市城关区中共甘肃工委纪念馆,5705357,36.066837,103.816744,4.0,兰州市城关区中共甘肃工委纪念馆以详实的文献、档案、图片、实物等，运用绘画、雕塑、多媒体等形式，展示了当时的光辉战斗历史。,https://dimg04.c-ctrip.com/images/0100i12000bevi99rDCE7.jpg
兰州,兰州彩陶馆,5704293,36.066348,103.814921,3.5,兰州彩陶馆坐落在兰州市金城关文化博览园内，建设面积约1400平方米，兰州彩陶博物馆由序厅、展示厅、体验厅三部分组成，利用声、光、电相结合的高科技数字化技术手段，通过彩陶文化展览、先民生活场景复原、多媒体模拟制陶过程、陶吧互动等方式，集中呈现兰州地区出土的马家窑文化彩陶及各时期、各种类型的彩陶，使观众能对彩陶文化，特别是马家窑文化有了更多的认识和了解。,https://dimg04.c-ctrip.com/images/0101012000awyvcga0E7B.jpg
兰州,甘肃龙源博物馆,5704249,36.08708,103.704955,0.0,甘肃龙源博物馆位于安宁区北滨河西路，馆内藏品种类丰富，具有保护研究、展示服务和文化传承等功能。,https://dimg04.c-ctrip.com/images/0102y12000coqi0i45650.webp
兰州,西北师范大学-博物馆,5704213,36.097897,103.738638,4.0,西北师范大学博物馆是一家规模较大的综合性博物馆。其馆藏种类多、数量大、内容丰富，是西北师范大学一百年发展的历史积淀。博物馆现设有校史、历史文物、甘肃彩陶文化、古代书画艺术、动植物标本、古生物化石与地矿标本等6个基本陈列。,https://dimg04.c-ctrip.com/images/0101d12000ce1tzv6BD8F.jpg
兰州,兰州国学馆,2693528,36.084256,103.783057,0.0,兰州国学馆是当地的文化旅游景点。主要目的是为了弘扬国粹，传承中华传统文化。其那里的风景也是赏心悦目的。,https://dimg04.c-ctrip.com/images/10020u000000jnotcE081.jpg
兰州,金城剧院,4478936,36.058538,103.82134,0.0,金城大剧院隶属于兰州歌舞剧院，坐落在省会城市兰州的中心地带，占地面积10000平方米，西临张掖路、永昌路繁华商业街，南临武都路，北邻陇西路，地理位置优越，交通非常便利。剧院在建筑设计上科学合理地运用了适合甘肃历史文化底蕴为主体的建筑风格，外观端庄典雅、古朴华丽。外墙面采用巴西“世贸金麻”石材干挂而成，正面采用浮法玻璃点式幕墙，正面入口处有挑式钢化玻璃雨棚。,https://dimg04.c-ctrip.com/images/0ww5x12000946a20t9945.jpg
兰州,甘肃艺术馆,4508278,36.051675,103.850188,0.0,甘肃省艺术馆是甘肃省文联下属机构，也是一座现代化的多功能展厅，艺术馆集展览、收藏、研讨、交流、艺术沙龙五大功能于一体。,https://dimg04.c-ctrip.com/images/0HJ2i12000g2vuzx29E93.jpg
兰州,兰州城市规划展览馆,3365194,36.066429,103.845848,4.4,兰州市城市规划展览馆，建筑造型立意为黄河石，使建筑与黄河融为一体，呈现出兰州悠久深远的黄河文化，是一座将建筑理念与城市特色融合的“规划艺术馆”。,https://dimg04.c-ctrip.com/images/01048120009dyaseh56DD.jpg
兰州,瞿氏宗祠,4624021,36.168087,103.312924,0.0,瞿氏宗祠是瞿家敬重祖先、追根溯源、传承宗族精神和家族情怀之所。祠堂内原供奉祖先牌位二十多尊及瞿氏家谱，祠堂门口有精美雕花门楼。,https://dimg04.c-ctrip.com/images/0102g120009820x533F38.png
兰州,南台清真寺,4626855,36.051344,103.847406,0.0,该寺位于春风广场附近，具有悠久的历史，现有教长室、大殿、水房等在使用。,https://dimg04.c-ctrip.com/images/fd/tg/g2/M02/AE/62/CghzgFW7IBCAHuSzAAAx3FcjVOM139.jpg
兰州,柳泉乡东坪文化广场,4626864,36.09955,103.589846,0.0,广场内绿树成荫，花香四溢，不仅是一个融合自然风光和人文景观的休闲场所，也是当地居民和游客休闲娱乐的好去处。,https://dimg04.c-ctrip.com/images/fd/tg/g1/M07/FC/25/CghzflW7IASANUuCAAAtJkkq6KA204.jpg
兰州,百年枣园,4623997,36.175887,103.469449,0.0,百年枣园位于甘肃省兰州市西固区，是一家以百年古枣树林为特色，以经典农家菜为主的大型生态农家乐。,https://dimg04.c-ctrip.com/images/0HJ1m12000g8lxsqe0FF6.jpg
兰州,甘肃农业大学认知馆,4623951,36.090781,103.694597,5.0,甘肃农业大学认知馆于2016年10月建成并对外开放。认知馆傍依美丽的母亲河，毗邻北滨河西路，临近深安大桥，交通便利，位置优越。认知馆占地面积5300多平方米，以“和谐自然”为主题，突出展示农业文明历程、科普宣传教育、现代农业发展、生态环境建设等，主要由校史展区、学科标本展区和恐龙化石展区三部分组成。,https://dimg04.c-ctrip.com/images/0HJ0x12000g8roy6q4AD9.jpg
兰州,娘娘庙,4623814,36.019284,103.637418,0.0,这是一座历史悠久的建筑，经过几次扩建，有很多人前来祭祀膜拜。每年5月兰州民众都要从遥远的吧咪山恭请神像回到这里省亲，场面十分壮观。,https://dimg04.c-ctrip.com/images/fd/tg/g1/M09/AE/89/CghzfVW7IBeAXP0AAAA7cEfxExY943.jpg
兰州,清陕西会馆旧址,4623864,36.058908,103.830496,5.0,陕西会馆，位于城区贡元巷口，建于清咸丰五年（1855年）。从有关资料中得知，会馆的建造受庙宇影响较大，整个建筑多坐南朝北布局上类似庙宇，建有山门、大殿、左右配殿、廊房及厢房等。陕西会馆吸引眼球的当属陕西会馆戏楼，它不仅建筑秀丽玲珑，更令人称奇的是，一出戏可以在一台的两台口演出。朝南处台口可对街道行人演出，朝北内台口可对会馆内观者演出，这是至今全国发现的第一座两面开戏台。,https://dimg04.c-ctrip.com/images/fd/tg/g1/M03/AF/64/CghzfFW7IBCAUbLaAAAlnuKOkAQ344.jpg
兰州,甘肃画院,3141556,36.060325,103.850949,4.8,甘肃画院位于兰州市城关区南滨河东路518号（读者大道），占地面积10余亩，建筑面积4490平方米。成立于1990年，是隶属于甘肃省文化和旅游厅的副厅级公益一类事业单位。2000年加挂甘肃美术馆、2007年加挂甘肃书法院牌子。画院下设办公室、创作研究部、理论培训部、书法研究部四个处级部门和后勤服务中心、会展及产业开发中心两个中心。,https://dimg04.c-ctrip.com/images/0101w12000f6sq9awEC22.jpg
兰州,兰州伊斯兰文化艺术馆,2682338,36.065722,103.813051,0.0,,https://dimg04.c-ctrip.com/images/fd/tg/g1/M06/FC/25/CghzflW7IA-AKV6TAABByEo2c7Y435.jpg
兰州,甘肃省钱币博物馆,4627676,36.052253,103.847907,5.0,钱币博物馆位于兰州，里面的展品很多，基本陈列有《中国保险专题展》、《中外钱币精品展》、《中国债券专题展》等，是一座专业的钱币博物馆。,https://dimg04.c-ctrip.com/images/0105m12000bsxdm8qC812.jpg
兰州,兰州穆斯林图书馆,2695731,36.054865,103.834418,0.0,图书馆在一座简易的楼房内，三楼走廊的左侧就是该馆，图书馆创办于1993年，这是目前国内知名的民办图书馆，也是国内藏书规模较大的一个民间少数民族图书馆。,https://dimg04.c-ctrip.com/images/0101h12000b7giwno46BB.png
兰州,西北师大-逸夫图书馆,2699958,36.098063,103.737999,5.0,西北师大-逸夫图书馆高三层，设有文学艺术、社会科学及自然科学三大阅览室，拥有高雅、清静、富有书香气息的学习环境，可以充分利用图书馆丰富的馆藏资源和个性化的信息服务，汲取有用知识。,https://dimg04.c-ctrip.com/images/0101h12000ce1ymqy88DC.jpg
兰州,大雄宝殿,4628432,36.037166,103.82573,5.0,,https://dimg04.c-ctrip.com/images/0102k12000cvk9jh27204.jpg
兰州,甘肃政法大学-和谐广场,4628240,36.10465,103.730198,4.7,该广场位于兰州市，广场中央设有一座雕塑，周围种植着修剪整齐的草坪和树木，提供了一个适合学生和教职工放松和交流的场所。,https://dimg04.c-ctrip.com/images/0102912000bozsosu2D88.jpg
兰州,西北民族大学-图书馆(民苑路),2585589,36.044098,103.820062,0.0,西北民族大学图书馆(民苑路)有4个书库，1个标准化古籍文献特藏库，5个各具特色的阅览室，是一个馆藏资源丰富、现代化、综合性的图书馆。,https://dimg04.c-ctrip.com/images/0105112000chk30ysD142.jpg
兰州,祖师殿,4623813,36.066428,103.874428,0.0,,https://dimg04.c-ctrip.com/images/fd/tg/g1/M09/AE/89/CghzfVW7IBeAXP0AAAA7cEfxExY943.jpg
兰州,刘尔炘纪念馆,4623829,36.035765,103.824782,0.0,刘尔炘纪念馆位于兰州市，是为了纪念刘尔炘而建立的，他专心治学，培育人才。,https://dimg04.c-ctrip.com/images/0103r12000cwczbhn1394.jpg
兰州,明兰州城承恩门旧址,4627694,36.058908,103.830496,5.0,明兰州城承恩门旧址位于兰州市张掖路东端，旧称迎恩门、和平门，俗称东稍门。明初，明军收复兰州后，对这座西北重镇，在宋、元城垣的基础上进行了大规模修缮。因京师在东方，这座城门是东来的信使、官员的入城之门，他们带来浩荡皇恩，故而此门名为迎恩门。,https://dimg04.c-ctrip.com/images/0101u12000bt42rky11B4.jpg
兰州,妙通寺,4623862,36.030014,103.921294,0.0,妙通寺坐落于大洼山上，四周都是山坳，山上树木茂盛，寺内建有山门、大雄宝殿、藏经楼等。,https://dimg04.c-ctrip.com/images/fd/tg/g1/M08/FC/24/CghzflW7IACAHgzUAAAvGcMqieg905.jpg
兰州,兰州市安宁区图书馆,2585856,36.109628,103.70141,4.5,,https://dimg04.c-ctrip.com/images/0100u12000ax3ftdsE825.jpg
兰州,兰州瑞宝圆博物馆,4623933,36.111987,103.610727,4.0,兰州瑞宝圆博物馆，位于西固区西固西路，是一家民办非企业单位。据2020年9月国家文物局信息显示，现有藏品302件/套，举办展览2个，开展教育活动4次，参观人数5.5万人次。馆内共收集整理了各类古生物化石、奇石、陶罐等近300余件展品，其中以晚中新世古生物化石为主。“黄河象”古生物化石是一头中年象，身长达到8米、高约4米、体重在20至30吨之间，是目前馆中较大的古生物化石。,https://dimg04.c-ctrip.com/images/0106f12000bt7goz4C10B.jpg
兰州,兰州南坪拱北虎夫耶鲜门,4627685,36.0524,103.792406,0.0,,https://dimg04.c-ctrip.com/images/0HJ6p12000g8pvc4d81FC.jpg
兰州,红山根基督教堂,4628522,36.027892,103.857241,0.0,,https://dimg04.c-ctrip.com/images/fd/tg/g2/M02/AE/62/CghzgFW7IBCAHuSzAAAx3FcjVOM139.jpg
兰州,万辉生活广场,4626146,36.093372,103.707823,0.0,万辉广场是个集购物、餐饮、娱乐为一体的现代化大型商业综合体。,https://dimg04.c-ctrip.com/images/0HJ6j12000g6vpxm770FD.jpg
兰州,旋子清真寺,4627912,36.319918,102.915441,0.0,该寺建于1980年，占地面积约1亩，建筑面积约有145平方米，有大殿、阿訇住房、库房、客房、水房等建筑。,https://dimg04.c-ctrip.com/images/fd/tg/g2/M02/AE/62/CghzgFW7IBCAHuSzAAAx3FcjVOM139.jpg
兰州,地藏院,4623999,36.150667,103.629386,0.0,,https://dimg04.c-ctrip.com/images/01A6v2224n7nnks4hBE23.jpg
兰州,墨缘艺术馆,2585731,36.065753,103.814538,0.0,,https://dimg04.c-ctrip.com/images/0HJ3t12000g77or1x57BB.jpg
兰州,兰州红古区玉皇殿,4624004,36.18015,103.19596,0.0,,https://dimg04.c-ctrip.com/images/fd/tg/g2/M02/AE/62/CghzgFW7IBGAT2aEAAA-lzyZjJA429.jpg
兰州,财神院,4623996,36.150771,103.627097,0.0,,https://dimg04.c-ctrip.com/images/fd/tg/g1/M08/FC/24/CghzflW7IACAHgzUAAAvGcMqieg905.jpg
兰州,华龙广场,4628595,36.34443,102.859338,0.0,,https://dimg04.c-ctrip.com/images/0100q1200098tu6tl4D9E.png
兰州,方舟温泉水世界(兰州店),4623799,36.055262,103.817664,0.0,方舟温泉水世界中的仿真造浪，浪高可以达到1.1~1.5米，并可展现出十多种浪形，智能变换。在欢乐的水世界，您可以感受沙浪、阳光、海浪惬意，并可以体验不同的娱乐项目。,https://dimg04.c-ctrip.com/images/100n170000011bb38C615.jpg
兰州,西固区南山专业林场,67632661,36.087571,103.608626,0.0,西固区南山专业林场占地面积宽广，场内木成林、花成片、鸟语花香，已成为天然“绿色氧吧”。,https://dimg04.c-ctrip.com/images/fd/tg/g2/M09/C4/B0/CghzgVW7H_mAHhf4AABD5Ex5trU893.jpg
兰州,兰州黄河奇石协会展览馆,2585887,36.106319,103.681528,0.0,展览馆展示了丰富的奇石资源，这些石头经过自然雕琢，形态各异，呈现出独特的自然美。,https://dimg04.c-ctrip.com/images/fd/tg/g2/M02/C5/09/Cghzf1W7IBCAU1soAAA1rXNRb5g042.jpg
兰州,歌舞剧院,3141528,36.046252,103.8736,0.0,剧院的前身是成立于1959年的原西北民族学院民族歌舞团，多年来，剧院曾先后创作演出了多部大型歌舞。,https://dimg04.c-ctrip.com/images/0HJ0e12000g8x65nh7385.jpg
兰州,东岗大寺,4623858,36.043141,103.928536,0.0,,https://dimg04.c-ctrip.com/images/0HJ2o12000g2xogg63A8B.jpg
兰州,金龙庙,4627637,36.052856,103.805505,0.0,金龙庙是兰州市七里河区的一座古老的寺庙，有着悠久历史和独特的文化价值。,https://dimg04.c-ctrip.com/images/0HJ3l12000g8zxd5625F5.jpg
兰州,柏树巷清真大寺,4816004,36.038105,103.850777,0.0,,https://dimg04.c-ctrip.com/images/fd/tg/g1/M06/FC/24/CghzflW7H_iATdynAAA-FlXAIeA738.jpg
兰州,廉政文化主题公园,4623948,36.089174,103.736466,4.3,兰州廉政文化主题公园初步确定建设在安宁区北滨河路黄河风情线（省委党校对面以东的绿化带），以“扬正气、倡勤廉、促和谐”为主题，遵循“以黄河为根、以文化为本、以廉洁为魂”的主旨，秉承“寓情于景、润物无声”的设计理念，将勤廉文化元素与黄河文化、丝路文化以及兰州历史文化相结合，将甘肃精神、兰州精神等融入黄河文化和廉政文化的精神内涵，挖掘兰州历史上的清官廉吏勤政为民的故事，体现鲜明的兰州地域特色、人文特色。,https://dimg04.c-ctrip.com/images/0105712000cj24k7z8A95.jpg
兰州,海石湾公园,69320817,36.355653,102.855846,0.0,海石湾公园位于兰州市红古区，这里地势开阔，干净整洁，是放松休闲的好去处。,https://dimg04.c-ctrip.com/images/010241200095l0b8u0A20.png
兰州,甘肃省陇剧院演艺厅,4626879,36.052914,103.81926,5.0,,https://dimg04.c-ctrip.com/images/0101i12000cs4a686510C.jpg
兰州,丝绸之路染缬艺术博物馆,4623944,36.10553,103.725435,0.0,丝绸之路染缬艺术博物馆内收藏了百余幅染缬艺术作品，这些作品继承并发扬了丝绸之路染缬文化和敦煌艺术的精髓。,https://dimg04.c-ctrip.com/images/0106h1200096zll6t5485.png
兰州,甘肃省歌剧院家属院,3006130,36.051394,103.816739,0.0,,https://dimg04.c-ctrip.com/images/0101012000d2o18f70B02.jpg
兰州,伏龙坪清真寺,4623850,36.046249,103.812574,0.0,伏龙坪清真寺位于城关区伏龙坪后街，这里很安静，此寺是一个多门宦为主的团结清真寺。,https://dimg04.c-ctrip.com/images/0102c12000bm48re9399F.jpg
兰州,榆中街清真寺,4626854,36.050121,103.84416,5.0,清真寺位于皋兰路和平凉路之间，中心广场附近。榆中街清真寺是一个苏菲清真寺，隶属于哲赫忍耶东川大拱北。,https://dimg04.c-ctrip.com/images/fd/tg/g2/M02/AE/62/CghzgFW7IBCAHuSzAAAx3FcjVOM139.jpg
兰州,东风剧院,4626079,36.053513,103.820231,0.0,东风剧院原名金兰剧场，位于兰州市双城门外正宁路。为土木席棚结构，1957年改建为砖木结构。1967年改称东风剧场，隶属甘肃省京剧团。剧场内舞台台口高7米，宽12米，进深16米，舞台空间高18米。设有观众席位987个。有乐池、化妆室、演员宿舍、扩音、调光、灯具、各种幕布、地毯等设备。,https://dimg04.c-ctrip.com/images/fd/tg/g1/M0B/AE/87/CghzfVW7IAaAJGP4AAA0UwxYU3A867.jpg
兰州,卧龙寺,4623960,36.077816,103.670191,0.0,卧龙寺位于兰州市西固区，寺庙西望祁连雪山，这里环境优美，清幽安静。,https://dimg04.c-ctrip.com/images/0100p12000cwcxk7382B4.jpg
兰州,九洲山庄(罗九公路),4628244,36.089863,103.787535,0.0,山庄内通过堆平山沟，栽植树木，绿化面积约350亩，有各种树木十几个品种、十几万棵，经济林也有许多，为北山增添一片绿色。,https://dimg04.c-ctrip.com/images/fd/tg/g2/M04/C5/08/Cghzf1W7IAuAf_KnAAA64Rrw844266.jpg
兰州,新港城商业步行街,5164396,36.071106,103.875624,4.0,步行街的环境优美，建筑风格独特，街道宽敞，人流熙攘。街区内有许多知名品牌，还可以品尝到各种美食，是集购物、餐饮、娱乐等功能于一体的商业街区。,https://dimg04.c-ctrip.com/images/0100o1200096zo7e0B9E2.png
兰州,建兰路名品街,5164382,36.069797,103.771507,4.3,建兰路商业步行街位于兰州，街上有很多店铺，主要以美食店为主，另外，这里还会举办演出，非常有趣。,https://dimg04.c-ctrip.com/images/0104512000avvl9w8F339.jpg
兰州,桃海小吃街,5164394,36.1002,103.72527,4.3,桃海小吃街是一条具有地方特色的传统街区，这里汇聚了各种美食，是游玩和品尝美食的好去处。,https://dimg04.c-ctrip.com/images/0ww3h12000946q5vhF45F.jpg
兰州,兰州西湖金街,5164383,36.062785,103.782591,3.5,兰州金街有咖啡屋、酒吧、茶楼、小孩游乐馆、超市、民族风味特色小吃店等，是一个集购物、餐饮、娱乐等功能于一体的大型商业街区。,https://dimg04.c-ctrip.com/images/0100q12000b58cros7B7F.jpg
兰州,西固城商业步行街,5164393,36.096401,103.621646,0.0,街道两旁林立着各式商铺、餐馆，售卖当地特色小吃，游客在此可感受浓郁的西北风情。,https://dimg04.c-ctrip.com/images/fd/tg/g2/M04/C5/08/Cghzf1W7IAuAf_KnAAA64Rrw844266.jpg
兰州,桃海商业步行街,5164388,36.102321,103.725326,0.0,桃海商业步行街位于兰州市，街道两旁店铺林立，既有品牌连锁店，也有特色小摊，商品种类繁多，可以满足不同人群的需求。,https://dimg04.c-ctrip.com/images/fd/tg/g2/M04/C5/08/Cghzf1W7IAuAf_KnAAA64Rrw844266.jpg
兰州,梦幻1号私人影院,79815088,36.099982,103.623592,0.0,,https://dimg04.c-ctrip.com/images/100i0e0000006ysnf8F0C.jpg
兰州,汇欣聚会吧轰趴馆,79815207,36.078107,103.698281,0.0,,https://dimg04.c-ctrip.com/images/0HJ5b12000g37h6t0E33C.jpg
兰州,名兰桌球俱乐部,80004320,36.101678,103.724984,0.0,名兰桌球俱乐部内设有多张桌球台，包括斯诺克和美式台球等多种类型，这里定期还会举办各种比赛活动。,https://dimg04.c-ctrip.com/images/0HJ6t12000g301ruuB2C9.jpg
兰州,星火足球公园,80004418,36.043274,103.910336,0.0,,https://dimg04.c-ctrip.com/images/0104612000bnrfti7F8AC.jpg
兰州,中国石化离退休职工第二活动中心,143691690,36.110851,103.60528,0.0,,https://dimg04.c-ctrip.com/images/0HJ2k12000g3547lwBA56.jpg
兰州,甘肃省兰州第一中学-逸夫体育艺术馆,143693453,36.050987,103.834662,0.0,,https://dimg04.c-ctrip.com/images/fd/tg/g1/M06/FC/25/CghzflW7IA-AKV6TAABByEo2c7Y435.jpg
兰州,晏家坪街道南院社区妇女之家,143719985,36.049312,103.763126,0.0,,https://dimg04.c-ctrip.com/images/fd/tg/g1/M06/FC/24/CghzflW7H_iATdynAAA-FlXAIeA738.jpg
兰州,清甘肃贡院旧址,143735215,36.060446,103.813043,0.0,甘肃贡院位于兰州市城关区萃英门。现遗存至公堂、观成堂两座大殿及明远楼。观成堂坐东朝西，至公堂坐东朝西，面阔七间，进深三间，门楣悬左宗棠书至公堂木匾。,https://dimg04.c-ctrip.com/images/0HJ4212000g2w3lld23AE.jpg
兰州,游乐设施(虹盛时尚购物广场店),143742224,36.09821,103.624032,0.0,,https://dimg04.c-ctrip.com/images/0102u1200086k28vc0A5C.jpg
兰州,安西路清真寺(体育街),143746846,36.068011,103.782858,0.0,,https://dimg04.c-ctrip.com/images/0HJ3412000g2z3u3p1C9D.jpg
