city,名称,id,纬度,经度,评价分数,介绍,封面图片
沈阳,沈阳故宫,9216,41.797167,123.455729,4.7,沈阳故宫位于沈阳市沈河区，是中国现存完整的两座宫殿建筑群之一。后金入关前的皇宫，也是清朝迁都北京后的盛京行宫（也称奉天行宫）。沈阳故宫博物院不仅有精美的古代宫殿建筑，还以丰富的珍贵收藏而著称海内外，宫内收藏有大量旧皇宫遗留下来的宫廷文物，在宫中的各陈列馆可以观赏到这些珍贵的宝物。沈阳故宫按照建筑布局和建造先后，分为三部分：东路为努尔哈赤时期建造的大政殿与十王亭；中路为清太宗时期续建的大中阙，包括大清门、崇政殿、凤凰楼以及清宁宫、关雎宫、衍庆宫、永福宫等；西路则是乾隆时期增建的文溯阁等。整座皇宫楼阁林立，殿宇巍峨，雕梁画栋，富丽堂皇。大清门是盛京皇宫的正门，俗称午门，是一座面阔五间的硬山式建筑，房顶满铺琉璃瓦，饰以绿剪边，纹饰为凸出的海水云龙及象征吉祥的各种动物，做工精巧，栩栩如生。大清门庄严富丽，与整个宫殿建筑俨然一体，显得十分协调。崇政殿俗称“金銮殿”，是清太宗皇太极日常处理政务接见外国使臣的重要场所。殿内陈列有金漆云龙屏风、透雕金龙宝座、鎏金铜甪端炉等珍贵文物，崇政殿宝座上方高悬的“正大光明”牌匾是乾隆皇帝御笔亲书。大政殿俗称“八角殿”，清入关前也称“大殿”或“笃恭殿”，是清太祖努尔哈赤营建的重要宫殿，也是东路的主要建筑。清入关前，这里是举行皇帝登基、元旦、万寿节朝贺、筵宴典礼等重要庆典的地方，平时则用以举行议政王大臣会议或颁布重要诏令等。殿内陈设有金龙宝座、金漆屏风、嵌珐琅象驮瓶等珍贵文物，和康、乾、嘉、道东巡盛京时留下的墨迹，再现了当年大政殿的原貌。凤凰楼位于崇政殿以北，建造在4米高的青砖台基上，楼高三层，三滴水歇山式围廊，顶铺黄琉璃瓦，镶绿剪边。此楼有《盛京八景》之一的“凤楼晓日”、“凤楼观塔”等传称。凤凰楼上藏有乾隆御笔亲题的“紫气东来”匾。文溯阁建于1782年（乾隆四十七年），专为存放《文溯阁四库全书》而建，是沈阳故宫西路的主体建筑，《古今图书集成》也存于阁内。文溯阁建筑形式与其它宫殿红金为主的外檐彩饰迥然不同，其彩绘画题材也不用宫殿中常见的行龙飞凤，而是以“白马献书”、“翰墨卷册”等与藏书楼功用相谐的图案，给人以古雅清新之感。只因这是乾隆皇帝“东巡”时的读书之所。,https://dimg04.c-ctrip.com/images/0100i12000jn8cd9nE3D8.jpg
沈阳,张学良旧居,9227,41.794059,123.457791,4.7,张学良旧居始建于1914年，占地5.3万平方米，包含有三进四合院、大青楼、小青楼、关帝庙、红楼群、赵一荻旧居、边业银行旧址和办事处旧址等多组文物建筑，是全国重点文物保护单位。目前，利用张学良旧居建筑群共开设有张学良旧居陈列馆和沈阳金融博物馆。张学良旧居陈列馆展区包括三进四合院、大青楼、小青楼、关帝庙和赵一荻旧居。在边业银行旧址基础上建立的沈阳金融博物馆，主要展示原边业银行交易大厅、总裁办公室和地下金库等复原陈列和东北金融发展史、货币的故事等基本陈列，全面反映了边业银行的历史、东北金融发展简史和货币金融演进史。,https://dimg04.c-ctrip.com/images/1lo3b12000holfj0z96D1.jpg
沈阳,清昭陵,9263,41.850824,123.427673,4.6,清昭陵也称为“北陵”，位于沈阳市区北部的北陵公园内，是公园内的主体景点。清昭陵是清朝第二代开国君主太宗皇太极与孝端文皇后博尔济吉特氏的陵墓，还葬着关睢宫宸妃、麟趾宫贵妃、洐庆宫淑妃等后妃佳丽。在清初的“关外三陵”（福陵、昭陵、永陵）中，昭陵是其中规模较大、气势较为宏伟的一座，这里古松参天、楼殿威严，处处透着皇陵的气势，你还能在这些建筑中看到明朝皇陵和满族建筑特点的融合。陵寝始建于1643年，于1651年基本建成。陵寝遵循“前朝后寝”的布局，自南向北由前、中、后三个部分组成。从下马碑到正红门为前部，正红门到方城为中部，神道两侧有石兽、华表对称排列，中间有为颂扬墓主而建的碑亭，竖有“昭陵神功圣德碑”。后部是方城和宝城，是陵寝的主体。方城好似一座城中城，有主殿和多座配殿，隆恩殿是其主体建筑，它以雕刻精美的花岗岩台阶为底座、金光闪闪的黄琉璃瓦为屋顶，很是华丽。隆恩殿之后是宝顶（一座大土丘），底下是地宫，安置着墓主夫妇的棺椁和陪葬品，但地宫目前为止并未被打开。陵寝的外围即是北陵公园的休闲区域，如果不进昭陵参观，那么仅买公园门票即可。公园西侧有象征中日友好的友谊园和玲珑剔透的芳秀园、杜鹃园等。东侧为开阔湖面，还有幽静的沁芳亭以及儿童乐园。整个公园树林密布，每逢春夏绿意盎然，适合踏青消暑，还可以在湖中划船，冬季时一派美丽的北国雪景。,https://dimg04.c-ctrip.com/images/0100x12000jsifr2q4556.jpg
沈阳,沈阳世博园,9272,41.857639,123.639462,4.6,"沈阳市植物园（沈阳世博园）是2006中国沈阳世界园艺博览会的会址，占地2.46平方公里，被誉为“森林中的世博园”。园区地处沈阳市东部风景秀丽的棋盘山旅游中心地带，距市区仅十公里，交通十分便利。荣获国家首批AAAAA级旅游景区称号，并通过ISO9001质量管理、ISO14001环境管理体系和OHSAS18001职业安全健康体系整合认证，是集绿色生态观赏、精品园林艺术、人文景观建筑、科研科普教育、娱乐休闲活动于一体的多功能综合性旅游景区。沈阳市植物园（沈阳世博园）栽植露地木本植物、露地草本植物和温室植物2000余种。园区内汇集、展示了东北、西北、华北及内蒙古地区植物资源，是东北地区收集植物最多的综合性植物展园。百合塔、凤之翼、玫瑰故事（玫瑰园）为园区标志性主题建筑，园区荟萃了世界五大洲及国内重点城市的园林和建筑精品。近百个风情展园如繁星般点缀在整个园区之中，散发出人文艺术与自然景观和谐统一的独特魅力。寓教于乐的松塔研学课堂、科普馆、百合文旅创客工场等让游客更加贴近自然，领略自然科学的奥妙与神奇。这里植被繁茂，景观丰富，空气新鲜，可谓是城市中的森林大氧吧，更是广大游客休闲和消夏避暑的胜地。园区鲜花绽放,景色秀美宜人。其中，4—5月份举办郁金香花节、杜鹃展、樱花展；5—6月举办牡丹花节、芍药花展、鸢尾花展、睡莲花展；7月举办百合花节、荷花展；8月百日草花展、千日红花展；10月举办菊花文化节。这些花展争奇斗艳、精彩纷呈，是北方地区少有的绚丽景致。荟萃世界园艺，尽显当代奇观，花展绚丽多姿，体现万种风情。沈阳市植物园（沈阳世博园）真诚欢迎八方宾朋的到来。",https://dimg04.c-ctrip.com/images/1lo1b12000hmvgoglF4C7.jpg
沈阳,沈阳方特欢乐世界,109993,41.965272,123.418188,4.9,沈阳方特欢乐世界位于沈阳市沈北新区盛京大街，占地约50万平方米，由深圳华强集团精心打造，是东北地区规模颇大的第四代主题乐园。方特欢乐世界以科幻和互动体验为乐园特色，由飞越极限、疯狂成语、恐龙危机、生命之光、海螺湾、聊斋、熊出没历险记、熊出没脱口秀、火流星、神秘河谷、飓风飞椅、儿童王国、矿山飞车、逍遥水母、柯基跑跑车等十几个大型主题项目区组成，涵盖主题项目、游乐项目、休闲及景观项目300多项，其中包括许多超大型游乐项目，绝大多数项目老少皆宜。这里有高空飞翔体验项目“飞越极限”、大型火山探险项目“维苏威火山”、大型恐龙复活灾难体验项目“恐龙危机”、让人琢磨不透的中国传统神话神奇演绎项目“聊斋”、色彩斑斓、如梦似幻的项目“海螺湾”、神奇的卡通互动项目“熊出没脱口秀等。,https://dimg04.c-ctrip.com/images/1lo6o12000iwtz51rA478.jpg
沈阳,清福陵,9264,41.837897,123.591798,4.8,"清福陵坐落在沈阳市东北郊，又称东陵，这里是清朝的奠基者太祖努尔哈赤与孝慈高皇后叶赫纳喇氏的陵墓。福陵始建于1629年，竣工于1651年，它背倚天柱山，草木茂盛，在这里既能感受到皇家陵园的气势，又能享受到清幽的自然环境。福陵的正门是正红门，进入后脚下是砖铺的甬路，两旁整齐地排列着华表、驼、马、狮、虎等石雕，在登完108级石台阶（称为108蹬）后，看到的是一座大碑楼，内立""大清福陵神功圣德碑""，上面镌刻着康熙帝撰写的碑文，主要是歌颂清太祖创业开国的功德。碑楼的北面是方城，是福陵的主体建筑。方城为砖筑长方形城墙，墙上有马道、垛口，墙城的四隅各有一座角楼，这座方城好似既像一座小型宫殿又像一座小型城堡。隆恩殿是方城的正殿，里面供奉着神牌和祭祀，殿前有焚帛亭，两侧有东西配殿，殿后有石柱门、石五供和券门。方城的北面就是月牙形的宝城，宝城前壁的正中有一座琉璃照壁。宝城的正中是宝顶，系用三合土筑成，下面的地宫埋葬着清太祖努尔哈赤和孝慈皇后叶赫那拉氏。由于整个陵墓依山势而建，你会发现建筑物也随着坡势起伏，显得更加错落有致、高大雄伟。",https://dimg04.c-ctrip.com/images/0100412000jpzx7hxF110.jpg
沈阳,“九•一八”历史博物馆,9232,41.836457,123.467579,4.8,坐落于沈阳市区东北隅的“九·一八”历史博物馆是为纪念在“九·一八”事变中的受难同胞、警示国人勿忘国耻而建。馆内陈列着大量的史实照片、档案，还有各种侵华罪证物件、抗日烈士遗物等文物展品，从各个方面展示了侵华日军的史实罪证，以及沦陷区人民的苦难生活与不屈不挠的斗争事迹。这里是个很有意义的教育场所，很适合带孩子一起来学习历史、接受爱国主义思想的洗礼。博物馆的主体建筑很有特色，是一座残历碑造型的巨大石雕，碑形为翻到事变日期的台历，上面布满了弹痕与骷髅，寓意着倒在枪口下的千万个冤魂在呼号，残历碑上镌刻着“九·一八”事变的日期和时间，以及事变简介。从残历碑正面拱形门进入正厅，迎面黑色大理石上刻有“勿忘国耻”四个大字，字上方的残月形时钟时针指着10时20分，这是侵华日军进攻北大营的时刻。建议跟随讲解员听详细的讲解。也可以在入口处租用语音导览机。要注意博物馆内不能拍照。博物馆内大致分为四个部分：第一部分介绍了“九·一八”事变的预谋过程以及当时东北军的部署状况，还通过光影演示了日军暗杀张作霖并炸毁火车然后，诬称中国军队破坏铁路、袭击日军守备队的过程；第二部分展示了日军占领东北后残害中国老百姓的血腥情景；第三部分介绍了中国人民与日本侵略者的抗争事迹；第四部分介绍近年来的中日关系，同时提醒世人警惕日本军国主义的复苏，时刻以史为鉴。在馆中，可以看到很多逼真的蜡像，展示了日军“731部队”残忍血腥的人体试验、八路军战士的生活和战斗等场景。你能看到日军的运尸车、弹等罪证，以及和被屠杀的同胞身上的手表、烟嘴、子弹头等物品。还能见到不少缴获的日军军旗、武器、军刀等物件，还有八路军用过的战刀等物品。,https://dimg04.c-ctrip.com/images/0100q12000isot34f2A6B.jpg
沈阳,棋盘山,9290,41.936331,123.643248,4.6,棋盘山位于沈阳市区东北部约30公里处，景区内山水相间，树木葱郁，合适季节还有荷花红叶可以观赏，自然风光十分优美。在棋盘山可以体验登山、野外CS、高山滑道等多种娱乐项目，也可以来此野餐休闲，度过悠闲周末，而每到冬天，这里的冰雪大世界更是赏冰雕、玩雪的乐园。另外，景区内还有关东影视城等人文景观可供观赏，内容十分丰富。棋盘山景区有多个出入口，景区面积较大，仅中心的秀湖周长便有十几公里，景区内没有区间车，所以游览棋盘山建议要选择自驾进入。推荐的游览路线为：景区南门--秀湖及码头-辉山-棋盘山-大洋山。此路线中的每一个部分都有多个景点，可以一一游览。棋盘山景区内有多家住宿、餐饮地点，既有酒店也有农家山庄，若想要慢慢游玩可以选择在景区内住宿。秀湖从景区南门进入景区，首先会看到第一个景点“碧塘风荷”，约有一个足球场大小的池塘里广种荷花，若是夏季前来，一定会饱览荷塘风光。穿过荷塘之后就来到湖边，秀湖两边风光旖旎，还有很多人在湖边垂钓。沿着湖边的路向左开，可以到达秀湖码头，在这里可以乘坐游玩或快艇洗水湖上，观两岸的山上翠意盎然，十分的悠闲惬意。每到秋天，几座山上的枫叶全都绽红，与绿色交融，使得山顶色彩丰富，是拍照摄影的好时机。辉山在秀湖码头的背后便是辉山，辉山的高度有265米，山顶的石头呈白色，被称为“辉山晴雪”，现在由于山顶植被茂密，在夏天时已经看不到。辉山上有石阶，登顶辉山可以看到山顶的晴雪楼、险亭和悬空露台等，在悬空露台上向下观望景观优美又让人感觉刺激。辉山下建有索道，一般游客都在此乘坐索道上山，索道是开放式的座椅，坐在其中脚下的树木清晰可见，十分开阔。下山时除了走石阶和索道外还有滑道可以选择，从山顶乘坐滑车一路滑到山底只需要三五分钟，路上经过树林、山坡，惊险刺激有趣味盎然。在辉山底还有辉山鸟林和向阳寺可以观看，其中辉山鸟林是亚洲较大鸟林，里面有各种仙鹤珍禽八十多种，不可错过。棋盘山游览完辉山之后便可以沿湖边西行，来到棋盘山，这座山高260米，上山的步道有些绕，大概1个小时左右可以到山顶，中间会经过气象台等景点。山顶有一块大石头，石头顶部十分平坦，传说是吕洞宾和铁拐李在此下棋的棋盘，也是棋盘山得名的由来。棋盘山的山下是沈阳野生动物园，喜欢动物的话可以前去观看。关东影视城游玩过棋盘山之后便继续沿湖边西行，首先会来到关东影视城，有一百七十多栋仿古建筑，可以根据自己的兴趣选择是否购买影视城的票进去观赏。大洋山最后来到湖西北方的大洋山，大洋山脚下是一个民俗风情村，里面提供山野菜、农家餐饮、烤全羊等东北原汁原味的美味，山脚还有野外CS、游乐园等娱乐项目，是景区内的娱乐的好地方。冰雪大世界每年冬天，在棋盘山西侧的冰雪大世界会开放，内有很多冰雕雪雕展览，里面的滑雪场更是和冰雪亲近的名地。另有雪地摩托、卡丁车等游乐项目，满足不会滑雪的游客游玩的需要。,https://dimg04.c-ctrip.com/images/1lo5a12000e83sb77FD93.jpg
沈阳,沈阳金融博物馆,62948,41.793998,123.459125,4.6,沈阳金融博物馆位于沈阳市区、张学良旧居的东面，是一座宏伟的仿罗马式建筑，边业银行的旧址。博物馆内陈列了中国古代各种货币和世界各国的货币，展示了东北金融业的发展历程，还以人物蜡像再现了银行营业厅当年的繁荣景象，十分有趣。走进博物馆，仿佛穿越到了二十世纪30时代，只见大厅内都是人，有的在交谈、有的在存钱，一派热闹景象。这些都是穿戴着民国时期服装的蜡像人物，反映了当年银行营业时的场景，栩栩如生。你也可以充当“人群”之的一员，拍照合影。穿过大厅开始进入总裁办公室复原陈列室，从这里开始依次进入每个展厅参观。各个展厅分别陈列了战国时代、清代、民国时期和现代的各种货币实物，还可以看到世界各国货币、以及专门的金属钱币陈列，同时还有人民币及假币展览，教你怎么识别假币。而后一个展厅被布置成模拟的证券交易所，让你体验置身于金融中心的感觉。除了货币展示，各个展厅还以丰富的图片和文字让你了解到东北金融业、中国证券业的发展历程。展厅顺序基本都为单向行走，建筑内部格局有点复杂，不过好在展厅间都有方向标识，也都有工作人员可帮助指引。,https://dimg04.c-ctrip.com/images/0106g12000ikz97vf7D3A.jpg
沈阳,沈阳科学宫,1413101,41.761522,123.436391,4.8,沈阳科学宫坐落在青年大街南端，毗邻科普公园、五里河公园。科普展示馆是科学宫中的核心展馆，主要有三层，展示着百件科普展品，其中大半的展品可供观众直接动手参与。一层是基础科学展区，在这里你可以尝试踩脚踏车发电让小球浮起，或者利用滑轮原理用绳子把自己拉升起来，通过各种互动设备和展示，了解到机械、光学、力学、物理学等基础科学的规律与原理。二层是数字世界和机器人展厅，你可以看到指纹识别系统、妙用声音操作电脑的声音识别系统以及巧用声光的声控树、无弦琴。还有各种用于工业制造的机器人、拟人机器人等，此外还有会唱歌、投篮等功能的机器人，你还可以与机器人下一盘棋，比比谁更聪明。三层是航空航天展区，你可以了解到各类飞机在人类生活中的作用，还能学到飞机的飞行原理，这里还展示我国航天事业的发展历程和取得的辉煌成就。另外，科学宫里还建有球幕影院、4D影院和天象影院，你可以与孩子一起观看生动有趣的科普影片以及神秘的天象景观。,https://dimg04.c-ctrip.com/images/0106k12000ijj37wg1EDC.jpg
沈阳,南风大剧院,140863,41.840348,123.423183,4.6,风大剧院位于沈阳市北部皇姑区泰山路18号，毗邻辽宁大厦，是沈阳市北部地区重要的文化娱乐演出场所，剧院内设施先进，华丽的舞台，超大LED大屏，炫彩的激光，音响，升降舞台美幻夺目，给您带来超凡的震撼体验。剧院内宽敞明亮，拥有舒适的座椅996席，号称千人大剧院，剧院广场拥有200个免费停车位，目前是沈城环境好的剧院之一。 南风大剧院演出内容活泼健康，表演风格诙谐幽默，票价经济实惠，自开建以来，每晚的上座率都在8成以上且居高不下，深受沈城百姓的欢迎与喜爱，同时成为沈城的一道亮丽风景线。,https://dimg04.c-ctrip.com/images/1lo4e12000dg6bupz6DFD.jpg
沈阳,实胜寺,9256,41.807274,123.427968,4.5,实胜寺全称为“莲花净土实胜寺”，位于沈阳市区，是东北地区的藏传佛教寺院。实胜寺始建于1636年，是由清太宗皇太极赐建的皇家寺庙，所以又称为“皇寺”。如今这座寺庙身处繁华的闹市，尽管寺庙的规模已不如鼎盛时期，但香火仍然旺盛如初，步入其中仍可感受到皇家寺庙的威严与清净。实胜寺为两进院落，整个寺院由南向北建筑在中轴线上，山门两侧是钟楼、鼓楼，大殿是寺院的主体建筑，为五间重檐歇山式，盖黄琉璃瓦边剪边。殿内供有释迦牟尼、弥勒、无量寿等佛的造像；殿为三间歇山式建筑，殿内有四大的彩绘造像。殿和大殿之间东西都有配殿，大殿两侧有经房和更衣房，大殿的西南有玛哈噶喇楼。殿后有座亭，亭内石碑上以满、蒙、汉、藏四种文字记述了玛哈噶喇金佛的铸造及迁移的经过。玛哈噶喇楼为两层歇山式木结构建筑，是专为供奉玛哈噶喇金佛而建的。楼的下层有佛塔一座，里面葬有默尔根都尔吉喇嘛遗骨。此外，寺中现供有僧舍利八粒。,https://dimg04.c-ctrip.com/images/100s11000000rkiggF7D3.jpg
沈阳,沈阳棋盘山滑雪场,134336,41.938072,123.692332,4.3,沈阳棋盘山滑雪场周围树木茂密，山峦起伏，冰面辽阔，占地面积50万平方米。每到冬季这里常常是雪花飞舞、万物皆白，到处是一片北国风光的醉人景色。冬季白天气温常年在-5℃-15℃之间，是一个集旅游、观赏、运动、娱乐、休闲、度假为一体的冬季旅游场所。高山滑雪区，分别设有1000米、800米、600米长的高山滑雪场及500米长的滑雪练习场和200米长的儿童滑雪练习场，并备有两条托牵式滑雪索道、1016米的高山管轨式滑道，以及时空转椅、雪圈等时尚项目。北区利用秀湖冰面，建有400米长的国际标准环形滑冰场、儿童游乐城、跑马场、骆驼园、马爬犁、猴爬犁、羊爬犁、狗爬犁以及冰尜、冰雕、登雪山和拔河比赛等活动项目。另有不同档次的雪地摩托车、儿童雪摩托、卡丁车、各种赛车、雪地飞机载人动力伞、多条冰雪滑道、烟花爆竹区等娱乐区。,https://dimg04.c-ctrip.com/images/0102412000inraa6bAFE2.jpg
沈阳,沈阳森林动物园,114101,41.92845,123.684031,4.5,沈阳森林动物园（又名冰川动物乐园）位于沈阳棋盘山风景旅游开发区内，距沈阳市中心25公里。在这里你可以乘坐观光大客车观赏到放养的东北虎、熊、狼、梅花鹿、非洲狮、蒙古马、野驴、鸵鸟、丹顶鹤、牦牛等多种动物。园区内还有笼养观赏区，可以步行观赏各种动物，此外还有珍稀物种繁殖基地和鹤类人工繁育研究基地。动物园内的园林景观设计很有特色，充分利用原始地形地貌，隐蔽建造动物笼舍场馆，可以看到各种动物的房舍大多都建在小山后面，或人工建一座环舍小山遮挡视线、或隐在山上灌木丛中。,https://dimg04.c-ctrip.com/images/1lo5s12000gde806rD55F.jpg
沈阳,盛京大剧院,1837733,41.754271,123.445216,4.8,盛京大剧院坐落于中国沈阳，原名沈阳文化艺术中心，外形酷似一颗钻石，主体建筑主要由1800座的综合剧场、1200座的音乐厅和500座的多功能厅三部分组成。是继沈阳奥体中心后，沈阳的又一座标志性建筑。交响乐、明星演唱会、歌剧话剧、独奏音乐会等多元的演出形式在此汇聚，每天都有不同的节目在这里上演，可以满足不同观众的喜好。到沈阳，一定要来盛京大剧院享受一次专业的文化盛宴。,https://dimg04.c-ctrip.com/images/0102j12000f6pofbvCD05.jpg
沈阳,沈阳中街刘老根大舞台,138741,41.800152,123.453208,4.5,刘老根大舞台沈阳中街剧场地处沈阳繁华的商业步行街——中街，是本山传媒开办的一家连锁剧场，也是全国较早“绿色二人转”剧场。这里就是大名鼎鼎的赵本山和他的徒弟们表演的舞台，位于沈阳中街，原名中街剧场，幽默诙谐的语言，连唱带跳、载歌载舞、火爆通俗的娱乐形态迎合了观众释放压力的需求。在沈阳乃至整个东北都是较火爆的二人转表演场所，有着“宁舍一顿饭，不舍二人转”的说法。,https://dimg04.c-ctrip.com/images/0104412000liqn09r9B53.jpg
沈阳,铁西森林公园,1834147,41.807239,123.321355,4.5,铁西森林公园是国家3A级景区，距密山市区58.5公里。森林公园属山岳生态自然风景区。因山中古榛子繁茂独特而得名。森林公园总面积20平方公里。区内有300米以上山峰30余座，其中代表性山岳主峰海拔500米。这座占地面积12万亩的森林公园，群山环绕，溪水潺潺，景色秀美，是黑龙江省一家由农民投资建造的。昔日的荒山秃岭、穷沟乱壑的不毛之地，经当地人的艰苦垦荒、不懈努力，植下青松2万亩，开发良田4000亩，栽植荷花800亩，拦堤蓄水，依山造湖，成为人们休闲避暑疗养地。,https://dimg04.c-ctrip.com/images/100v1f000001h1a7iFE62.jpg
沈阳,怪坡,9289,42.06177,123.640717,4.1,怪坡风景区位于沈阳市沈北新区清水台镇境内帽山西麓，西邻102国道，设有南门和山门出入口。怪坡是一条长约80米，宽约15米，呈西高东低走向的斜坡。怪坡的神奇之处在于：当汽车开到坡下熄火停车后，会发现汽车自动地向坡上滑行；骑上自行车感觉会更明显，上坡不用蹬，车会飞快地滑向坡顶，下坡却要用力蹬。怪坡的形成原因众说纷纭，目前还没有准确的科学定论。现在这里已经形成了以怪坡为中心，有20多个景点的风景区。自然景观除怪坡外，还有响山嗡顶、印山湖、松林槐谷、月牙湖、霞妹泉等。人文景观有10多处，既有古老的鹏恩寺、七眼透龙碑，又有现代惊险刺激的同心索桥、游艺射击场等。此外，怪坡风景区每年五月下旬都会举办槐花节盛会。,https://dimg04.c-ctrip.com/images/0102g120009h3yop32DD1.jpg
沈阳,辽宁省博物馆,9238,41.678049,123.460499,4.9,辽宁省博物馆新馆坐落于沈阳市南郊，目前拥有11万余件藏品。目前一楼主要设有明清玉器瓷器展、中国古代碑志展、欧洲玻璃艺术珍品展、辽宁民间绣品展以及一些名人书画展等临时展览。后续还将逐步开放更多的展厅，届时可以看到大量的珍贵文物。辽宁省博物馆成立于1949年，是新中国的一座博物馆，原馆址位于市府广场东侧（现已关闭），新馆于2015年5月试开馆。辽宁省博物馆以辽宁地区考古出土文物和传世的历史艺术类文物为主体，藏品分为17类文物，其中尤以晋唐宋元书画精品、宋元明清缂丝刺绣、红山文化玉器、商周时期窖藏青铜器、辽代陶瓷、历代碑志、明清版画、古地图、清李佐贤《古泉汇》著录的历代货币等具有特色和影响。,https://dimg04.c-ctrip.com/images/0106v12000hyjy3z123E6.jpg
沈阳,中街,138765,41.801537,123.460265,4.7,中街是沈阳较早的商业街，已有几百年的历史，历史悠久，交易繁华，购物、餐饮、休闲、娱乐一应俱全。潮人们可以在这里找寻到一切时尚前沿的品牌，让人目不暇接。吃货们同样不可错过，许多沈阳特色的美食也汇聚中街，可以乘此一饱口福。老边饺子、李连贵熏肉大彬、杨家吊炉饼、允指排骨，都让人流连忘返。此外，中街特色集市众多，夜市、金银市、铜市、书市、皮市、鸟市、梨市，无论有什么爱好的人，都可以找到归属感。,https://dimg04.c-ctrip.com/images/100r0f0000007ezdh9C22.jpg
沈阳,太原街,138750,41.790512,123.401838,4.6,太原街是和中街并称的商业街，沈阳繁华的商业街之一，它的全部构造都是仿建日本银座商业圈而成，每年吸引着众多游人来访，太原街另一大特色就是中西结合。从上世纪20年代的古老建筑到现代气息的摩天大楼，都集中在太原街沿线，新世界百货，百盛，沃尔玛，万达广场，各种品牌汇集，星光璀璨。,https://dimg04.c-ctrip.com/images/100h1f000001grsvqB1AF.jpg
沈阳,沈阳小南天主教堂,9244,41.790039,123.452562,4.6,南关天主教堂位于沈阳市沈河区乐郊路，始建于清光绪四年（1873年），光绪二十六年（1900年）被义和团焚毁，1912年用清廷的赔款重建，现为辽宁省级文物保护单位。南关天主教堂整个建筑分成东、西两个院落，教堂在东院的北端，南北长66米，东西宽17米，高40米，建筑面积1100平方米，可同时容纳1500人。教堂属于典型的哥特式建筑，顶部是两个方锥形的尖顶，装饰着十字架。教堂前面是三扇拱门，两侧有成排的小窗，内有二十四根石柱支撑，穹窿镶嵌着巨大的花纹。教堂的西院有一座四层建筑，这是1926年修建的主教府。,https://dimg04.c-ctrip.com/images/0103w12000f6psmc3526D.jpg
沈阳,中国工业博物馆,78872,41.822048,123.355683,4.7,中国工业博物馆由原铸造博物馆改扩建而成，占地面积8万平方米，建筑面积5.3万平方米，展示了我国工业发展历程和老工业基地振兴成就。目前已从全国22个省市征集文物1.6万件。博物馆一期开放中国工业通史馆、铸造馆、机床馆和铁西10年成果展馆4个展馆。中国工业通史馆位于新馆一层，全面介绍了中国工业文明特点、重点展示铁西工业文明发展的历程。铸造馆基本保持了原铸造厂翻砂车间原貌，是一期开放展馆中展陈面积大的一个展馆。该馆全面展示了一个大型铸造车间应有的全套设备，让观展者能真实感受到当年铸造厂的恢弘场面。机床馆位于新馆一层，展品中包括众多的车床、铣床、钻床、镗床、磨床以及组合机床等，让观展者认识各种机床，了解作为工业之母的机床的样子。展出的机床多为沈阳各个工厂保存下来的，以及本地企业沈阳机床集团的大量产品。展品的年代跨度很大，从集中动力传动的皮带车床，到传统继电器接触器控制的普通机床，到数控机床加工中心，以及本地生产的数控系统。铁西10年成果馆位于新馆二层，展示铁西区10年来东迁西建，改革旧体制工业企业，建设宜居城市的成就.,https://dimg04.c-ctrip.com/images/0101l12000ili1q6h633E.jpg
沈阳,南湖公园,9277,41.771256,123.412666,4.7,南湖公园位于沈阳市和平区南部，占地约52万平方米，始建于1938年，原名长沼湖公园，解放后改名为南湖公园。经过全面的规划和建设，南湖公园已成为具有北方园林艺术风格的重点公园之一。南运河流经园中，波光倒影，垂柳摇曳，游船荡漾。邻芳园、绮芳园、群芳园、鱼跃荷香园精巧秀丽，假山、雕塑、水中喷泉等景点各具特色。园内还建有溜冰场、游泳池、儿童乐园等。,https://dimg04.c-ctrip.com/images/100r1g000001h7j7y5028.jpg
沈阳,中山广场,9302,41.796952,123.410569,4.7,中山广场位于沈阳市和平区中山路、南京街、北四马路3条道路交叉处，始建于1913年，当时称中央广场。1919年改称浪速广场；后来浪速广场更名为中山广场，沈阳解放后仍沿用此名；后称红旗广场；1981年又恢复了中山广场的名称，一直沿用至今。中山广场环境清新整洁，游人多在此游玩和休憩。,https://dimg04.c-ctrip.com/images/100u1f000001gq9py4656.jpg
沈阳,中山公园,9276,41.785743,123.406677,4.7,中山公园位于沈阳市和平区中华路南侧，占地面积16.1万平方米。始建于1924年。日伪时期叫千代田公园，中国人被限制入园。1946年为纪念孙中山先生，改名为“中山公园”。解放后经过四十年的规划建设，成为沈阳市的重点公园之一。中山公园内绿树红花，假山亭阁，小桥流水。虽地处繁华闹市区却自有一种宁静。占地两面万多平方米的儿童乐园是孩子们的世界，建有高40米的高空缆车、宇宙飞船、电动木马、小火车、碰碰车、空中电动转椅、弹跳小城堡等设施。园内现分5个区域，中部是半地下的沉池，池南部是回廊；西南部是儿童乐园；东南部是假山草地；西北部是童乐城；东北部是“百花苑”及花卉培育基地。整个公园道路纵横错交，绿树成荫，繁花似锦，闹中取静，是一座融高雅文化、大众文化和园林艺术为一体的文化娱乐性主题公园。,https://dimg04.c-ctrip.com/images/0105c120008s7g2vb2EA8.jpg
沈阳,沈飞航空博览园,141511,41.864366,123.433414,4.6,沈飞航空博览园位于沈阳市区北部、紧邻北陵公园，是系统地介绍我国歼击机发展历程和航空科普知识的大型专业性展馆。园区分为室外展区和室内展览区两个部分，室外场地上停放着歼5、强5、歼7型、歼6III、歼8、歼8II型飞机，以及歼6原型飞机、歼教6原型飞机等飞机实物展品。通往主馆的路西草坪上还停着一架上下双翼、体型庞大的军绿色运输机。博览园的主馆是一座四层的大楼，主馆分上下两层，共分为序馆、蓝天梦圆、航空报国、振翮高飞、创新超越、功炳天疆、展翅翱翔7个展馆。序厅内的展台停放着一架飞机，厅顶和二楼连通，悬挂着三架飞机模型。“志在冲天”展览主要展示沈飞从小到大，从修理走向飞机制造的过程。从一楼到二楼的楼梯间内墙壁上挂着一些沈飞职工几代人在此工作的合影照片。接着从“碧空雄风”展览到后面的“世界展望”主要展示歼击机在我国的发展和航空技术在其他领域的应用。在二楼的大厅里，较吸引人的是模拟实物类展品，包括歼6的前机身、座舱、机翼、平尾、复合材料、人物雕塑、弹射座椅、钛合金结构件、飞机航炮、火箭发射器，飞机的各种仪表，机载设备，还有20多种飞机模型等。馆内还陈列着1:2概念机模型、涡喷-6型发动机等展品，还有全机静力实验模拟演示系统、高速风洞模拟演示系统、自动化立体仓库模拟演示、D-4型气垫船模拟演示等精彩内容，对航空技术感兴趣的游客不容错过。,https://dimg04.c-ctrip.com/images/100f1a0000018yyzd4A2C.jpg
沈阳,青年公园,9279,41.781218,123.439233,4.7,青年公园位于沈阳市沈河区青年大街中段，占地29万平方米。始建于1952年，1958年建成。青年公园内共建有八个各具特色的小景点。步入园内首先映入眼帘的是大型水幕式喷泉，接着是花鱼廊。花鱼廊的南侧有一座假山，每当山上电控井抽式自来水管道开启，一条宽2.5米，落差6.65米的瀑布飞泻而下。1984年公园东南的湖心岛上建成了“振兴园”，园内建有模仿中国工农红军长征途经的雪山、草地、大渡河、铁索桥等。除此之外，还有芳草迎春、观容亭眺、轻舟荡漾、舞园月夜等景点。园内还建有儿童乐园、溜冰场等设施。,https://dimg04.c-ctrip.com/images/0106j12000f6q4y9l4F62.jpg
沈阳,太清宫,9255,41.80448,123.44787,4.4,太清宫位于沈阳市沈河区西顺城街16号，是道教全真派在东北地区规模较大的一处宫观，现为省级文物保护单位、国家2A级旅游景区。太清宫是东北地区道教活动的中心，也是辽宁省和沈阳市道教协会所在地。太清宫初建之时规模很小，经过乾隆三十二年的扩建和改建才有了现在的规模。寺院坐北朝南，占地5000多平方米，前后四进院落。前院有灵官殿，两侧有十方堂、云水堂。,https://dimg04.c-ctrip.com/images/0100t12000ikts543293B.jpg
沈阳,沈阳故宫-大政殿,1685301,41.799106,123.456862,4.7,沈阳故宫-大政殿位于沈阳故宫博物院内，是一座八角重檐亭式建筑，俗称八角殿。始建于1625年，是清太祖努尔哈赤营建的重要宫殿，是盛京皇宫内庄严神圣的地方。初称大衙门，1636定名笃恭殿，后改沈阳故宫-大政殿。八角重檐攒尖式，八面出廊，其下为须弥座台基。殿顶满铺黄琉璃瓦，镶绿剪边，正中相轮火焰珠顶，宝顶周围有八条铁链各与力士相连。殿前两明柱各有金龙盘柱，殿内为梵文天花和降龙藻井。殿内设有宝座、屏风及熏炉、香亭、鹤式烛台等。沈阳故宫-大政殿用于举行大典，如颁布诏书、宣布军队出征、迎接将士凯旋等。此殿为清太宗皇太极举行重大典礼及重要政治活动的场所。 ,https://dimg04.c-ctrip.com/images/0106c12000jyadkw6DB97.jpg
沈阳,沈阳鸟岛,110225,41.826111,123.60658,4.5,鸟岛，是目前沈阳一座自然生态的鸟类观赏中心。鸟岛又名干河子岛，位于棋盘山开发区境内，在东陵公园东侧，世博园南侧，是浑河水系中的一个岛屿，占地面积49.26公顷。历史上的鸟岛就因其形恰似一条巨龙卧于（浑河）水中而得名“龙滩垂钓”，成为“辉山八景”之一。沈阳鸟岛一年不同的季节里，在一天里不同的时间内，岛上的森林、灌丛、湿地、水塘都将带给人们不同的景观：春季万物复苏，百花齐放，鸟岛上的鸟儿开始孕育生命；夏季草木茂盛，郁郁葱葱，秋季层林尽染，刚刚长大的鸿雁跟在母亲的后面，在铺满金黄色树叶的地面蹒跚摇摆；冬季白雪皑皑，大地一片肃杀，只有雁鸭们还在浑河里未冻结冰的水面上嬉戏。湿地面积约10万平方米，是野生动物，特别是游禽、涉禽及滨岸鸟类和雀形目鸟类的主要栖息地。营造湿地景观既可以丰富鸟岛的生境类型，让更多的鸟类来此安家落户，而且还能丰富该岛的观赏内容，使“鸟岛”名副其实。种植了油松、落叶松、辽东桦、蒙古桦、白蜡、白桦等高大乔木，忍冬、黄刺枚、红瑞木、柳叶绣线菊、山梅花等灌木，以及菱角、铺草、荷花、菖蒲等水生植物，共同形成了森林、蔬林草地和湿地生态景观。,https://dimg04.c-ctrip.com/images/0103i120009f3mx196435.jpg
沈阳,白清寨滑雪场,63034,41.576256,123.720418,4.4,白清寨滑雪场位于沈阳市苏家屯区白清寨风景旅游区内，松林茂密，环境优美，距沈阳、抚顺、本溪市区均为40公里左右。该滑雪场是我国仅有的几家可以承办国际大型滑雪比赛的场地之一。白清寨滑雪场建有自由式滑雪空中技巧场地、U型场地、高山大众滑雪场地（初级雪道、中级雪道、高级雪道）、雪上游戏区、冰上游戏区、单板公园等，还设有雪地足球、滑雪圈、雪地拔河等十多项游戏。雪场内有一条空中吊椅索道、两条拖牵式滑雪专用索道，并备有双板、单板等滑雪器材。雪场有国内的专家和教练提供滑雪指导。这里的自由式滑雪空中技巧场地、U型场地均达到国际比赛标准，在滑雪的同时，还可以欣赏到自由式滑雪空中技巧国家队精彩的训练表演。,https://dimg04.c-ctrip.com/images/0104n12000f6sgsmx8DBE.jpg
沈阳,大青楼,1696091,41.7948,123.45808,4.7,大青楼是张氏帅府的标志性建筑，建于1918-1922年，为仿罗马式建筑，因该楼采用青砖建造，故称大青楼。大青楼高37米，是当时奉天城的高点之一。整体建筑富丽堂皇，外部立体浮雕造型生动、工艺精湛，内部主要房间的壁画装饰技艺独特，具有较高艺术价值。大青楼融办公与居住为一体，作为张作霖、张学良父子两代主政东北时期的重要办公场所，曾历经两次直奉大战、东北易帜、处决杨、常、武装调停中原大战等重大历史事件。这里的老虎厅不得不提，一对猛虎（标本）昂然并立，“老虎”原是部属汤玉麟送给“东北王”张作霖的，是当时处决杨宇霆与常荫槐的地方，因厅内有虎而得名。当时的一只老虎标本现在保存在沈阳同泽中学的校内，另一只因为没有保管好已无有踪迹了。这里蕴藏着丰富的历史内涵，是东北近现代历史的见证和缩影。,https://dimg04.c-ctrip.com/images/0102z12000aofdbv05291.jpg
沈阳,大清门,1685316,41.797781,123.455721,4.7,大清门是沈阳故宫博物院的正门，俗称午门。它是一座面阔五间的硬山式建筑，房顶满铺琉璃瓦，饰以绿剪边，尤其是大清门山墙的上端，南北突出的四个墀头，三面皆用五彩琉璃镶嵌而成，纹饰为凸出的海水云龙及象征吉祥的各种动物，做工精巧，栩栩如生。此门庄严富丽，与整个宫殿建筑混成一体，显得十分协调。大清门建于天聪六年（1632年）之前，为盛京皇宫中皇太极续修的早期建筑之一。原称大门、正门。1636年定宫殿名时称大门为大清门。大清门的满文译音为“代青杜卡”（代青即大清，杜卡为门）。,https://dimg04.c-ctrip.com/images/1A0q1f000001g45e0B020.jpg
沈阳,怀远门,1696071,41.797821,123.448819,4.5,怀远门位于方城内沈阳路西端，俗称大西门，始建于1631年，为沈阳老城垣之重要标志。1634年4月，皇太极改沈阳为“天眷盛京”，并亲自诏令命名八门，西之南者曰怀远门。1930年拆除怀远门，1994年，沈河区政府拓其原址，增其旧制，重修了怀远门。过去，它是内城的门户，是清朝官员们进出的必经之地，也是重要的军事防御设施。,https://dimg04.c-ctrip.com/images/0106y120008axggjw2A65.jpg
沈阳,长安寺,9257,41.803255,123.461702,4.6,素有“先有长安寺，后有沈阳城”之称的沈阳长安寺，历经千年风霜，几经修复，依旧耸立于沈阳城内。传说当年唐太宗西征经过当时还是一片荒原的沈阳城，发现此处树木很多，便在此修建寺庙。而负责修建的将军因战事突发，随手一指确定山门位置，使得大殿与山门相差甚远，在此过程中渐渐造起了沈阳城，可以说长安寺是一座“城在庙里”的寺庙。数百年来，长安寺历尽沧桑，数经兵燹，损毁严重，至1948年，寺内建筑多已颓毁。1985年重新维修后恢复原貌，辟为旅游场所。 1997年3月1日，长安寺退还给佛教界，由住持照元法师主持修建。今天的长安寺殿宇璀璨，圣像庄严。,https://dimg04.c-ctrip.com/images/0106112000ik7qbddD445.jpg
沈阳,赵一荻故居,1685738,41.794526,123.459056,4.4,赵一荻旧居，俗称“赵四小姐楼”，是全国重点文物保护单位张学良旧居的重要组成部分。1928年至1931年间，张学良将军和赵一荻女士在此居住，并生下了他们的爱子张闾琳。重修后的“赵四小姐楼”四周围上了新改造的围墙，推开大铁门，满院花香，院内墙上面摆放着盆景，一楼的接待室、舞厅、餐厅等，二楼的会客厅、卧室、琴房、起居室、卫生间等装修别致，令人置身其间，仿佛感受到了赵四小姐的音容笑貌。会客厅顶棚画着《飞鹤吉祥图》、舞厅画着辉煌的金顶彩绘，令人赏心悦目、美不胜收；室内的法式家具件件可称作艺术精品，沙发、桌椅、床等选料上乘、做工考穷，尽显豪华、典雅之美，体现了赵一荻求学上进、追求浪漫生活情趣的个性，如实地再现了赵一荻与张学良共同生活的场景，见证了他们动人的爱情故事。,https://dimg04.c-ctrip.com/images/100f1a0000019e21fB28F.jpg
沈阳,沈阳市市府广场,1696081,41.80464,123.434102,4.7,沈阳市府广场位于沈河区市府大路与惠工街、青年大街、小西路、北京街的交汇处。这里原为空地，1907年日中合办的马车铁道在这里设站。京奉铁路修建后，1911年在此设京奉新站，并形成站前广场，日本人称为“中心广场”。解放后，沈阳市人民政府设在广场西侧，所以称市府广场。沈阳市的市政府广场作为城市核心区的中心广场，以体现沈阳市的城市文化和品位而成为市民眼中的骄傲和外地人来沈观光的一个热点。目前，广场具备市政广场和市民绿阴休闲广场的双重功能。白天，这里游人如织，漫步广场上，人们能够体会沈城独有的气质和魅力；每到夜幕降临，这里又有两三万市民到广场休闲、健身、娱乐。现在的市府广场由升旗广场、太阳鸟广场和南广场三大部分组成。,https://dimg04.c-ctrip.com/images/0102y120008jsbakh4836.jpg
沈阳,东北亚滑雪场,63033,42.045846,123.728519,4.3,东北亚滑雪场位于沈阳市新城子区马刚乡的沈阳国家森林公园内，距沈阳市区28公里，是辽宁省内大、雪道多的滑雪场，也是集旅游观光、健身娱乐、休闲度假为一体的大型休闲场所。这里是东北长白山南端的余脉，林木覆盖率高。冬季，漫山白雪皑皑、银装素裹、雪松兀立，其间数条雪道自山顶蜿蜒而下，在滑雪的同时，还能领略到独特的森林风光。东北亚滑雪场滑雪雪道面积12万多平方米，戏雪场地面积5万多平方米，设有滑圈场地、高山滑雪场地、大众滑雪场地、灯光滑雪场地、滑雪教学场地、雪地摩托场地、雪橇场地、爬犁场地等。滑雪场内还建有接待游客餐饮、住宿及娱乐的宾馆酒店等，建有高、中、低档不同住宿及会议场所。场内的餐厅提供川、粤、辽等菜系、中西式快餐、农家风味饮食等。东北亚滑雪场是中国滑雪协会会员单位，雪场内驻有国家专业教练数十名，对前来滑雪的游客可进行专业的指导和培训；同时，雪场组建有滑雪学校和会员俱乐部等。,https://dimg04.c-ctrip.com/images/1lo6f12000gqotapa98CD.jpg
沈阳,五爱市场,1482343,41.786857,123.450734,4.4,"五爱市场位于辽宁省沈阳市沈河区，因地处沈阳市沈河区五爱街而得名。五爱市场是东北亚经济圈和环渤海经济圈较大的流转型轻工产品交易中心，也是中国有名的批发市场之一。五爱小商品批发市场作为全国有名的批发市场，以品种多样，物美价廉而举世闻名。五爱市场现已发展成为占地13.9万平方米、摊位2万余个，从业人员6万多人，日均客流量30万，节假日可达40万人次，经营服装、小百货、针织、布料、床上用品、礼品、玩具、日杂、箱包、小食品、小家电、袜子14大类，3万多个品种的大型批发市场。2009年12月28日，随着购物旅游在旅游业中的地位日益突出，全新的五爱市场也将随之迎来更多的游客团队和消费群体，一条""以商带游，以游促商""的宏伟大道正领导五爱人走向全新的价值观。",https://dimg04.c-ctrip.com/images/0104312000a0n0v8z912E.jpg
沈阳,凤凰楼,1685321,41.798791,123.455648,4.6,崇政殿北首的凤凰楼，建造在4米高的青砖台基上，有三层，三滴水歇山式围廊，顶铺黄琉璃瓦，镶绿剪边。此楼为盛京高建筑，故有《盛京八景》之一“凤楼晓日”、“凤楼观塔”等传称。凤凰楼上藏有乾隆御笔亲题的“紫气东来”匾。,https://dimg04.c-ctrip.com/images/100v1f000001h1b6oBF7B.jpg
沈阳,彩电塔,9296,41.782895,123.434584,4.6,辽宁彩电塔位于沈阳市和平区彩塔街1号，地处风景秀丽的南运河畔，塔高约305.5米，1989年建成。辽宁彩电塔是集广播、电视发射与旅游观光、餐饮娱乐为一体的多功能现代化高塔，是沈阳市的标志性建筑之一。辽宁彩电塔的塔楼建在187-215.5米处，设有旋转舞厅，游览大厅及露天观览平台。可同时容纳上千人观光、餐饮、娱乐。登临塔楼，向远处眺望，沈城风貌一览无余。,https://dimg04.c-ctrip.com/images/0100x120008jsg53d5DDE.jpg
沈阳,稻梦空间,1415299,42.077792,123.300945,4.6,"沈北新区以其独特的地理优势孕育了优质稻田。稻梦空间是以稻田彩绘为特色的田园综合体，讲述“一粒米的故事”，倡导简约且充满活力的“青色生活”，是现代农业与乡村旅游结合的代表，带您感受自然生态的田园慢生活。稻梦空间现为国家AAA级景区，这里是稻田画基地，也是我国大的水稻科普教育基地，有“中国稻田画之乡”和“中国田园”的美誉、2020年10月1日国庆档由沈腾、马丽主演的电影《我和我的家乡-神笔马亮》拍摄基地在稻梦空间取景。稻的世界，梦的海洋，稻梦空间是一个神奇美丽的稻田艺术王国。稻田画不仅展现了古老锡伯族人的聪明才智，也以其独特的魅力吸引着来自天南海北的朋友。稻梦空间连续四年登上电视台。近几年来多次被CCTV、东方卫视、北京卫视、浙江卫视、人民日报丶经济日报、光明曰报丶新京报等多家媒体相继报道。也吸引了英国地铁报、法新社、美联社、韩国KBS等海外媒体的报道。园区设有稻田画观赏区、亲子同乐园、锦鲤观赏、阳光沙滩、稻梦水城、七海秋千、水上漂“留”、孔雀园、帐篷区、弯弓射箭、林地鸡散养基地、渔猎部落、稻田手工美食坊、木屋餐饮、龙骨水车体验、稻草人观赏、水果采摘、蔬菜采摘、传统艺术体验等多个游玩体验项目。园区坚持让农业走品牌化之路，规划农业嘉年华和民宿项目，构建农业+旅游+科技+教育的运营体系，并以其优质的大米加工成糙米冰淇淋、米饼、米花糖、速食米线、速食冷面、大米醋等多个旅游纪念品，成为响应国家乡村振兴战略的“沈阳样本”。
稻梦空间是一处传统与创意并进的乐园，孩子在这儿撒欢儿游玩，老人在这追忆青春，这里是适合全家人一同出游的世外田园，放松心灵，释放压力，置身稻田，畅快呼吸。这里有艺术，有美，唯独没有压力。想要感受她迷人的独特魅力，您得亲自走近她，感受她。还等什么？跟上脚步一起出发吧！",https://dimg04.c-ctrip.com/images/1lo5912000krmck8m0343.jpg
沈阳,八一公园,9278,41.80233,123.424346,4.5,八一公园位于沈阳市和平区三经街与和平北大街之间，占地七万平方米。此处原为菜园，后被美、英、法三国驻盛京领事馆占用。解放后，这里被辟为公园，因修建施工时解放军官兵协助共建，因此定名为“八一公园”。公园现有儿童乐园、园中园、长廊、莲花池、君子兰展厅、花卉商店、花鱼市场等。儿童乐园设有大型滑梯、秋千、攀登架、单杠、双杠等娱乐设施；花鱼市场开展花鱼交易，互换品种，交流技艺。,https://dimg04.c-ctrip.com/images/100f0j000000an5ugEA9A.jpg
沈阳,崇政殿,1685307,41.798346,123.455681,4.9,崇政殿在中路前院正中，俗称“金銮殿”，是沈阳故宫较重要的建筑。整座大殿全是木结构，面阔五间，进深三间。前后出廊硬山式，辟有隔扇门，前后出廊，围以石雕的栏杆。殿顶铺黄琉璃瓦，镶绿剪边，正脊饰五彩琉璃龙纹及火焰珠；殿身的廊柱是方形的，望柱下有吐水的螭首，顶盖黄琉璃瓦镶绿剪边；殿前月台两角，东立日晷，西设嘉量；殿内“彻上明造”绘以彩饰。内陈宝座、屏风；两侧有熏炉、香亭、烛台一堂；殿柱是圆形的，两柱间用一条雕刻的整龙连接，龙头探出檐外，龙尾直入殿中，实用与装饰地结合为一体，增加了殿宇的帝王气魄。崇政殿为清太宗皇太极陛见臣下，宴请外国使臣以及处理大政的常朝之处。公元1636年，后金改国号为大清的大典就在此举行。“东巡”诸帝于此举行“展谒山陵礼成”等庆贺典礼。,https://dimg04.c-ctrip.com/images/100d11000000rc6nlCEB7.jpg
沈阳,舍利塔滩地公园-无垢净光舍利塔,9258,41.835384,123.38022,4.8,无垢净光舍利塔位于沈阳市皇姑区西部塔湾街以北一处土崖上，是一座密檐八角空心古三层砖塔，始建于辽重熙十三年（1044年），为省级文物保护单位。塔下的古塔遗物陈列馆展出有舍利塔等寺塔出土的佛教艺术珍品。无垢净光舍利塔起初由北方契丹人修筑，清崇德五年（1640年）重修，是沈阳市历史较久的古建筑之一。此塔为密檐塔，塔身为空心。塔内出土由鎏金佛、舍利子、经卷、瓷器等大批珍贵文物，地宫四壁尚有保存完好的彩色壁画。此塔北侧新建由沈阳古塔遗物陈列馆，馆内展出有沈阳各塔先后出土的大量珍贵文物。,https://dimg04.c-ctrip.com/images/10061f000001gqvo7A903.jpg
沈阳,慈恩寺,9251,41.783482,123.460513,4.7,沈阳慈恩寺现存建筑建于1912-1930年，为禅宗寺院。,https://dimg04.c-ctrip.com/images/0104u120009dntwtx0EDD.jpg
沈阳,关东影视城,63019,41.950147,123.703639,4.0,关东影视城位于沈阳市区东北的棋盘山国际风景旅游开发区内，地处秀湖东南岸，占地28万平方米，由7个区域构成，拥有各式建筑177栋。通过对上世纪老沈阳“市井文化”的展示，再现了上世纪二三十年代沈阳城的独特关东风情，具有影视拍摄、休闲娱乐和文化教育三大功能，是对上个世纪老沈阳城建筑和文化的记录。关东影视城内多三开间或五开间的单层或两层砖木结构建筑，少数为三层。复原的古建筑多为经营性店铺，主要体现了中式风格、西式风格和中西合璧式的建筑风格。城内仿照当年沈阳老街区店铺面貌，以高8米的古城墙合围，形成内部包括茶楼、酒店、客栈、戏园子等众多清末民初店铺的古城式建筑群落。这里不仅重塑了老沈阳人的精神家园，也是当代人了解老北市老沈阳的一部生动的教科书。,https://dimg04.c-ctrip.com/images/01009120006pcyncp7874.jpg
沈阳,东北解放纪念碑,9239,41.778465,123.404334,4.8,,https://dimg04.c-ctrip.com/images/0100v12000arktq8l984E.jpg
沈阳,新乐遗址博物馆,9265,41.847807,123.415312,4.7,新乐遗址博物馆是中国新石器时代早期的遗址博物馆，位于辽宁省沈阳市皇姑区。该馆收藏新乐遗址出土的新石器时代遗物近万件。种类有陶器、打制石器、磨制石器、细石器、玉器、骨器、木雕艺术品和煤精制品等。陈列分两个展厅和一处新乐下层房址。新乐遗址1985年5月正式开放，1986年改为新乐遗址博物馆，1988年被辽宁省人民政府列为省级文物保护单位，为沈阳市的旅游业又增添了一个新景点。,https://dimg04.c-ctrip.com/images/0102r120008jskj4x0DEA.jpg
沈阳,华晨宝马铁西工厂,1790242,41.680939,123.161078,4.8,华晨宝马铁西工厂是宝马集团在全球的第25家生产厂，也是世界上先进、环保、具可持续性的汽车生产厂之一。在铁西工厂可以参观到先进、现代化的生产技术。铁西工厂生产BMW 3系标准轴距和长轴距，BMW X1以及创新纯电动BMW ix1。,https://dimg04.c-ctrip.com/images/0103i12000f6t91lhC9CD.jpg
沈阳,清河半岛温泉,3656338,41.936743,123.432607,4.5,堆放的火堆火炉让寒冷的冬季里充满热情的火花，燃烧着北欧的风情。男女浴区具有特色的天体浴可以在国内体验到南美国度的开放及热度，一楼幼儿戏水区、儿童戏水区、成人戏水区、运动型泡池，全部都是温泉池，尽情地娱乐又不耽误您的需求。二楼功能型泡池、森林石板休息区（环境优雅大气，适合度假）、室外泡池（晚上蒸汽和灯光交汇特别美，在寒冬的夜晚，伴着月亮，遥望远处片片灯火，头顶是呼呼的北风，身边是温泉），美丽的地方便是二楼荷境让大自然给您一个亲切的拥抱。三楼餐饮和汗蒸区、蒙古包、帐篷休息区、休息大厅，四楼有包房、睡眠大厅（区域很大，很舒服）、茶艺区。有特色的是三楼的啤酒串吧，一边喝着啤酒，一边吃着烤串，一边泡着温泉。,https://dimg04.c-ctrip.com/images/1lo4112000hmry76w6F72.jpg
沈阳,棋盘山冰雪大世界,63020,41.939874,123.69344,4.4,棋盘山冰雪大世界位于沈阳市东北部的棋盘山风景区内，距市区17公里，是沈阳冬季冰雪旅游的胜地，也是每年中国沈阳国际冰雪节的举办地点。棋盘山冰雪大世界森林茂密，山峦起伏，冰面辽阔，占地面积50万平方米。每到冬季这里雪花飞舞，万物皆白，一派雪域风情。冬季这里白天气温通年-15℃－-5℃之间，雪质良好。棋盘山冰雪大世界现已成为东北地区项目丰富、设施完备的大型冰雪休闲场所，景区内已开办了30余项以运动、娱乐、惊险、刺激为特色的活动项目。景区内冰雪活动划分南北两个区域：南区为高山滑雪区，分别设有1000米、800米、600米长的高山滑雪场及500米长的滑雪道。200米长的儿童滑雪练习场，并备有两条托牵式滑雪索道、1016米的高山管轨式滑道，以及时空转椅、雪圈等时尚项目。滑雪区还附有两座建筑面积为2000平方米的大型雪具储备库，室内设滑雪服出租、旅游纪念品商店、寄存处、医务室等。北区利用秀湖冰面，建有400米长的国际标准环形滑冰场、儿童游乐城、跑马场、骆驼园、马爬犁、猴爬犁、羊爬犁、狗爬犁以及冰尜、冰雕、登雪山和拔河比赛等活动项目。另有雪地摩托车、儿童雪摩托、卡丁车、各种赛车、雪地飞机载人动力伞、多条冰雪滑道、烟花爆竹区、餐饮娱乐区。在1300平方米的冰雪活动综合楼内，设有高、中档餐厅和不同档次的快餐、贵宾室、游客中心等设施。贴士：冰雪大世界除了娱乐项目，还有许多雪雕与冰雕作品。滑雪时，可以乘坐高山索道缆车将到高山起点，同时还能登高观赏冰雪覆盖松林的北国景色。冰雪大世界开放有夜间滑雪项目，滑雪爱好者不妨体验一下与白天不同的雪场感受。,https://dimg04.c-ctrip.com/images/100a0z000000mo7ca2554.jpg
沈阳,五里河公园,114097,41.757372,123.468209,4.9,沈阳五里河公园位于沈河区长青街附近，公园东起长青桥，西至浑河桥，横跨4公里；北起二环路，南至浑河岸边，纵距400米。公园集文化、休闲、娱乐功能为一体，是沈阳市大的城市滨河公园。公园建设以植物造园为主，分为自然景观区、文化休闲区、娱乐服务区、异禽生态区、沿道路景观区、湿地生态区、主入口区等几个主要区域。公园内百米音乐喷泉、龙溪、人造沙滩、五里河码头广场、中心广场等景观均借鉴国内、外先进设计理念，堪称国内卓越。公园辕门由十根擎天立柱组成，每根立柱又由四根彩柱环合，白钢条纹式柱头箍，加之亮灰色的真实漆彷石材底座，给五里河公园平添了许多喜庆的氛围，夜晚在灯光的烘托下更加绚丽夺目。,https://dimg04.c-ctrip.com/images/0105r12000f6re8y45328.jpg
沈阳,中共满洲省委旧址,9233,41.807826,123.424767,4.7,"旧址位于沈阳市和平区皇寺路，是一座坐北有朝南、面阔六间、进深一间的硬山式青砖瓦房。该旧址经过维修已恢复原貌，对外开放，成为进行革命传统教育和研究学习东北地方党史的基地。
旧址占地面积350平方米，建筑面积150平方米。是我党在东北地区的重要革命遗址之一。",https://dimg04.c-ctrip.com/images/0106k120009hzqput0785.jpg
沈阳,辛巴达欢乐城堡,1409112,41.806259,123.486072,3.7,辛巴达欢乐城堡主题公园以阿拉伯较负盛名的民间故事《一千零一夜》中《辛巴达航海记》作为承载背景。为游客勾勒出了神奇魔幻的阿拉伯世界。在《辛巴达航海记》故事中，主人公辛巴达是乐观、勇敢、智慧的代言。这也正是辛巴达欢乐城堡要带给游客的理念。在欢乐城堡中，游客不仅可以通过游戏项目挑战自我，更能在与亲人朋友的互动中得到快乐。阿拉伯风情主题公园，建筑风格独特、不拘一格。仰望辛巴达欢乐城堡中那雄伟恢宏的巴比伦石柱，美轮美奂的雕刻壁画，每一处景致似乎都在向游客诉说着一段古老而又神秘的故事。辛巴达欢乐城堡在原22个游乐项目基础上，新增13个游乐项目，园区环境的提升！,https://dimg04.c-ctrip.com/images/100m1f000001gzpfwB65B.jpg
沈阳,南运河带状公园,9280,41.78024,123.428415,4.6,南运河带状公园位于沈阳市区的南部，建在绵延14.5公里的南运河两岸，从东至西连通了大东、动物园、万柳塘、青年、鲁迅、南湖等大公园。南运河带状公园内有18个景点，分别是：黎明园、东塔园、旭园、春哓园、滂江园、滨河园、夏芳园、萃园、怡静园、南中园、皂角园、文艺园、顺通园、振兴园、秋锦园、路园、阳春园、龙王庙园。各园的风格迥异，景色各具千秋。南运河沿岸绿树成荫，繁花似锦，不但美化了沈城环境，还在泄洪、排涝、改善环境、净化空气、调节气候等方面起到重要作用。,https://dimg04.c-ctrip.com/images/100w0j000000atkmnEBA6.jpg
沈阳,清宁宫,1685322,41.799172,123.455593,4.4,清宁宫位于沈阳故宫博物院内，为五开间前后廊硬山式，是清太宗皇太极和皇后博尔济吉特氏居住的“中宫”。室门开于东次间，屋内西侧形成“筒子房”格局，东梢间为帝后寝宫。宽大的支摘窗式样朴素，棂条皆以“码三箭”式相交，宫门亦不用隔扇式。正对宫门竖立祭天的“索伦竿”，此均为源自满族民间的传统风格。殿顶铺黄琉璃瓦镶缘剪边，前后皆方形檐柱，柱头饰兽面，檀枋施彩绘等，则是吸收汉、藏民族建筑艺术。,https://dimg04.c-ctrip.com/images/100o1f000001gp24z66A1.jpg
沈阳,沈水湾公园,9287,41.749436,123.42293,4.8,沈水湾公园位于沈阳市区南部，西临工农桥，南依浑河，占地面积30万平方米。是一座集餐饮、娱乐、旅游、体育多功能为一体的大型游乐场所。走进沈水湾公园，首先映入眼帘的是碧波荡漾的浑河，青翠的山葡萄装点着两岸，形成绿色的长廊，500只灯笼一字排开，宛如一条长龙，沿岸的1000个喷泉喷头喷出4米高的水花，景象十分壮观。沿河路的北侧是占地十万平方米的民族村，这里环绕着傣族、苗族、侗族、彝族、景颇族、白族、蒙古族和朝鲜族九个村寨，九个民族120名少数民族演员以民族建筑为背景，向游人展示民族歌舞、服饰及生活习俗。另外，沈水湾公园还设有大型露天游泳池、高尔夫球练习场、森林浴场、游乐场等场所可供游玩。,https://dimg04.c-ctrip.com/images/0105p120008jscpjk3211.jpg
沈阳,太平寺,9220,41.807591,123.426257,4.7,太平寺位于沈阳市和平区皇寺路，地处实胜寺南侧百米左右，建于清康熙四十六年（1707年），原为锡伯族家庙，是国家重点文物保护单位。康熙四十六年（公元1707年）由居住在盛京的锡伯族人集资修建，初建之时只有正殿五间，经过历代的维修和扩建，逐步形成了一座规模较大的寺院。 太平寺坐北朝南，有前后两进院落。寺内主要供奉释迦牟尼、八大菩萨、四大天王等佛像。在正殿的正中悬挂着“锡伯家庙”四个烫金大字的匾额，是咸丰年间驻守盛京的锡伯族协领色普铿额敬献。大殿前面原先立有锡伯文、汉文石碑，现仅存锡伯文石碑。碑上详细地记载着锡伯族迁移和编入八旗的史实及太平寺的创建过程。 解放后，沈阳市人民政府出资对太平寺进行了修缮，并于1985年将其公布为市级文物保护单位。同时，记载太平寺和锡伯族历史的石碑被列为国家一级文物，现收藏于沈阳故宫博物馆。 锡伯族和西迁节：锡伯族是我国北方一个古老的民族，能征善战，编入八旗后，因军事需要，迁移到盛京等地驻防，并在盛京建立起家庙，做为祭祀和集会的场所。乾隆二十九年（1764年）朝廷为增强新疆伊犁的边防力量，抽调1020名锡伯族官兵远赴伊犁戍边。当年的农历四月十八日，1千多名戍边将士和他们的家属及乡亲齐聚盛京太平寺，杀羊祭祀祖先和神明，祈祷一路平安。此后锡伯族同胞便将农历四月十八日做为“西迁节”，每年的这一天都要组织庆祝活动。,https://dimg04.c-ctrip.com/images/01041120009ed7x3x6EDB.jpg
沈阳,沈阳市铁西区劳动公园,9281,41.786438,123.337899,4.7,劳动公园位于沈阳市铁西区肇工街。占地面积34.7万平方米，有水面2.8平方米，是铁西区较大的综合性公园。公园内的湖泊水清如镜，盛夏可荡舟，严冬可溜冰的镜湖；有设置独特、相映成趣的趣园；有春风拂面，秋景迷人的春秋园；有知名作家周立波陪同亚非拉作家协会栽种的“友谊树”而得名的“友谊林”。还有荷花湖、大草坪等景点。,https://dimg04.c-ctrip.com/images/100n1f000001gpc042327.jpg
沈阳,辽宁古生物博物馆,1676507,41.908135,123.410303,4.3,辽宁古生物博物馆是我国迄今规模大的古生物博物馆，建筑外形上象一个庞大的地质体和一个巨型恐龙巧妙的结合：断层将地质体垂直切割，火山熔岩自上而下奔泻流淌，带我们走进辽宁30多亿年地质历史的长河。南侧的拱形建筑代表辽宁巨大恐龙的身躯，中间的钢架代表恐龙脊柱，两侧是恐龙的肋骨，而球体是恐龙蛋。21根恐龙肋骨的钢架象征辽宁人民21世纪挺拔的身躯，预示着辽宁美好的前程。物博物馆以科学性为主，以展示地史时期生命起源与演化为主线，以介绍30亿年来辽宁“十大古生物群”为主，具有鲜明的国际化特色。本馆共设8个展厅16个展区。第3厅介绍30亿年来“辽宁十大古生物群”，其中，鞍山群早期生命、燕辽生物群、热河生物群、辽宁的古人类是四大“亮点”。第4厅介绍世界的“热河生物群”，带大家走进一亿多年前辽西的“恐龙王国”、“古鸟世界”、“花的摇篮”等奇妙的史前世界。第8厅是气势磅礴的“辽宁大型恐龙厅”，8件产自辽宁的大型恐龙集体“亮相”，其中长达15米的“辽宁巨龙”是我馆发现和研究的新成果。,https://dimg04.c-ctrip.com/images/100h1f000001gruwt0515.jpg
沈阳,周恩来少年读书处,9235,41.795115,123.466041,4.9,,https://dimg04.c-ctrip.com/images/0100412000a0fuz1aB588.jpg
沈阳,惠工广场,1484433,41.81306,123.440343,4.7,沈阳惠工广场距离北站只有500米距离，周边交通及商业非常发达。各路公交线路及地铁可直达沈城各区。毗邻北站CBD商业区，工商银行、农业银行等国有银行沈阳总部均位于此。大型连锁超市家乐福位于惠工广场东面，阳光百货、华府天地购物中心位于惠工广场西面。此处为市中心繁华地段，易出现交通拥堵情况。,https://dimg04.c-ctrip.com/images/0101j120005s7uiks34D5.jpg
沈阳,南清真寺,9254,41.802446,123.438978,4.5,该寺位于沈阳市沈河区小西路，俗称“南寺”，此寺的创建人铁魁在清初有战功，官拜骑督尉，封显将军、光禄大夫，热心教门事业，施舍家资建造了这座寺院。后来经过康熙、乾隆、嘉庆历代的增建，形成今日的规模。,https://dimg04.c-ctrip.com/images/100u0j000000anmatAA41.jpg
沈阳,抗美援朝烈士陵园,9236,41.854916,123.452455,4.5,陵园始建于1951年，占地面积约24万平方米，由烈士纪念碑、烈士墓群和烈士纪念馆等组成。陵园的标志性建筑是高23米的四棱锥形纪念碑，由花岗岩砌成，正面刻有“抗美援朝烈士英灵永垂不朽”。纪念碑顶部是中朝两国国旗，旗下是手握冲锋枪的志愿军战士铜像，碑底部刻有1950-1953年，代表志愿军赴朝参战和美国在板门店签订停战协议的时间。烈士墓区分为东、西、北三个墓区，安葬着123位志愿军烈士。墓区的东南侧设有大型画廊和烈士纪念馆，以及420多幅珍贵历史图片和烈士生前使用的武器、勋章等遗物。,https://dimg04.c-ctrip.com/images/100b0f0000007ezlsB065.jpg
沈阳,辽宁大剧院,1685734,41.804455,123.436821,4.6,辽宁大剧院座落于沈阳市市府广场东侧的，外部造型是辽西地区出土的代表红山文化的玉猪龙造型，内部装饰设计庄重典雅。功能齐备设有大剧场、小剧场、电影厅、多功能厅、餐厅、酒吧、排练厅、演员配套公寓和地下停车场。其中大剧场共设1276座，用于上演芭蕾、歌剧、交响乐、大型综艺晚会及戏曲等各种艺术门类演出；小剧场共设300座位，可以进行小剧场话剧、歌舞剧和室内乐的演出。大、小剧场全部分两层看台，每层看台间的比例按视觉，听觉各结构的和谐而确定。大剧场舞台宽广，台前的乐池可容纳100人的大型乐队，旋转、升降、可伸缩的巨型舞台和较好的灯光、音响都代表了辽沈地区观演剧场的高水准。另外各类大小不同的排练厅、制景间和化妆室，可以适合国内外各类艺术团体进行排练演出。,https://dimg04.c-ctrip.com/images/0100m12000f6f9oexD335.jpg
沈阳,百鸟公园,114103,41.829952,123.401293,4.5,百鸟公园位于沈阳市皇姑区崇山路与怒江街交叉口的东南侧。这里早期是一位名叫曾希庭的私家樱桃园。1938年被当局征用兴建水源地。这项工程由日人白鸟组织施工。所以1939年建公园时便以“白鸟”为公园名称。1951年更名为“百鸟公园”。百鸟公园在1939年初建时只是为保护水源而栽种一批树木。1989年，此园租赁给中海直公司东北分公司20年，该公司在园内已建柏油环园路、动物饲养场、野猪舍一座、童乐城、固定游艺场7处、儿童乐园二处、雕塑小品二座，不同风格建筑物五座、假山两座等等。,https://dimg04.c-ctrip.com/images/0103x120008iwg97s4AE8.jpg
沈阳,般若寺,9253,41.782451,123.459353,4.4,般若寺顾名思义，“般若”二字在佛学中是智慧之意，意味着佛海无边智慧无穷之意。沈阳般若寺于清朝二十三年由一名僧人建造，寺庙本身在一座山上，无法乘车前往，徒步登山反而有一种别样的情趣。寺内建筑齐全，分为天王殿，大雄宝殿，祖师堂，藏经楼等，规模宏大，气势恢弘。然其庙有如今规模，也是通过不断修缮所致，特别是1924年进行的修缮奠定了今天的格局。般若寺是一所拥有悠久历史，韵味浓郁的寺庙，登山，观庙，拜佛，绝对一举三得！般若寺由高僧古林禅师于清康熙二十三年（1684）修建，曾两次重建。20世纪60年代中期遭到破坏，1979年后进行了维修，重修塑像。在1984年10月建寺300年时，举行了佛像开光仪式。1985年被公布为市级文物保护单位。,https://dimg04.c-ctrip.com/images/100o1f000001gp5lyE4A8.jpg
沈阳,北塔碑林,9259,41.830757,123.451309,4.6, 北塔碑林位于北塔街27号，北塔建于清崇德年间（1643-1645年），是清初四塔中，至今保存完整的一座。1985年，修缮了北塔及古建筑群，并在塔的西侧辟建了沈阳碑林。北塔碑林现为市级文物保护单位。展出有《盛京图》等图片资料和沈阳古城沙盘模型，并辟有记载着沈阳历史的石刻碑林。北塔碑林前有山门，有大雄宝毁。其两侧有东西配殿，东北角有藏式塔一座。整个景点内有内容丰富的陈列展出：在西配殿有《康熙皇帝东巡图》、巨幅国画《康熙东巡图》及有关图片资料；在东配殿有“盛京古城风貌”陈列，展有巨幅风俗国画《盛京图》及有关沙盘模型、图表、照片等。北塔西侧的沈阳碑林始建于1987年，是沈阳地区明清时期石刻的荟萃，有从辽沈地区收集来的石碑100多通，内容包括文化教育、古城建置、庙宇维修、慈善募捐、人物志等，记述着古城文化的历史沿革、地理、风貌、城市建制和风土人情，集历史与艺术书法价值于—身。,https://dimg04.c-ctrip.com/images/0105l120008cevrkg3B42.jpg
沈阳,科普公园,114123,41.761826,123.440137,4.6,科普公园位于沈阳科学宫的南侧，公园绿树成荫，花香四溢，是目前全国较大的科普公园。科普公园将科学宫、天穹影院、夏宫、五里河体育场，以及规划中的海洋宫连成一片，是人们散步，学习的好去处。,https://dimg04.c-ctrip.com/images/10081f000001gqhuw53C5.jpg
沈阳,重型文化广场,114153,41.813658,123.38248,4.5,沈阳市铁西区重型文化广场是一个于民于乐的广场，广场核心建筑“持钎人”主题雕塑，选取了沈阳工业文明中具有象征意义的典型形象，用抽象写意的手法再现了两名持钎的炼钢工人在形似铁水包的舒卷着的红旗下辛勤劳动的景象。在“持钎人”的南边，刻意保留了沈重70年前老厂房建筑群的主体框架，并进行了保护性修饰，建成“铁西1905·创意文化园”。,https://dimg04.c-ctrip.com/images/0103312000auh79zs679A.jpg
沈阳,沈阳奥林匹克体育中心,1833496,41.741045,123.463641,4.8,沈阳奥林匹克体育中心，简称“沈阳奥体中心”，是位于辽宁省沈阳市的一座体育中心。工程为一场三馆式布局，“一场”为主体育场——五里河体育场；“三馆”为综合体育馆、游泳馆、网球馆。其中主体育场是奥体中心建设的重中之重，因为须要继承老五里河体育场的辉煌。该体育场建筑面积为14万平方米，占奥体中心总建筑面积的一半还多，建成后可保证6万名观众在体育场中同时观看比赛。,https://dimg04.c-ctrip.com/images/01011120008jt7iz628AE.jpg
沈阳,仙女湖公园,114099,41.776866,123.336203,4.6,仙女湖公园位于沈阳铁西新区，公园占地面积8.6万平方米，其中水面面积4万平方米，是沈阳市有名的内湖公园。仙女湖公园内碧波荡漾，景色宜人。公园内以休闲娱乐为主题，园区内建有景观雕塑、特色园艺小巷、儿童游艺区等，成为铁西新区的一大新景观。,https://dimg04.c-ctrip.com/images/0100t120009dlz8e445E8.jpg
沈阳,工人村生活馆,1685802,41.793456,123.331062,4.8,"沈阳工人村生活馆位于铁西区赞工街2号，由建于20世纪50年代的7栋工人宿舍楼半合围而成，包括一个院落、工人村宿舍旧址、铁西人物馆、劳模活动中心和美术馆等，总占地面积1.5万平方米。
工人村生活馆按照年代发展，在宿舍楼内，通过当年的实物、图片和文字说明，分上下三层分别复原了工人村老住户的居住与生活场景，保留了50至90年代的集体记忆，让人印象深刻，感慨回味。",https://dimg04.c-ctrip.com/images/100f170000011hclzB0C2.jpg
沈阳,怪坡国际滑雪场,134214,42.053894,123.649561,4.4,沈阳怪坡滑雪场位于距市区25公里的沈北新区怪坡风景区内，沈铁102国道、沈哈高速等交通干线都能到达雪场。雪场总占地面积500余亩，建成后总雪道面积20万平方米，是沈阳目前规模大的滑雪场。雪场拥有高等滑雪道两条，中级滑雪道两条，初级滑雪道两条，雪上飞碟道一条，单双板公园一条，同时配有单板U型槽、猫跳、空中技巧训练场等，还特别为喜欢的游客开辟了5万平方米的冰雪娱乐区。宽阔的雪场能满足4000人同时滑雪娱乐，高日接待能力可达8000人，年销售额近千万元。雪场的VIP贵宾厅、中西式餐厅、咖啡厅、雪具专卖店、超市等服务设施随时为滑雪者提供好的服务。,https://dimg04.c-ctrip.com/images/1lo3o12000cl8neow9553.jpg
沈阳,沈铁文化宫刘老根大舞台,4384342,41.786647,123.402213,4.4,“刘老根大舞台”沈铁文化宫剧场开办于2007年，地处沈阳繁华的太原街商圈，步行至沈阳站仅需10分钟，是本山传媒的第五家连锁剧场。精彩的演出、优质的服务、低廉的票价是“刘老根大舞台”沈铁文化宫剧场的特色。本山传媒旗下诸多极具潜质的优秀演员都在此演出，小沈阳、“赵四”（刘小光）等都是在这里逐渐为大家所熟知并迅速走红的。,https://dimg04.c-ctrip.com/images/100r0r000000h9k9l0D4E.jpg
沈阳,辽宁省科学技术馆,1832142,41.675525,123.460122,4.5,辽宁省科学技术馆由常设展览、短期展览、科普影像厅、培训实验室、科普报告等项目组成，是一座集科普教育、科技交流、休闲旅游为一体的综合性科技馆。场馆由常设展览、短期展览、科普显著效果影院、培训实验室、科普报告等项目组成，是一座集科普教育、科技交流、休闲旅游为一体的综合性科技馆。馆内设探索发现、创造实践、工业摇篮和科技生活四个常设展厅及儿童科学乐园，内容涵物理、化学、天文、地理、生命科学、安全避险、航空航天技术、交通、军工、计算机电子技术、信息网络、环境科学、新型材料、辽宁工业产业等多项学科领域。展品将科学性、知识性、趣味性有机融合，让观众在动手参与、亲身体验中获得科技知识。寓教于乐，使观众产生身临其境之感，切身感受高科技带来的科学震撼与艺术享受。培训实验室设有先进的科学实验设备，按照“家、师、匠”的理念，旨在培养学生的动手操作能力，对科学知识的探索能力和认知能力，使之成为学校实验教育的延伸和补充。另外，还设有科普报告厅、多功能、视频、专家等不同规模的会议室，具有承办国际会议、产品展示、新闻发布等功能。,https://dimg04.c-ctrip.com/images/0106i12000f6sn47bCF8C.jpg
沈阳,文溯阁,1685323,41.799011,123.454401,4.6,文溯阁建于1782年（乾隆四十七年），专为存放《文溯阁四库全书》而建，另有《古今图书集成》亦存于阁内，是沈阳故宫西路的主体建筑。文溯阁建筑形式仿照浙江宁波的天一阁，面阔六间，二楼三层重檐硬山式，前后出廊，上边盖黑色琉璃瓦加绿剪边，前后廊檐柱都装饰有绿色的地仗。所有的门、窗、柱都漆成绿色，外檐彩画也以蓝、绿、白相间的冷色调为主，这与其它宫殿红金为主的外檐彩饰迥然不同。其彩绘画题材也不用宫殿中常见的行龙飞凤，而是以“白马献书”、“翰墨卷册”等与藏书楼功用相谐的图案，给人以古雅清新之感。采用黑色琉璃瓦为顶，主要是为了使整座建筑外观风格相统一。文溯阁后面，有抄手殿廊连接着仰熙斋，斋后为九间房，其中有芍药圃、梧桐院等。这是乾隆皇帝“东巡”时的读书之所。,https://dimg04.c-ctrip.com/images/0105z12000awh499nDA60.jpg
沈阳,沈阳市万柳塘公园,114160,41.7806,123.465522,4.8,"万柳塘公园位于沈河区万柳塘路，因柳树种类和数量的众多而得名。万柳塘在清代被誉为“柳塘避暑”而被列入盛京八景之一。清代嘉庆年间诗人张祥河曾为“夹道浓荫直到城”的优美诗句咏赞清幽爽人的万柳塘美丽风光。
万柳塘公园建有大型文化广场 、音乐喷泉、现代雕塑、儿童游乐场、童乐城、增设草坪、花圃、果园、梅园、枫树林等，是集休闲、娱乐、游览为一体的具有文化品位的自然园林。",https://dimg04.c-ctrip.com/images/100j1f000001gps305772.jpg
沈阳,浑河晚渡公园,1695944,41.745366,123.351858,4.8,浑河晚渡公园位于浑河沿岸，内绿树成荫，空气新鲜。这里有散步的，跳舞的，非常热闹，是休闲放松的好去处。,https://dimg04.c-ctrip.com/images/0105n120008if2hpm5632.jpg
沈阳,二战盟军战俘集中营旧址陈列馆,1677133,41.809131,123.491409,4.7,沈阳二战盟军战俘营旧址，是二战时期日本在沈阳设立的一个专门关押太平洋战争中受俘盟军的场所，时称“奉天俘虏收容所”。陈列馆由史实陈列馆、战俘营房、日军办公用房、遗址纪念广场等几部分组成，占地面积1.2万余平方米。陈列馆内的雕塑根据两名美国战俘越狱后被抓关进地牢的史实而创作的。,https://dimg04.c-ctrip.com/images/100o1f000001gp3ikA214.jpg
沈阳,十王亭,1685306,41.798424,123.457063,4.6,十王亭位于沈阳故宫大政殿两侧，是满族八旗制度在宫殿建筑的反映，此建筑布局为中国古代宫廷建筑史所仅见。十王亭是清初八旗各主旗贝勒、大臣议政及处理政务之处。这种君臣合署在宫殿办事的现象，历史上少见。,https://dimg04.c-ctrip.com/images/10020z000000ngpglB71A.jpg
沈阳,盛京文旅七星海世界,2016697,41.956375,123.415952,4.0,七星海世界，是一座海洋主题综合型亲子乐园。项目由沈阳永盛七星旅游发展有限公司斥资25亿元打造，总占地21万平，位于辽宁省沈阳市沈北新区七星大街53号，沈北新区核心版块。七星海世界作为目前国内很大的海洋主题室内亲子乐园，打造“全室内、全天候、全季节”游乐业态，能给予每个孩子欢乐的童年时光。项目集室内外水上乐园、室内外游乐场、海洋科技馆、室外戏雪、温泉养生、酒店会议与海鲜特色餐饮七大主题于一体，在侧重体验感的同时，增强科技成分，能令游客在缤纷奇幻的海洋世界中感受到无限的欢乐。项目共分两期开发，一期分为室内、室外两大游乐区，其中室内海世界城堡单体建筑面积近8万平。室外乐园近14万平，包含造浪池、冲天回旋、巨洪峡等水上娱乐项目。七星海世界全年运营，一年四季精彩不断，这里不单能让孩子们享受更充实而美好的童年，更能为成年人提供一个可以随时安放童心的角落。共享亲子时光，让陪伴成为一种习惯，如宣传推广语写的一样：“七星海世界，有海更童年。”在这里，每个家庭能收获一次惊喜满满的旅程，为每位游客增添美好回忆。七星海世界的主题人物是七个勇敢可爱的小海星，他们打败了利莫里亚星人，最终保卫了地球。这七个小海星就是我们原创大IP，未来它们还将登陆大荧幕，走进千家万户，成为孩子们的好朋友。游客们来到我们乐园，也将跟随小海星们启一场紧张刺激的冒险之旅。 七星海世界，有海更童年。,https://dimg04.c-ctrip.com/images/10051f000001gstur22D8.jpg
沈阳,抚近门,1696066,41.797346,123.463708,4.5,抚近门俗称“大东门”，是清代的沈阳城九门之一，建于天聪元年至天聪五年（公元1627-1631年），后拆除。抚近门于1998年复建，位于盛京古文化街东部，与西部的怀远门相对而望。抚近门高20米，占地面积556平方米，建筑面积500平方米，是沈阳标志性建筑。抚近有安抚近邻之意，当年其他少数民族进入沈阳，拜谒皇太极，都走抚近门。抚近门具备一定的礼仪功能，同时抚近门位于古城的正东，是每天太阳升起的地方，也有紫气东来的吉祥寓意。,https://dimg04.c-ctrip.com/images/0103z120008jsawcoA395.jpg
沈阳,碧塘公园,114156,41.820269,123.415545,4.6,碧塘公园位于沈阳市皇姑区长江街，始建于1939年，是皇姑区的一座大型公园。园内建有亭喷泉，还设有儿童娱乐区，秋千6组滑梯一座、宇航车一组、电动小火车电动小汽车等大型空中脚踏车。在相当长的时间里，公园不断丰富自己的内容，成为了沈阳一处小有名气的标志性地段。,https://dimg04.c-ctrip.com/images/0104a12000aucqj2fD705.jpg
沈阳,沈阳水洞森林自然保护区,1685369,41.593626,123.737044,3.3,沈阳水洞风景区位于白清寨乡，水洞置身于群山怀抱之中，洞外山川秀丽，鸟语花香。洞内蜿蜒进伸800余米，曲径通幽，水帘银瀑，凉爽宜人，别有洞天。身临古洞顿感光怪陆离，如入仙境。以薛礼征东为主线的梦扰青龙等十八组浮雕，在五色彩灯的交相辉映下，栩栩如生，犹如身临其境一般，是人们避暑纳凉和旅游观光的好去处。,https://dimg04.c-ctrip.com/images/0ww36120009rl8f8j0A1C.jpg
沈阳,1905文化创意园,1834123,41.812386,123.382504,4.6,铁西1905创意文化园，是以沈阳重工厂几十年前的老厂房建筑群为主体框架，经过改造而成。走进这里浓浓的历史沧桑感扑面而来。这是很多沈阳老一辈人工作一生的地方。如今创意文化园中分布着咖啡厅、酒吧和餐厅，还有各种文艺青年喜欢的文艺小店，市场还会有音乐会与展览等。,https://dimg04.c-ctrip.com/images/1A0113000000u90ls8DE0.jpg
沈阳,沈阳理工大学-兵器博物馆,1677118,41.726986,123.492121,4.6,沈阳理工大学兵器博物馆由室内展馆和室外兵器广场两部分组成，室内展教面积约4000平方米，兵器广场展教面积约为6000平方米。室内展馆主要展示各类常规武器弹药、引信、军事器材和模型；兵器广场主要展示坦克、火炮、飞机等大型武器装备。现有各类展品共计630余种、2250余件。兵器博物馆室内展馆分为前言展示区、陆海空及轻武器展示区、炮弹及火箭弹及工程兵装备展示区和引信展示区五个部分。展区利用大量详实的图片、实物及模型，运用多媒体及声、光、电技术展示了现代战争的场景，全面介绍了现代兵器的种类、性能、原理和相关知识。,https://dimg04.c-ctrip.com/images/0105r12000f6reoaz6AFF.jpg
沈阳,克俭公园,1695943,41.809733,123.404936,4.7,克俭公园位于沈阳皇姑区阿里山路，园内绿树成荫，空气新鲜，并配备有供市民锻炼的健身器材。清晨不少市民会来这里打太极，跳健身舞等，是一个散步休闲的好去处。,https://dimg04.c-ctrip.com/images/100h170000011iwhfDEFA.jpg
沈阳,将军公园,114116,41.834451,123.4329,4.5,将军公园位于沈阳皇姑区新开河沿岸，园内绿树成荫，绿化面积大，空气新鲜。公园种植有各类花草，环境迷人秀丽，并配备有各种健身器材供市民使用，是放松休闲的好去处。,https://dimg04.c-ctrip.com/images/100w170000011nd6195FC.jpg
沈阳,百合塔,1696046,41.86324,123.657641,4.8,百合塔是沈阳世界园艺博览会内四大主题建筑之一，塔高125米，是世界上大的雕塑体建筑。造型似绽放的百合花，寓意沈阳百业兴盛，和谐发展，是全园的至高点。登临95米和100米处两个观景台，可鸟瞰全园风景。百合塔从地面到70米高度都是规则的椭圆柱体，从70米到顶部120米之间，利用钢结构逐渐“悬挑”，每高一节都要向外探伸，并在95米和100米处，分别建设两层观光平台。游客登塔俯瞰，需从两层地下室进入塔内，搭乘每秒2.5米的高速电梯升顶。为方便残疾人抵达高速电梯口，百合塔特意安装了一部只有5米多升降区间的电梯，供残疾人专用。此外，游客也可以由步行楼梯，走上百合塔观光平台。,https://dimg04.c-ctrip.com/images/0106w120008aotfrxE89C.jpg
沈阳,仟睿达水上世界,1417796,41.964135,123.478527,4.3,仟睿达水上世界位于沈阳沈北新区蒲河生态廊道冬雪湖公园，这里遍地鲜艳的野花、密布野生的蒲草，无忧无虑的水鸟，争着抢食的观赏鱼，让你回归自然、享受自然。这里设有游船、自行车、滑草场、采摘园、自助烧烤、生态放养、超级大喇叭、动漫迷城水寨、合家欢大滑板滑梯、儿童戏水池、海浪池、沙滩浴场、充气城堡、儿童蹦极、欢乐喷球车、旋转木马、熊出没等20多项游乐项目。另外，游客在园区内可以免费观赏红门鲤鱼、日本锦鲤等7类45万条观赏鱼。园区内还设有自助烧烤区，提供桌椅、炭火和烤具等一系列烧烤所需物件，你可以与亲友在这里享受DIY的乐趣。,https://dimg04.c-ctrip.com/images/100b1f000001gspo90E06.jpg
沈阳,万泉游乐场,1410537,41.789026,123.477865,4.5,沈阳万泉游乐场位于沈阳大东区万泉街1号（小河沿动物园内），是沈阳目前大的户外游乐场。始建于1906年，是沈阳早的园林，原名“小河沿”，是沈阳市园林，历史悠久。解放后改名为“万泉公园”，1979年5月又改名为“沈阳动物园”。在动物园未搬迁前，是沈阳市儿童游玩的快乐之地在不破坏现有绿化及群众休闲功能前提下，建设大型游乐场，必会重现昔日小河沿庙会盛况，为沈阳市民增添一处高层次休闲游乐场所。万泉游乐场于2012年开放，其中游玩项目极多，有极速风车、激流勇进、狂呼、碰碰车、双层转马、赛车、摇头飞椅、探空梭、太空漫步、鲨鱼岛、仿古小火车、迪斯科盘、弹跳机、森林狩猎、疯狂老鼠、鲤鱼跳龙门、手摇船、自控飞机、儿童过山车等。2014年，现新增“3环成人过山车”，惊险刺激。并新增项目88米“东北高摩天轮”，已闪亮登场。,https://dimg04.c-ctrip.com/images/0100s120008s7gc25A753.jpg
沈阳,浑河,1831444,41.750027,123.37847,4.9,"
浑河古称沈水、贵端水，原为辽河支流，发源于中华人民共和国辽宁省清原县湾甸子镇滚马岭西侧，向西南纵贯辽宁东部，沿途主要城市有抚顺、沈阳、鞍山等，河道长约415.4千米，流域面积达11481平方千米，在海城西四镇的三岔河上游马圈子与太子河和外辽河汇合成为大辽河在营口西侧注入辽东湾。",https://dimg04.c-ctrip.com/images/100m11000000rmv1hE0CB.jpg
沈阳,关雎宫,1685325,41.799074,123.455883,4.2,关雎宫亦称东宫，是皇太极一生中宠爱的宸妃海兰珠的居室。宸妃是蒙古科尔沁部贝勒宰桑之女，也是中宫皇后哲哲的亲侄女。海兰珠归嫁皇太极时已经26岁，崇德元年皇太极册封后妃时，海兰珠后来者居上，被封为东宫大福晋，并把其居住宫室命名为“关雎宫”。“关雎”一词源于《诗经》首篇“关关雎鸠，在河之洲。窈窕淑女，君子好逑”的诗句，这是一首千古爱情绝唱，把内涵这样丰富的名字赋予了海兰珠所住的宫室，足见皇太极对海兰珠的特殊感情。,https://dimg04.c-ctrip.com/images/100p1f000001gpfgyBBEC.jpg
沈阳,大东广场,114152,41.818874,123.463925,4.8,沈阳大东广场处在由联合路、北边城路（新开河）、大北关街，清泉路围成的不规则五角星地形内正中央，呈标准的圆形，总占地面积约为11.8万平方米，相当于沈阳市府广场的二倍，是集休闲、文化活动、庆典集会等多种功能为一体的大型景观化城市广场。这里举办过多次大型文艺活动，属于沈阳市大东区的主要广场，也是沈阳首座大型山水绿地文化广场。,https://dimg04.c-ctrip.com/images/01006120009ymcy542A99.jpg
沈阳,沈阳奥体冰雪嘉年华,1792144,41.740501,123.463964,4.5,沈阳奥体冰雪嘉年华位于沈阳奥体中心内，是沈阳市的大型体育文化冬日旅游活动。整体占地面积15万平方米，园内社有冰雕雪雕展、彩灯展（每晚17:00-21:00）儿童城堡冰滑梯、儿童雪滑梯、抽冰嘎、雪地滚球、亲子趣味运动会、雪球大战等雪地游玩项目。,https://dimg04.c-ctrip.com/images/1lo2t12000hjm9x23E365.jpg
沈阳,盛京碑林公园,114109,41.834531,123.379941,4.5, 舍利塔滩地公园位于辽宁省沈阳市皇姑区西部，为沈阳较大的滩地公园，是一座集宗教、文化、旅游、商业服务为一体的综合性休闲公园。公园内绿树成荫，以北运河为界，分为南北两个园区，并将无垢净光舍利塔作为中心，建设了“云海净土”、回龙寺“寺前广场”、“舍利塔院”、“放生池”、“紫山八岭”和“回龙寺”六大主题景区。,https://dimg04.c-ctrip.com/images/0101d120008jsfgb99E0C.jpg
沈阳,铸造博物馆,1676485,41.821114,123.354855,4.9,沈阳铸造博物馆是在沈阳铸造厂原址的基础上改建的，占地4万平方米、主体建筑1.78万平方米的铸造博物馆，馆藏1523件铸造设备和铸件，再现了多年前铸造车间工人生产时的场景。馆内存放钢水包、铸件、设备等实物，展示了七大铸造工艺流程，并运用大量的图片、文和音像，形象再现了铸造厂车间工人生产时的场景。,https://dimg04.c-ctrip.com/images/0101m12000bbmlupq7AF9.jpg
沈阳,中华寺,63249,41.766284,123.787808,2.3,中华寺位于抚顺市抚顺县拉古乡刘山村内的拉古河畔，在沈阳市东陵区王滨乡中华寺村、中华寺庙山之上，横跨沈阳、抚顺两市，是集佛教、道教于一身的大型宗教旅游风景区。中华寺始建于唐朝，距今有一千多年的历史，现在重新修复的中华寺处于龙首之腰，离唐朝原址稍偏，变魏征镇龙之图为如今释龙如水之意。中华寺整个建筑采用唐朝建筑风格，气势恢宏，雄伟壮观，布局呈风气水生、龙腾虎跃之象。现在这里是颂扬儒学、展示佛道文化与民族艺术的东北佛道宗教文化活动中心。现在的中华寺风景区由中华寺、万寿宫、念佛堂、讲经堂、高僧塔院、中华万佛塔以及中华寺佛家墓园组成。,https://dimg04.c-ctrip.com/images/100n1f000001gpcs2062A.jpg
沈阳,兴华公园,114127,41.787903,123.364114,4.4,兴华公园位于沈阳市铁西区兴华南大街，始建于1939年，原名嘉应公园，1946年改名为兴华公园。园内建有花卉温室、鱼窖，喷泉，一座高8米，占地400平方米的假山，还有一座儿童乐园，设宇宙飞船、电瓶车、小火车、碰碰车等儿童游具。园内还设有一座面积为700平方米的“西园舞厅”，还建假山瀑布、蘑茹凉亭等设施，栽种针叶树、阔叶乔木等植物，是娱乐和休息的良好场所。,https://dimg04.c-ctrip.com/images/0101612000as72lzcB323.jpg
沈阳,辽宁中医药大学-博物馆,1677172,41.832068,123.43303,4.6,辽宁中医药大学博物馆坐落于辽宁中医药大学校园内，位于沈阳市城区北部，毗邻北陵公园。建筑面积约2000余平方米，展示了我国传统中医药学几千年发展的轨迹和成就。博物馆由医史馆、人体生命馆和校史馆组成。,https://dimg04.c-ctrip.com/images/0102712000awyaoghB0C2.jpg
沈阳,苏联红军阵亡将士纪念碑,9240,41.853515,123.453191,3.7,该纪念碑是为了纪念在解放沈阳战役中牺牲的苏军部队将士而立。纪念碑碑身为方柱形，用花岗岩条石砌筑，分碑顶、碑身、基座三部分。,https://dimg04.c-ctrip.com/images/0104m12000c53ge38A486.jpg
沈阳,花溪地温泉生态乐园,1787744,41.685992,122.968741,4.3,花溪地温泉生态乐园是拥有多种温泉汤池、健康养生足道、舒适经济客房、地道农家菜餐厅、农副产品供应中心等旅游度假采摘为一体的综合性温泉休闲庄园。园区采用徽派仿古与江南园林相结合的建筑风格，各种名贵花种移植于广州花卉种植基地，温泉水引至当地杨士岗镇靠山屯天赐温泉。生态温泉泡汤区被环形喷泉廊所环绕，一条清澈水道蜿蜒如河流，贯穿整体，婉如置身于闽南热带庄园于其中。生态温泉泡汤区有各具特色、室内和户外温泉生态泡池三十多个，保健、鱼疗、养生的泡汤池，掩映在热带雨林之中，腾腾上升的温泉水气都会让你幻如置身梦境，享受一人一天堂、一人一世界的至高体验。花溪地温泉给每一位客入提供一处美妙、时尚的第三生活空间，感受天人合一的梦幻世界。充满梦幻力气的儿童水屋，让孩子玩的痛快淋漓，乐而忘返。,https://dimg04.c-ctrip.com/images/100m0a0000004lhq26599.jpg
沈阳,辽宁大学(崇山校区),1832049,41.833268,123.406364,4.7,辽宁大学（Liaoning University）简称“辽大”，是一所辽宁省主管的具备文、史、哲、经、法、理、工、管、艺等九大学科门类的综合性重点大学，是国家“211工程”重点建设院校、辽宁省重点建设高校，入选国家卓越法律人才教育培养计划、国家建设高水平大学公派研究生项目、国家大学生文化素质教育基地、教育部高校辅导员培训和研修基地、全国古籍重点保护单位等设有国家经济学基础人才培养基地的十三所高校之一。辽宁大学源起于1948年11月东北人民政府在沈阳建立的商业专门学校，是一所专门商科高校，建校之初即招收四年制本科生。1958年9月15日，东北财经学院、沈阳师范学院的的部分科系和沈阳俄文专科学校合并，组建成辽宁大学。截至2018年6月，学校有三个校区，即沈阳崇山校区、沈阳蒲河校区和辽阳武圣校区，学校设有27个学院；本科专业72个；硕士学位授权点27个，专业硕士学位授权点26个，博士学位授权点12个，博士后流动站8个；国家重点学科3个；全日制在校学生近2.5万人，其中本科生1.7万人，研究生7000余人；各类留学生1800余人；专任教师1330人，其中教授298人、副教授501人，博士生导师167人。,https://dimg04.c-ctrip.com/images/10081f000001gqgsv2F76.jpg
沈阳,奥林匹克生态公园,2479242,41.751556,123.463569,4.8,浑南较大的滨河公园，景色很好。尤其是夜晚，闪烁的霓虹倒映在清澈的河面，温柔又美丽。浑河两岸芳草如茵，高楼林立，一片繁华的景象，小桥、流水、树林，这里的一切都展现着沈阳的魅力。现在，这里更是成为囊括足球、篮球、乒乓球等球类运动，各种器材组合的有氧健身活动，笼式足球、轮滑等新潮运动为一体的全民健身基地。,https://dimg04.c-ctrip.com/images/100o1f000001gp4er13A3.jpg
沈阳,北市场,4337342,41.807497,123.423357,4.5,北市场地区位于沈阳市和平区北部，东以北三经街为界与沈河区相望，南以市府大路为界和遂川街道相邻，西以南京北街为界与西塔街道相连，北以哈尔滨路为界与北道口街道相接。辖区面积0.95平方公里，下辖总站路、皇寺路、北市以及市府路4个社区，是一个集购物、文化活动、旅游观光、宗教活动于一体的繁华地区。,https://dimg04.c-ctrip.com/images/0101212000k0tcsq11ADA.jpg
沈阳,老北市博物馆,1677182,41.806587,123.425795,4.8,老北市民俗博物馆位于老北市文化园三楼西侧，建于2012年12月初，是沈阳市第一家反映老北市历史和民俗的博物馆，博物馆以和平区老北市场的特色文化为依托，将通过文字、模型、视听等方式，生动地再现老北市的主要历史事件和风土民情，讲述老北市的故事，旨在将反映老北市繁华景象的老故事、老照片、老物件、艺术品展现给广大市民及游客，展示中国民间传统文化的独特魅力。老北市民俗博物馆将在展览展示的基础上，充分借助皇寺寺庙文化、民俗古玩与中华老字号等特色街的物质文化底蕴，以传统相声为主，加入小品及“奉天落子”这个和平区非物质文化遗产的演出形式展示给广大群众，让民间艺人艺术再现老北市生活。,https://dimg04.c-ctrip.com/images/0101n120009dnczhjB4AA.jpg
沈阳,宋雨桂艺术博物馆,1695562,41.734612,123.407599,4.9,宋雨桂艺术博物馆位于沈阳长白岛内河南岸，博物馆建筑面积约1.12万平方米，这是辽宁首座以艺术家名字命名的艺术博物馆。宋雨桂艺术博物馆是以展示宋雨桂的书画艺术和收藏品为主要功能的艺术馆。这其中不仅有他穷其一生不断追求的不同时期的代表画作，更有他数十年来呕心沥血游走于祖国各地收集的艺术珍品。12000平米的展馆，一楼是综合展馆，主要用于展示石刻、石像、石碑以及天然奇石等。二楼则是宋雨桂美术作品展区，其中一间弧形展室为特别，它是专门为展示《新富春山居图》而设计的。三楼是艺术工作室，除了为宋雨桂提供创作场所之外，还摆放了大量稀有的木刻、木雕艺术品，以及古家具，其中大部分为金丝楠木制成。,https://dimg04.c-ctrip.com/images/0105h12000athtn84282A.jpg
沈阳,沈阳城市记忆博物馆,1695564,41.806467,123.42796,4.8,阳城市记忆博物馆是以沈阳历史和民俗为题材的博物馆。博物馆共分为盛京记忆馆、奉天记忆馆、红色记忆馆、民俗记忆馆和北市记忆馆等8大展馆，展示来自沈阳民间的近万件藏品。博物馆内展示有一座城市的历史通过这些旧物被回放；老沈阳人喜欢穿的靰鞡鞋、狗皮帽；日常生活用的纺车、缝纫机、酒瓶子、咸菜缸、烟袋、火盆等等老物件让老沈阳人重拾记忆。此外，二三十年代的结婚证、契证等等，在这里也都有展示。,https://dimg04.c-ctrip.com/images/0102e120008ouo6su9928.jpg
沈阳,沈阳印记,1411904,41.837216,123.456472,4.7,沈阳印记浓缩沈阳地方艺术的精华，成为沈阳文化及旅游市场中的代表作。节目形式包括歌舞、杂技、魔术、绝活、戏曲、器乐等。俄罗斯舞蹈和满族舞蹈各展韵味。开场序十分特别，彩绘师现场表演人体彩绘，表演融汇了绘画、舞蹈、音乐、人体等艺术形式，是难得一见的创意。此外，演出地点梨园剧场进行的装修改造也是改头换面的，将原来的“中式戏园”改造为“欧式剧场”，将“单点演出”改造为“多点演出”，观众席中搭建一个40平方米的玻璃舞台，演员贴近观众，增强互动效果。,https://dimg04.c-ctrip.com/images/0103k1200056wahkv9B6B.jpg
沈阳,大东公园,114125,41.795651,123.496318,4.4,大东公园原是东三省兵工花园，始建于1925年11月。奉系军阀张作霖耗巨资，圈地12万平方米，从南方聘请能工巧匠，仿照杭州西湖十景兴建的工人游园。其建园之早、规模之大、园内设施之独特，堪称沈阳古城各公园之首。现在，大东公园作为区属公园，虽不及沈阳其他的大型公园，但也是市民休闲、健身的好场所。,https://dimg04.c-ctrip.com/images/0102012000941djnr65FD.jpg
沈阳,东塔园,1694986,41.797978,123.506913,4.3,东塔位于沈阳大东区东塔街，是护国永光寺的附属建筑物，为清太宗敕建。东塔占地约225平方米，塔高约33公尺，由基座、塔身、相轮三部分组成。基座为方形束腰须弥座，上下部有方框，中部四角和每面中间有两根石质立柱，柱上都雕有宝相花。西著莲等纹饰，每面三个壶门，中间置砖雕宝盆和火焰，左右壶门有高大凸起的砖雕雄狮，上框上面三层砖砌园形坛座，层层内收。在塔基上是宝瓶式塔身，塔身的南面辟有佛龛，龛内用木板镶嵌。塔身上面为一方形坛座，砖砌一十三层相轮。东塔上面部分为塔刹，由铜铸空盖、日、月、宝珠所组成。宝盖周围配有风铎，微风吹动，发出清脆响声。这座塔的造型古朴优美，雄伟壮观。,https://dimg04.c-ctrip.com/images/1008170000011hiyp5F44.jpg
沈阳,长白岛森林公园,2022941,41.751339,123.387224,4.8,长白岛森林公园位于浑河南岸长白段，东起工农桥，西至长大铁路，长约2100米，总占地面积达42万平方米，向公众免费开放。公园景观优美、环境怡人，有绵延2000余米的木栈道和多处亲水平台；有以微缩浑河形态贯穿整个公园的人造溪流；2012年又重新翻修了中间的石板路，改为供自行车骑行用的柏油路面。这里没有闹市的喧嚣纷乱；也没有燥热天气下的浑浊空气。这里有的是阵阵微风送来花的清香；茂密的树荫下的安静；还有那虫鸣鸟啼和蛙声一片。,https://dimg04.c-ctrip.com/images/100c1f000001gsxspD9C2.jpg
沈阳,大法寺,1685377,41.817596,123.461834,4.5,大法寺创建于1415年（明永乐十三年），1638年（清崇德三年）重修。寺院坐北朝南，三层院落，占地三十余亩。前为山门，门楣上悬挂“大法禅林”匾额。山门内塑有哼哈二将，气象威猛，形体高大，翘首望之，始见其面。东西两侧建有钟楼、鼓楼。中为天王殿，内塑四大天王巨像，后为大殿供奉释迦牟尼、菩萨诸佛。配殿供奉千手千眼佛及魔家四将。另有八王祠、八王井。寺内整个建筑为红门黄墙碧瓦，三层大殿高耸巍峨，画栋雕梁，极其壮丽。,https://dimg04.c-ctrip.com/images/01041120008jsxd41DF47.jpg
沈阳,幻境之城VR体验机械密室逃脱(太原街体验店),1409353,41.789901,123.39867,4.0,幻境之城全机械真人密室逃脱将在一个个动人心魄的故事背景下，用多条线索和不同的谜题一步步带你探求人物未知的结局，探求不同人性下的阴谋与感情。不仅是视觉、听觉、触觉、甚至味觉上的四大重冲击，更是情感上的强烈共鸣。为了让玩家体验到超现实的真实感，主创团队将小说、电影、漫画的场景搬到了密室内，所有现场道具都采用古董改良精工制作，营造出富有质感的欧式怀旧古宅。密室内的机关以物理机械装置为主，并运用到了激光、红外线、升降机、烟雾、手摇发电、镜面反射等特效技术。相比普通的小成本密室逃脱游戏，幻境之城除了为玩家营造一个完美的故事场景以外，更在游戏机关的技术含量上花大成本打造，使玩家真正体验到逃脱的乐趣。,https://dimg04.c-ctrip.com/images/10030e0000006yu3w6568.jpg
沈阳,中心庙,1685713,41.799473,123.456422,4.7,中心庙位于沈阳故宫和中街之间，是明清沈阳古城中央座标点的一处有名建筑。中心庙是沈阳较小的庙宇，占地面积仅半亩，但由于它所处的位置在沈阳故宫大政殿北面，恰恰是明、清沈阳古城的中心，所以中心庙成为沈阳古城中心的标志，地位十分重要。从清代以来，沈阳城的老百姓有很多关于这座庙的传说，流传较广的是有关中心庙中关公为皇帝护驾的传说。中心庙里还供着土地爷和山神爷，民间也都有流传很广的故事。,https://dimg04.c-ctrip.com/images/0104w120009f0kmyiBA5C.jpg
沈阳,沈阳乐高探索中心,4357361,41.749968,123.438189,4.4,"沈阳乐高探索中心共有十个主题区，分别为梦幻快车、海盗冒险岛、乐高忍者训练营、乐高好朋友、创意学堂、乐高4D体验、乐高赛车区、迷你天地、得宝农庄、创意挑战区，此外还有乐高生日派对屋、咖啡厅和乐高玩具商店，提供2-3小时的游玩体验。迷你天地：穿过时光之门，来到了现代气息浓郁的迷你天地。超过150万块乐高积木震撼还原了独树一帜的沈阳建筑群，沈阳宝能大厦、市府恒隆写字楼、沈阳皇朝万鑫酒店等高楼鳞次栉比，沈阳故宫、盛京大剧院、五里河体育场等标志性建筑错落有致。近2,800个乐高迷你人仔神态各异，穿梭在昼夜交替的街道上，生动地再现了沈阳都市的日常场景。精心设置的互动体验，不仅可以俯瞰沈阳浑河，还可以观看球赛等惊喜表演。主题区内还设有特殊观看装置，让小朋友们近距离欣赏由乐高积木搭建的绚丽城市街景。梦幻快车：你的乐高探索之旅将从积木站始发，这可绝非一次普通的小火车之旅哦。 搭上乐高梦幻快车，来场从泡泡浴缸到外太空的奇幻旅程。海盗冒险岛：嗨，朋友！让我们赶快一起登上乐高海盗船。大家齐心合力爬上绳索，踱过船板，夺取海盗旗；开启空气炮，滑出海盗船，登陆海盗小岛，来一次击退海盗的冒险穿越！乐高好朋友：在这个放松的空间里，与新认识的小朋友们尽情地玩乐吧！在拼砌桌上，和小伙伴们一起，用乐高积木为居住在心湖城的5位小女孩装饰家园，一起增添更多欢乐的故事。乐高4D体验：带上4D专用的特殊眼镜，就能一起感受到酷炫的乐高4D体验，一起融入到影片中那些乐高英雄的世界里去。乐高赛车场：在乐高赛车场，发挥无限的想象力和创造力，动手拼砌出属于自己的乐高赛车，在模拟跑道上自由飞驰，所向披靡！小朋友们还可以一比高下，看看谁的赛车速度更快哦！得宝农庄：在这个充满色彩与创意的庄园放飞无限的想象力吧！在这个专为幼龄儿童打造的互动乐园，小朋友们可以在家长的看护下体验滑梯，用大颗粒的得宝积木创造心中的梦想基地。（适合身高1.2米以下的儿童）创意挑战区：在这里，孩子们可以在舞台上与其他小伙伴一起分享他们自己的乐高游乐场。他们可以与乐高探索中心的大使宝迪在这里亲密接触。家长们更有机会在拼砌大师的引导下和小朋友们一起参加时时更新的充满乐趣的拼砌活动。乐高咖啡屋：乐高咖啡屋为前来体验的亲子家庭提供了丰富多样的餐饮选择。别具一格的乐高主题餐具，开放式的用餐环境，让爸爸妈妈们在休息的同时，也能够就近照顾玩乐的幼龄儿童。礼品玩具店：在这里，你可以以称重形式购买你所需要的乐高积木，也可以组装一个属于你自己的乐高人仔，或者DIY一个刻有你名字的专属乐高积木钥匙扣。",https://dimg04.c-ctrip.com/images/100t10000000oiryiE20A.jpg
沈阳,郑家洼子青铜短剑墓陈列馆,9261,41.767254,123.326125,4.7,郑家洼子青铜短剑墓位于沈阳市于洪区杨士乡郑家洼子村，近年来在这里陆续发掘出一批春秋战国时期的墓葬，出土了大量的珍贵文物。1958年，在郑家洼子北边首次出土了包括青铜剑在内的27件青铜器。1962年和1965年在第一次发现古墓葬的地点附近又发现了一把青铜短剑和十四座古墓。为保护郑家洼子青铜短剑墓群，1966年由政府拨款就地建起一座砖混结构的棚厦，并修建了展厅，展厅分成两个部分，第一部分是青铜短剑大墓的复原陈列，第二部分展出在沈阳地区出土的属于青铜短剑文化类型的文物。,https://dimg04.c-ctrip.com/images/100o170000011g65z32AF.jpg
沈阳,黑根蜡像馆,1510869,41.807747,123.487496,4.4,黑根蜡像馆沈阳龙之梦店是东北地区首家以名人明星为创作主题的互动式体验蜡像馆，馆内共设有包括“星光大道区”在内的七大主题展区，囊括了奥斯卡巨星、影视硬汉、体坛明星、娱乐圈大腕、政坛翘楚、商界大鳄、科学怪咖等60余尊名人蜡像，所有人物均以栩栩如生的逼真姿态，配上精彩绝伦的视听、触觉感受，带来奇妙而新颖的场景互动体验，让游览者亲自参与其中，仿佛置身于与心仪偶像零距离接触的场景中，感受明星大咖们惊艳的魅力风采。,https://dimg04.c-ctrip.com/images/100s0x000000lic2p831A.jpg
沈阳,沈阳市蓬瀛宫,113295,41.76574,123.45203,4.3,蓬瀛宫是东北地区惟一的一处坤道院，位于沈阳南塔附近，占地面积3700多平方米。院内有三居楼宇式庙宇，主要供奉有三清、关帝、七真，另有三间山门，供奉王灵官。山门前有1500多平方米的花园、绿地，使蓬瀛宫格局紧凑而完整。庙宇为仿明清歇山式建筑，宏伟壮观。庙宇雕梁画栋，足见堂皇；影壁砖雕石刻，更显古朴。庙内清静幽雅，香烟袅袅，时而经声朗朗，是参观朝谒的福地。,https://dimg04.c-ctrip.com/images/100c170000011jwqsF36A.jpg
沈阳,蒲河国家湿地公园,1685373,41.505158,122.751582,4.9,蒲河国家湿地公园位于辽中县境内、蒲河下游，湿地公园内分布有天然形成的河流、沼泽和沟塘，植被茂密，为野生动植物提供了良好的生存环境。辽中蒲河湿地为内陆湿地。其类型多样，主要包括河流型湿地、沼泽型湿地、人工湿地三个类型。湿地连绵，纵横交错，碧波荡漾、风光旖旎，是名副其实的“万顷生态湿地”，形成了“绕廓荷花三十里，拂城杨柳八千株”的水城风光,https://dimg04.c-ctrip.com/images/0104q12000aqdyi4tC374.jpg
沈阳,沈阳恋爱博物馆,5376342,41.8025,123.465833,4.7,博物馆提供恋爱纪念品及其背后的故事；希望用此方式让憧憬爱情、坠入爱河，失去爱情的人们拥有希望、产生共鸣、相互治愈、释怀和疗伤。,https://dimg04.c-ctrip.com/images/0106q12000eh79s27C241.jpg
沈阳,体育公园,114118,41.754663,123.409152,4.8,沈阳体育公园是在沈阳市人民体育场的原址上修建而成。2003年5月正式投入使用并对公众开放，成为体育、休闲和购物一体的公园。沈阳体育公园整体形状大致为一个梯形，和中山公园只隔了一条不算宽的南三马路。从中山公园南门出来，几乎可以直接进入体育公园的北门。体育公园占地面积3.96万平方米，绿地面积2.4万平方米，从四面街路都可以进入。沈阳体育公园主要分为四个区域，有休闲区、绿化区、体育器材健身区和商业区。沈阳体育公园的中心，是一个凹陷的广场，如果俯瞰，中心广场和周围的绿化区域都是环形的，靠近南京南街这一侧的“绿化区”比较高，有很大的一个钢结构的凉亭和非常特别的树阵迷宫，站在凉亭内和树阵迷宫中，可以观看中心广场上的人打篮球。中心广场和“绿化区”俨然组合成了一个天然体育场。公园内还可以看到，包括油松、青纤、云杉、银杏、国槐、皂角、枫树、新疆杨、山楂等在内的各类树木8000余株。,https://dimg04.c-ctrip.com/images/0102612000aw329dc0BFC.jpg
沈阳,沈阳建筑大学-建筑博物馆,1677178,41.743622,123.516162,4.8,建筑博物馆占地面积6000平方米，馆内设有中外建筑展厅、馆藏展厅、精品建筑展厅以及模型收藏等展示区域，并设有“中外大观”、“沈城的今与昔”、“铜艺与建筑”、“全国历届人居经典建筑规划设计获奖精品展”等专题，是一个集建筑教育、建筑文化传播、建筑技术交流的大课堂。,https://dimg04.c-ctrip.com/images/100v170000011sb9bFDE3.jpg
沈阳,陨石山森林公园,9291,41.612049,123.664836,5.0,陨石山森林公园位于沈阳市东陵区的李相镇和苏家屯区的姚千镇一带，沈阳的古陨石多分布在这一带。其中比较大的一块陨石落在东陵区李相镇滑石台山上，长达百米，宽五十米，高六十米，重两百多吨，形成于四十五亿年以前，十九亿年前陨落到地球上。在陨石山森林公园可以欣赏“陨石王”的 风采。,https://dimg04.c-ctrip.com/images/0101o12000arksulm7684.webp
沈阳,龙润夏宫温泉水乐园,4742351,41.697585,123.042759,4.1,龙润夏宫温泉水乐园室内温泉水乐园分为动感区、静享区与蹦床区。动感区包括：成人水寨、儿童戏水池、造浪池、儿童淘气堡、国标游泳馆；静享区包括：温泉泡池、温泉包房、多功能水疗池、汗蒸休闲区、麻将室、玻璃栈道，铁索桥；蹦床区包括：气垫飞人、自由蹦床、四方斗棍、专业攀岩、旱雪滑梯、高空滑锁、网红大秋千、黏黏乐、一站到底、海绵池、钢琴时空隧道等多项经典刺激的游玩项目。另有小吃一条街，各地经典美食，平价销售，欢迎游客前来体验。,https://dimg04.c-ctrip.com/images/1lo6y12000brep5nhDC1C.jpg
沈阳,凤之翼,1696037,41.86875,123.649102,4.8,凤之翼位于沈阳世园会主入口广场，是园区的大门。建筑面积4168平方米，主塔高72米，“凤翼”长210米，中间贯穿10根斜拉钢索，建筑整体造型如凤凰展翅，象征着沈阳振兴腾飞之势。主塔下方是1000平方米的大型音乐喷泉，凤翼下部是功能型建筑，用于售票、服务、销售等，斜坡式屋顶铺设草坪，与周围环境的草坪相连接。凤之翼建筑使世博园景观充满了时代的动感与蓬勃的朝气。,https://dimg04.c-ctrip.com/images/100j0t000000iosbzA600.jpg
沈阳,沈阳国家森林公园,69551,42.027285,123.73636,4.3,沈阳国家森林公园位于沈阳棋盘山国际风景旅游开发区内。石人山系长白山哈达岭山脉南延部分，石人山高峰海拔441.3米，为沈阳行政区域内第一峰。九十九座峰峦，集山、水、潭、瀑、峡、洞为一体，汇观音台、双泉寺、雷锋时代的战备山洞、藏仙阁、南天门、仙鹤池等景观，是旅游、观光、休闲、度假之胜地。,https://dimg04.c-ctrip.com/images/0102i12000jpcetnz0190.jpg
沈阳,沈阳抖拍星空艺术馆(中街旗舰店),5376341,41.799656,123.459382,4.7,沈阳抖拍星空艺术馆是以空间为存在方式的艺术馆，利用二维或者三维空间的广延，或者实体空间、立体空间、线空间、灯光效果达到视觉的错觉。是与朋友、恋人相约一起拍照的好地方，带来一场视觉上的盛宴，给你不一样的体验。,https://dimg04.c-ctrip.com/images/100s1f000001gx67h121A.jpg
沈阳,辽宁工业展览馆,1832141,41.773176,123.433706,4.5,"辽宁工业展览馆位于东北大的城市——沈阳市南部，地处商业、文化中心。与沈阳交通主干道青年大街相邻，贯通沈阳北站、沈阳桃仙国际机场，地理位置优越，交通便利。辽宁工业展览馆于一九六〇年投入使用，展览馆大楼为一、二、三层混合建筑，2005年改扩建后，总面积现已达到50，000平米，其中可用于展览的面积12,000平米，可搭建国际标准展位600个，适合大型展览及庆典活动的需要。为了方便同展览会相配套的会议论坛等相关活动，展厅内部还设有贵宾接待室、会议室和多功能报告厅。位于中央序厅两侧的接待室和会议区分别设有中式风格和欧式风格的贵宾接待室2个，会议室1个，多功能报告厅1个。配有先进的影音播放和传输系统，可满足论坛、学术会议、商业洽谈等多种需要。",https://dimg04.c-ctrip.com/images/01A14120008oxclvdDAD0.jpg
沈阳,迪光殿,1685312,41.798672,123.455096,5.0,迪光殿位于沈阳故宫博物院内，建于乾隆十三年（公元1748年），是提供乾隆皇帝东巡盛京时处理政务、召见官员的重要行宫。“迪光”之名为乾隆帝钦定，意为启迪光大祖宗谟烈之光。文溯阁玉册为纪念《四库全书》入存沈阳故宫“文溯阁”时，特别制作庋藏陈设于文溯阁旁之迪光殿内，以供乾隆及后代帝王崇膜经典、溯祖追宗。从玉册紫檀盒盖上的玉签上书“迪光崇典”可得到证实。,https://dimg04.c-ctrip.com/images/0106112000bxjvrchD6DB.jpg
沈阳,建设公园,114117,41.806232,123.337453,4.5,建设公园位于沈阳铁西区建设西路40号，是一座以植物造园为主，利用植物造型来装饰的公园。园内树木茂盛，花草芬芳，环境优美，步入其间给人以回归大自然之感。园内还设有儿童乐园、花窖、旱冰场、喷泉露天舞场等等设施。儿童乐园备有儿童喜爱的各种游具，如：小跑车、碰碰车、小火车、蹦床、电瓶车、健身车等等；花窖面积500平方米，内有高、中档花卉，种类繁多，如：苏铁、棕葵、发财树以及造型各异的盆景；旱冰场面积1200平方米，沈阳水泵厂在这里开设旱冰速滑教学基地，向社会招收和培养旱冰速滑人才；喷泉露天舞场面积900平方米，是游人跳交谊舞、集体舞的理想场地。铁西区是沈阳市重工业较集中的地区，建设公园是这座工业“海洋”的绿色“宝岛”。,https://dimg04.c-ctrip.com/images/0102v120009i0gt14776E.jpg
沈阳,日俄会战碑日本碑,9223,41.602587,123.452284,0.0,日俄沙河会战碑位于沈阳市苏家屯区沙河铺乡魏家楼子村东的烟龙山上，烟龙山南北两个山头上分别立着两座墓碑。北山上的十字架形石碑为俄军墓碑，建于1911年至1912年。南山尖塔形的为日军墓碑，建于1912年。矗立在沙河岸边的两座墓碑是日俄战争给沈阳人民带来深重灾难的一个铁证。,https://dimg04.c-ctrip.com/images/0102q120008jsc7dnD236.jpg
沈阳,南塔公园,114121,41.765723,123.453407,4.5,南塔公园位于沈阳东陵区文萃路，公园绿化面积大，空气好。配备有各类健身器材供市民锻炼。公园环境清幽，非常适合人们来这里散步、纳凉，锻炼。,https://dimg04.c-ctrip.com/images/100j170000011gq6r28F6.jpg
沈阳,沈阳审判日本战犯法庭旧址陈列馆,4386385,41.829271,123.435848,4.7,沈阳审判日本战犯法庭旧址陈列馆位于沈阳市皇姑区黑龙江街77号，隶属于沈阳“九一八”历史博物馆，是在原沈阳审判日本战犯特别军事法庭旧址基础之上恢复原貌后正式对外开放发的。陈列馆通过复原陈列和史实陈列有机结合，运用文字、照片、文物、史料、图表、音像等丰富的展现形式，全面展示了1956年6月9日至7月20日在沈阳公审36名日本战犯的历史以及日本战犯在沈阳接受审判前后的历史经过。沈阳审判是真正反映中国人民意志和愿望的审判，也是正义对邪恶的审判。,https://dimg04.c-ctrip.com/images/100a1f000001grlbv5A36.jpg
沈阳,老龙口酒博物馆,1677137,41.806533,123.479638,4.6,"老龙口酒博物馆位于沈阳市大东区珠林路1号天江老龙口酿造有限公司内，博物馆内分为 “酒文化展区”和“酿酒老作坊展区” 两大部分。“酒文化展区”又包括“酒的源流”、“酒规酒俗”、“酒具酒器”、“酒诗酒画”、“老龙口发展史”、“老产品陈列室”等六个部分。
博物馆收藏酒具40 余件，名人字画50余幅；二十世纪不同时期老龙口老商标200余张，老产品300余瓶；老龙口部分产品获奖奖杯、证书；十九世纪末老龙口盛酒容器-酒海及其残片。
“酿酒老作坊展区”生动再现了中国传统酿酒的工艺流程，展示了古法酿酒的各式器具；酿酒所需的各种原料；在厂内挖掘出土的百年古残石磨群；二十世纪50年代至80年代老龙口部分老产品等。",https://dimg04.c-ctrip.com/images/100f0x000000lbh2nDB3F.jpg
沈阳,沈阳东方斯卡拉演艺广场,5262434,41.81271,123.419908,4.8,沈阳东方斯卡拉演艺广场是演艺+迪斯科的综合体，交通便利，有独立停车场，配备灯光、LED屏幕、升降舞台、玛田音响等。场区分一楼和二楼两层，一楼包括矮桌散台、高桌散台、各类沙发。二楼有高桌散台、VIP沙发、普通沙发、小沙发。,https://dimg04.c-ctrip.com/images/100r1f000001gonb9FBD5.jpg
沈阳,长青公园,114119,41.77241,123.479065,4.9,沈阳长青公园位于沈阳东陵区泉园小区，占地9万平方米，是于1995年建成的具有现代园林气息的公园。园内丁香，连翘，榆叶梅等花灌木绚丽多彩。观赏室内，各种花卉，四季盎然。卡通城堡内设有赛车，电马等儿童游具。位于公园中心的大型建筑，高7米，造型独特，可供游人遮阳避雨，居高临下，可服俯视全园景观。,https://dimg04.c-ctrip.com/images/01047120009hlka0r5B02.jpg
沈阳,未来动物城,5100343,41.802259,123.47136,4.7,未来动物城（FUTURE ZOO）位于沈阳大悦城D馆3楼，全馆雨林生态造景，绿植掩映、藤蔓缠绕，是一座集动物科普、展览、互动、表演、娱乐、休闲于一体的新型动物主题公园。全馆共有10个展区，有小袋鼠、小浣熊、龙猫、孔雀、小香猪、鹦鹉，还有各种爬行类动物，宝宝可以和小动物近距离互动，还有表演可观看。,https://dimg04.c-ctrip.com/images/100b1f000001gso5bCA53.jpg
沈阳,大江户温泉,1968907,41.736144,123.44707,4.8,大江户温泉是一家洋溢着浓浓日式家庭味的温泉健康乐园，店内极具日式风雅美感，多种不同功能的室内及露天温泉，充分享受泡汤的愉悦。大江户餐厅可以品尝正宗的日式料理、地道的日式拉面及美味的中西餐饮。独具特色的岩盘浴以五行命名，提倡健康养生。此外，多功能休息大厅、按摩、儿童乐园、阅读室、棋牌室、上网区、派对空间等多种休闲娱乐设施，让你在此得到充分的休息与放松。,https://dimg04.c-ctrip.com/images/0103h12000g8q0b9b37A0.jpg
沈阳,皇姑屯事件博物馆,2996792,41.816624,123.389269,4.7,皇姑屯事件博物馆位于沈阳市皇姑区天山路“奉天皇姑屯医院”旧址旁，拥有六个展厅，以图片、模型、多媒体等形式展示。博物馆以人物张作霖为主线展现历史，介绍张作霖被炸事件的起因、经过、影响。拥有仿老式车厢放映厅，可坐于车厢内观看当时历史事件的影像、介绍策划皇姑屯事件的日本“四大元凶”。,https://dimg04.c-ctrip.com/images/10031f000001gs0nxBD06.jpg
沈阳,东方美术馆,1677196,41.72619,123.462012,4.3,东方美术馆分为油画馆、雕塑馆、影像馆、行为馆、装置馆等几个展馆。美术馆的一楼，摆放着一台超大型的照相机，据介绍，这台照相机曾为慈禧太后所有，距今已有150多年的历史。油画馆收藏油画百余幅，既有名家名画，也有王亮精选出的自己各个时期的作品。雕塑馆藏有一套完整的《韩熙载夜宴图》彩瓷作品，作品由陶瓷艺术家耿雪完成，获得2007年中央美术学院毕业创作一等奖。作品采用了原图的色彩，在陶瓷华丽色彩的映衬下显得异常剔透，人物造型生动，面部表情惟妙惟肖，使人感觉身临其境。美术馆还藏有五百多件从世界各地收集来的日本铁壶，这些铁壶较早的已有400年历史。,https://dimg04.c-ctrip.com/images/0103r12000c3iquj46B88.jpg
沈阳,石台子山城,65072,41.95232,123.69231,4.3,石台子山城遗址位于沈阳市区东北35公里辉山风景区内的棋盘山水库北岸，北邻铁岭，东南与抚顺相望，为国家重点文物保护单位。石台子山城是高句丽占据辽东时修筑的一座重要山城，其借助山体自然形势人工修筑而成，为一座闭合式的石垒山城。山城平面呈不规则的三角形，周长1384.1米，环城墙体一周共设有10座马面，4个城门。山势西高东低，南宽北窄，四角相对较高。山城墙体断面呈梯状，内外墙面为形状规整的楔形石块砌筑内外墙面为形状规整的楔形石块砌筑，墙面里为棱形的插石。里墙一周均有夯土护坡向城内缓延，个别处尚有护坡石。,https://dimg04.c-ctrip.com/images/01001120008cevvanBDEA.jpg
沈阳,黎明公园,1696036,41.812889,123.502293,4.6,沈阳黎明公园位于沈阳大东区，公园绿化面积大，空气新鲜。园内种植有各种花卉，还配备有供市民锻炼的健身器材。清晨或晚上都会有不少市民前来散步，跳舞，是一个休闲的好去处。,https://dimg04.c-ctrip.com/images/0104x12000asrzogsBD33.jpg
沈阳,沈阳国家地理探险家中心,4387383,41.749865,123.438101,4.5,沈阳国家地理探险家中心依托国家地理National Geographic强大的IP和丰富多彩的内容，将带来一场VR和AR相结合的精彩历险。通过强大的影像和技术水平，把国家地理的探险精神、自然历史、野生世界、人文考古及风土民情等珍贵的影像题材与现代科技相结合，令你和孩子可以360°沉浸式环球体验探险之旅，让未知成为新知，打开新视界。,https://dimg04.c-ctrip.com/images/35051c000001du14rEB71.jpg
沈阳,马耳山,1678436,41.49709,123.583458,4.1,马耳山是沈阳绿岛空港旅游经济区的五大功能景区之一，位于姚千户屯镇，马耳山因山有两峰，并排矗立，酷似马的两个耳朵，故此得名。山上有自然形成的石人石马、朝阳洞、背阴洞和石棚、石棺及老虎洞，还有历史形成的烽火台遗址，南山脚下有一药王庙遗址。马耳山以其清秀的自然风貌和典型的北方田园风光释放出无穷的魅力，每年都有近万人自发到此登山郊游。马耳山现有1277亩果园，品种以苹果梨、南果梨及山楂为主，其它如123苹果、杏、李、山里红、欧李等也有一定的规模。每年的8、9、10三个月，是游人体验采摘乐趣的好季节。辽宁樱桃谷有限公司于2000年进入马耳山，其温室及露地樱桃园在2006年也将形成相当的产量。数十万尾野 生鱼，更为这里的环境增添了亮丽的色彩。旅游区景色秀丽、果味飘香、风光无限，与各类水果采摘园、葫芦泉和秋月湖浑然一体构成了一幅美丽的自然山水画卷。目前已成为全市种植面积较大、果蔬种类较全的自助采摘基地。,https://dimg04.c-ctrip.com/images/0100u120009if7w1x6DF5.jpg
沈阳,长白岛足球主题公园,1408351,41.750238,123.411577,5.0,长白岛足球主题公园以足球为主题元素，设置5人制、7人制笼式足球场地，还设置了多片可举办国际级赛事的11人制标准比赛场地。值得一提的是，足球场地全部采用天然草皮，11人制标准足球场地建设规格将以举办国际级赛事为标准，并设置一座能容纳300名观众的看台。长白岛足球主题公园所在地的前身是沈水湾高尔夫俱乐部，这里紧临浑河，地理位置与自然环境非常优美。,https://dimg04.c-ctrip.com/images/100j0j000000aof7h09E9.jpg
沈阳,珍珠湖,1685807,41.735746,122.874572,4.0,珍珠湖位于辽宁省蒲河辽中段的北部，是辽宁省内的平原水库。湖中有7处小岛，岛上绿树环绕，青松翠柏四季常青。湖中有千亩荷花，初夏季节竞相开放，空气中弥漫着荷花的香味，更有飞鸟水禽嬉戏其中。园区内有各种湿地体验区、水上世界、休闲度假存、文化艺术展等。湿地体验区主要以珍珠湖的湿地为主，让游客体验湿地环境与湿地保护，还有进行科普的展馆。水上世界让游人可以坐船穿梭在珍珠湖上，并设有水上赛事区。这里也是户外烧烤、野餐的好去处。,https://dimg04.c-ctrip.com/images/01016120008jsbdljEC02.jpg
沈阳,七星山,124854,42.138956,123.340534,4.3,沈阳七星山旅游风景区位于沈阳石佛寺乡境内。背依辽河，南接沈阳。景区自然风光优美，环境优越。七星山形成于侏罗纪末期，由南山、塔山等七座山头组成。风景区因其山形分布酷似北斗七星形状得名。山间沟壑纵横，层峦叠翠，分布有狐狸大沟等山沟二十多个。塔山南坡有泉眼一处，泉水清冽甘甜，四季不断。景区人文景观丰富，历史遗址众多。有建于1074年的辽代古塔、有北魏拓跋氏建设的石佛及寺院、有“双洲古城”遗址、有辽金时期兴建的韩家花园遗址。同时由于景区背依中国四大河流之一辽河，在古代曾是交通重地和战略重地，明边墙和烽火台，清时左宝贵修建的辽河套提和纪念碑及近代战争碉堡等战争遗迹分布于景区各处，自古就有、塔影遥开山雾重，笛声清澈水风凉”之赞叹。,https://dimg04.c-ctrip.com/images/0106s120008jsc1e8ED28.jpg
沈阳,沈阳世纪高尔夫俱乐部,1408336,41.757589,123.250993,5.0,沈阳世纪高尔夫俱乐部系由沈阳世纪高尔夫俱乐部有限公司投资开发的18洞72杆国际标准高尔夫球场。占地总面积700，000平方米，球道总长6，430码。球场在设计上综合了欧亚著名球场设计专家的智慧和著名高尔夫职业球手的经验，融合了英美球场的自然、华丽和亚洲球场的细腻、典雅，并富有挑战性 和刺激性。在球场建设上充分注意保护和改善环境，球场改良土壤和球道造型回填土方达96万立方米，球场种植国槐、樟子松、云杉、枫树、红花槐等名贵树种3 万余株，种植名贵草坪48万平方米。,https://dimg04.c-ctrip.com/images/0104l120009qwwfweFDEC.png
沈阳,沈阳辉山风景区,1685337,41.927399,123.654022,4.5,辉山位于棋盘山景区秀湖码头的背后，辉山的高度有265米，山顶的石头呈白色，被称为“辉山晴雪”，现在由于山顶植被茂密，在夏天时已经看不到。辉山上有石阶，登顶辉山可以看到山顶的晴雪楼、险亭和悬空露台等，在悬空露台上向下观望景观优美又让人感觉刺激。辉山下建有索道，游客都可在此乘坐索道上山，索道是开放式的座椅，坐在其中脚下的树木清晰可见，十分开阔。下山时除了走石阶和索道外还有滑道可以选择，从山顶乘坐滑车一路滑到山底只需要三五分钟，路上经过树林、山坡，惊险刺激有趣味盎然。在辉山底还有辉山鸟林和向阳寺可以观看，其中辉山鸟林是亚洲第一大鸟林，里面有各种仙鹤珍禽八十多种，不可错过。,https://dimg04.c-ctrip.com/images/100a1f000001grmal75CA.jpg
沈阳,枫露公园,114133,41.819854,123.466921,5.0,枫露公园位于沈阳大东区联合路，公园绿化面积大，空气好。园内种植有各类花草，林荫小道边上也有长椅供游客休息。漫步园内，让人顿感心情舒畅，不少市民在清晨和傍晚都会过来跳舞，打太极，是一个休闲放松的好去处。,https://dimg04.c-ctrip.com/images/0103t120009ymf07o542B.jpg
沈阳,沈阳市城市规划展示馆,1677112,41.759806,123.441012,4.8,沈阳市城市规划展示馆占地面积1.5公顷，建筑面积2.5万平方米，高度35米，包括地上四层和地下一层。其中地上一至三层为主展区，四层为临时展区和会议、办公区。地下一层为车库和设备用房。城市规划展示馆主展区共包括二十个展区和三个影院：即总体规划模型演示区、总体规划展区、重点规划展区、公示区、测绘体验区、休息查询区、历史文化名城展区、基础设施专项规划展区、沈阳经济区展区、工业发展历程展区、标志性建筑展区、控详规划展区、环境建设样板城规划展区、城市记忆展区、各区规划展区、一市三县规划展区、（援疆）塔城规划展区、未来沈阳体验区、公众互动区、临时展区等展区，以及弧幕影院、数字沙盘演示区、4D动感影院等。,https://dimg04.c-ctrip.com/images/10060x000000ldosmE3B3.jpg
沈阳,中山公园动物园,2022942,41.786157,123.408121,4.2,沈阳中山公园动物园位于沈阳中山公园东北角，集自然博物馆、动物园、游乐园、立体影院、玩具乐园于一身，也是沈阳市内的自然博物馆、市内动物园和儿童大型游乐园，占地3000多平方米。在沈阳中山公园动物园的动物园里有近百种小动物。丹顶鹤、鸵鸟、猕猴、梅花鹿、秃鹫、鳄鱼龟、绿孔雀、巨蜥、鹦鹉、黑天鹅、白天鹅、蒙古山雕等野生禽类、爬行动物、哺乳动物近百种，其中国家一、二级保护动物有三十余种。甚至可以看到鸵鸟产下近两公斤的蛋。,https://dimg04.c-ctrip.com/images/0105d120008jvqrko0C1B.jpg
沈阳,锡伯族家庙,1714656,41.807862,123.426709,4.7,锡伯族家庙位于辽宁沈阳，又称太平寺，是锡伯族人出资兴建的一座喇嘛庙。该庙始建于一七零七年，后经乾隆十七年、乾隆四十一年、嘉庆八年、光绪二十八年扩建，寺庙日趋完善。,https://dimg04.c-ctrip.com/images/10081f000001gqf6l643F.jpg
沈阳,怪坡虎园,4721356,42.068788,123.630491,4.5,沈阳怪坡虎园位于沈阳沈北新区清水台镇内的帽山西麓，是沈阳市独具特色的旅游景区，是目前辽宁地区大的人工饲养、繁育东北虎的基地。怪坡虎园目前建有成虎园、育成虎园、幼虎园、散养区和步行区，拥有各种不同年龄的纯种东北虎80多只。游人需要用1个小时的时间才能游完全程。其中成虎园、育成虎园、幼虎园、非洲狮园需乘车观赏。怪坡虎园提供豪华舒适的旅游观光车，人们可以坐在车内去寻觅虎踪，领略东北虎的风采。,https://dimg04.c-ctrip.com/images/1A0713000000u93jl9840.jpg
沈阳,铁西冰雪大世界(重工街体育场),4279377,41.81338,123.325599,4.8,铁西冰雪大世界位于重工街北四路铁西体育场内，占地万余平米，园内设有百米魔毯雪圈、雪地摩托、冰上飞碟、雪地悠波球、冰车、雪合战等冰雪游乐项目。百米魔毯雪圈是受游客喜爱的项目之一。单人或者组队坐在雪圈上，从8米高的雪坡顶滑下，感受加速与冲刺，雪雾在眼前翻飞，瞬间滑落百米距离，能带来无以言喻的畅爽体验。雪坡配置专用“魔毯”，游客不用步行攀爬，可直接乘坐达到雪坡顶端，省时省力，十分便捷。,https://dimg04.c-ctrip.com/images/10080o000000f69gs1C24.jpg
沈阳,沈阳海洋探索中心,4048335,41.749968,123.438189,4.1,SEA LIFE海洋探索中心是默林集团旗下另一个非常成功的家庭娱乐景点项目，从苏格兰开始，目前在全球共有超过50家，横跨欧洲、美国和亚洲。          沈阳海洋探索中心设有照相点、海底初探、浅滩魔戒、卧龙湖淡水区、暴风雨潮水潭、港湾、海马育婴室、鳐鱼湾、珊瑚礁、沉船、五彩水母、神奇发明、海底隧道、深潜至暗礁、探索游乐区、礼品店与幕后之旅。,https://dimg04.c-ctrip.com/images/100v0r000000h5bvaB47F.jpg
沈阳,秀湖,1685341,41.946655,123.692804,4.5,秀湖是棋盘山国际风景旅游开发区范围内大的一个景区。由四面捧起的一泓碧水蜿蜒形成了一个“秀”字，故称“秀湖”。从棋盘山景区南门进入景区，首先会看到第一个景点“碧塘风荷”，约有一个足球场大小的池塘里广种荷花，若是夏季前来，一定会饱览荷塘风光。穿过荷塘之后就来到湖边，秀湖两边风光旖旎，还有很多人在湖边垂钓。沿着湖边的路向左开，可以到达秀湖码头，在这里可以乘坐游玩或快艇洗水湖上，观两岸的山上翠意盎然，十分的悠闲惬意。每到秋天，几座山上的枫叶全都绽红，与绿色交融，使得山顶色彩丰富，是拍照摄影的好时机。,https://dimg04.c-ctrip.com/images/0107412000azgu64r3548.jpg
沈阳,永安桥,9260,41.866885,123.301672,4.3,永安桥位于沈阳市于洪区马三家子乡永安村，俗称大石桥。永安桥始建于清崇德六年（1641年），是清朝各代帝王东巡的必经之路，也是沈阳市现存比较完整的一座石拱桥，为省级文物保护单位。永安桥为三孔石拱桥，全长37米，外宽14.5米，路面宽8.9米，桥头宽12米。桥身两侧分别立着十九根石栏杆，桥端的石柱上是圆雕的狮子，其它为荷叶状柱头。桥头两侧各有一对雕刻精美雌雄相望的大石狮。桥的栏板上装饰着柿蒂花纹和卷云纹，端柱外的抱鼓石上刻有鹿、虎、麒麟、犀牛、羊、蝶等图案。桥身的北侧有二龙探首，桥身南侧则露出一对龙尾，从远看呈二龙驮桥之势，造型生动，别具匠心。,https://dimg04.c-ctrip.com/images/01054120008s7fsk6ED69.jpg
沈阳,正红门,1714661,41.850179,123.427685,4.7,正红门是陵寝总门户，是清代皇帝后妃以及众多祭拜大臣进入陵园的必经之路，也是各种礼仪的起点。气势宏伟，庄严肃穆。,https://dimg04.c-ctrip.com/images/0102z12000auen0qtD0B7.jpg
沈阳,华晨宝马大东工厂,1790253,41.853207,123.538791,4.8,"华晨宝马大东工厂见证宝马在中国的成功与承诺，用数字化技术和可持续的生产方式交付高质量产品。华晨宝马大东工厂是BMW汽车实现国产化的起点，见证了华晨宝马在中国成功发展的完整历程。大东工厂一直伴随市场发展而不断扩建，2014年开始在东北部扩建出一座具备完整四大工艺的新工厂，并于2017年5月正式开业，投产车型为新BMW 5系Li。2020年11月，产自大东工厂的创新纯电动BMW iX3正式出口全球市场，印证了华晨宝马持续践行“在中国，为中国，为世界”的承诺。随着工厂业务逐步攀升，在2022年4月，产品升级项目（大东厂区）顺利完工，该项目占地面积达91万平方米，相当于125个足球场的规模，在原有新工厂的基础上将四大工艺车间进行扩建，包括冲压、车身、涂装车间，以及带有两条独立生产线的单屋顶总装物流车间，并新建铁路专用线、长路试跑道、分布式光伏发电系统、热电联项目等基础设施，为大东工厂向BMW iFACTORY “精益、绿色、数字化” 生产战略愿景的发展奠定了坚实基础。随着升级工作的完成，大东工厂可提供全面灵活的内燃机驱动汽车（全新BMW X5,以及全新BMW 5系长轴距版）与纯电动汽车的生产（创新纯电动BMW i5），并可对市场未来发展趋势以及用户变化的需求做出快速响应。",https://dimg04.c-ctrip.com/images/0102612000ikwd9lu9918.jpg
沈阳,辽宁省农业展览馆,1677127,41.823032,123.550361,4.8,辽宁农业博物馆前身为辽宁农业展览馆，设古代农业、近代农业、现代农业和未来农业四个部分。馆舍占地面积250亩，展馆面积3400平方米，收藏品有传统农业生产工具、农村生活用品、动植物标本（化石）等。,https://dimg04.c-ctrip.com/images/0106d12000b7hg1d6680F.jpg
沈阳,万泉公园,4359345,41.790053,123.474795,4.8,原来是小河沿动物园，现在公园内有万泉游乐场，里面有高大的摩天轮。,https://dimg04.c-ctrip.com/images/0101c12000f6u1q1i2191.jpg
沈阳,中国成语印博物馆,1677179,41.81634,123.417357,5.0,中国成语印博物馆是中国首个成语印博物馆，馆长杨桂臣将中国所有的成语都刻在印章上，以此来弘扬中华传统文化，目前，他已共刻下成语印7200多方。并且将成语结合各自不同的寓意等特点，融入甲骨文、小篆、金文、石鼓文等字形的因素进行设计。,https://dimg04.c-ctrip.com/images/0102d12000auh2jt5C456.jpg
沈阳,沈阳怪坡风景区-卧龙禅寺,1695486,42.06434,123.637382,5.0,卧龙禅寺位于怪坡风景区南侧，是典型的明清宗教建筑群，寺内供奉有三世佛主、四大菩萨等，现已成为游客宗教朝拜，参观游览的场所。沈阳怪坡卧龙禅寺是由始建于东汉时期的庙寺逐渐发展而成，该寺由寒坡岭老爷庙在1994年移建于此，1996年向游人正式开放，现有建筑主要为清朝建筑特色。,https://dimg04.c-ctrip.com/images/01A1h120008pd5qwl46D0.jpg
沈阳,普缔雅汤泉(中金·启城店),4331360,41.806122,123.522959,4.5,普缔雅汤泉位于沈阳市沈河区和睦路113号（中金启城），提供碳酸泉、富硒泉、氡泉、硫磺泉、富氢泉、富锶泉、海洋温泉、偏硅酸泉、流泡风吕、露天温泉、韩式汗蒸、精美自助餐、豪华客房、亲亲鱼疗、儿童戏水、儿童淘气堡、SPA休养等服务，是一家集多种功能于一体的家庭休养休闲商务会馆。,https://dimg04.c-ctrip.com/images/100q0q000000g38g32B0B.jpg
沈阳,东北情二人转剧场,2016712,41.78773,123.398994,4.6,东北特色二人转主要来源于东北大秧歌和河北的莲花落。用东北人的俏皮话说：二人转是“秧歌打底，莲花落镶边”。莲花落亦称“落子”，是北方民间的一种说唱艺术，边说边唱，载歌载舞。,https://dimg04.c-ctrip.com/images/0104x12000f6u0spt9A2F.jpg
沈阳,沈阳铁路陈列馆,3136160,41.683224,123.361406,4.5,沈阳铁路陈列馆位于沈阳市苏家屯区山丹街，始建于2009年6月，2010年10月18日正式开馆，总占地面积8万平方米，分为装备陈列展和史料图片展，展陈各类装备1000多件，图片1500余幅。沈阳铁路陈列馆以全景、立体的形式，记录了从1891年修筑关内外铁路至今，沈阳铁路跌宕起伏、波澜壮阔、弥久动人的百年传奇。沈阳铁路陈列馆是东北地区较大的铁路行业博物馆，展览详实记录了沈阳铁路不同历史时期的发展历程，集中展示沈阳铁路发展的历史轨迹，力求用丰富翔实的史料和更新换代的装备，展示中国铁路在经济社会发展中的重要地位和铁路发展的丰硕成果。沈阳铁路陈列馆史料图片展区，以实物、场景复原、影视播放等形式，讲述沈阳铁路的前世今生，带您追忆坎坷发展历程。在装备陈列展区中，分为机车展区、车辆展区两个部分。在这里，可以抚摸一台台尘封百年的机车车辆，聆听一段段鲜为人知的名人轶事，在工业感的环境中，宛如置身历史记忆的长河。在历史与现实的碰撞中，品赏厚重铁路文化。机车展区中，众多的蒸汽机车陈列其中，带您饱览百年铁路工业文明，触摸近代铁路的风雨沧桑。馆内展览有1907年美国造蒸汽机车、1914年德国造“森林小火车”、1934年日本造“亚细亚”号牵引机车、1956年中国造前进型蒸汽机车等不同时期铁路的机车装备，静静地供游人追忆中国铁路那艰辛坎坷又波澜壮阔的崛起岁月。车辆展区内，陈列有沙俄、美国、中国等国家制造的各种不同型号的车辆24台。有早1900年俄国制造的C20型敞车，也有中国制造现代的载重80吨C80B型敞车，有“满铁”遗有1933年的EX型维修车，也有时速350公里的和谐号动车组，铁路货运重载化运输、客运“中国速度”的代表，都能在这里看到。展厅内还设有动感机车体验展区、蒸汽机车及内燃机车操作室展示机车、“满铁”时期老站台风雨棚场景还原，可供游人追忆和拍照，是一处很好的影视拍摄基地和游人拍照之所。沈阳铁路陈列馆，以其中国近代工业遗产、丰富的馆藏，成为了具有文化魅力的城市名片和找寻记忆的精神家园。,https://dimg04.c-ctrip.com/images/0100o12000h4wi0ixE068.jpg
沈阳,地藏寺,1677462,41.479877,123.453457,4.0,地藏寺位于历史悠久的沈阳苏家屯区大沟乡三块石山景区，是三块石景区的主要景点之一。地藏寺占地1500平方米，石墙高有一丈，整个殿宇青砖小瓦，雕梁画栋，金碧辉煌。地藏寺坐北朝南，于三块石山巅，仪态非凡。地藏寺是唐代开元年间，唐太宗李世民东征时，命尉迟公修建的，至今香火不绝。地藏寺经数次修复后，还增建了后殿。如今，这座有着千年历史的古庙仍然香烟缭绕，诵经之声不绝于耳。,https://dimg04.c-ctrip.com/images/0102212000k268agz735C.png
沈阳,辽河七星湖景区,4743357,42.154982,123.517221,4.1,辽河七星湖景区位于沈阳市沈北新区黄家乡和法库县依牛堡乡之间，景区依托全国大的平原湿地型水库——辽宁省石佛寺水库而建，总面积为22.6平方公里，其中水面面积16.13平方公里。景区内河水浩淼，水天一色，各种植物枝繁叶茂，生机无限，栽植有各色树木、芦苇、蒲草、荷花、荇菜等。广袤的湿地成为野生动物的天堂，常见有狐狸、狍子、山猫、丹顶鹤、白鹤、大雁、白鹭、灰鹭等20余种，辽河野生草鱼、鲫鱼、鲤鱼、鲇鱼、银鱼等10余种。无垠的湖面上人工岛屿众多，与蓝天、碧水、绿树、鲜花交相辉映，宛如人间仙境。,https://dimg04.c-ctrip.com/images/0104u120009jycdbb4B41.jpg
沈阳,东北陆军讲武堂旧址,2496767,41.807736,123.482383,4.4,位于沈阳市大东区珠林路25号的东北讲武堂是东北地区一处历史悠久、培养干部众多的军事机构。它与“云南讲武堂”、“保定陆军军官学校”以及“黄埔军校”并列为中国四大军官学校。,https://dimg04.c-ctrip.com/images/100d1f000001gou98203B.jpg
沈阳,向阳寺,1685334,41.933264,123.650708,4.7,向阳寺为明代古刹，坐落于棋盘山北麓的秀湖风景区内。向阳古寺属于显宗佛教派系，在辽沈地方历史上很有名气。复建以后的向阳寺坐落在棋盘山风景区秀湖水库南岸，寺内建筑面积九千九百九十九平方米。寺内主要有大雄宝殿、观音殿、钟鼓楼和牌楼门等建筑。其中大雄宝殿为雄伟壮观，它占据了全寺的高点，俯瞰全局，气势磅礴。另外还有念佛堂、向阳泉等景观整个寺院古木葱郁，庄严肃穆，布局依山势自然起伏，错落有致。重新开放后，向阳寺将有僧侣常年入住，并开展一系列的宗教活动。,https://dimg04.c-ctrip.com/images/100d0t000000insrpECEB.jpg
沈阳,集酷乐园,4975343,42.05462,123.64984,4.8,集酷乐园都有不同的特色，以亲子互动，比赛，家庭协助为主要核心，让孩子养成运动习惯、体会勇敢、获得自信、追求成就感的同时来增进与亲子关系。集酷不仅仅是让孩子单纯的玩，更让孩子在玩的过程中感受到爱，感受到陪伴，让孩子们动起来，开放身体的潜能，放下手中的平板手机游戏机，一起来到集酷感受大自然和无动力项目的魅力，在阳光下成长与突破。打造孩子人生中第一个真正意义的游乐园！成长只有一次，让陪伴不留遗憾!,https://dimg04.c-ctrip.com/images/1lo4w12000axosz9f8337.jpg
沈阳,华圣寺,1680287,41.705389,123.046414,5.0,华圣寺位于沈阳市铁西区高花乡，距离沈阳四十余公里，占地数百亩，是一座较大的寺庙。华圣寺是一座以供奉观音为主的修行到场。进得山门，几只鹭鸟盘旋于寺庙的草丛之中，给寺庙凭添了一种瑞祥之气。寺庙显得很大气，建筑错落有序，几层大殿雄伟壮观。环绕寺庙的荷花池，荷花盛开，白的，洁白如玉，粉的，宛若朝霞。硕大的荷叶碧如翡翠，红色的草鱼穿梭其中。大地满眼皆是绿，处处可闻野草香，真是乡野如画啊。小桥流水，观鱼赏花，清风徐来，荷摆叶摇，静静地，静静地，融入了忘我的意境，忘记了人间的烦事…… ,https://dimg04.c-ctrip.com/images/0100m12000941b3c29E04.jpg
沈阳,月牙城,1714642,41.853035,123.427537,5.0,月牙城位于辽宁省沈阳市皇姑区泰山路12号北陵公园内，明清帝陵宝城和方城之间有一小院称月牙城，俗称“哑巴院”。,https://dimg04.c-ctrip.com/images/0102u12000cmukd590E34.jpg
沈阳,东北大学-刘长春体育馆,1978203,41.765756,123.423216,5.0,刘长春体育馆整体成展翅飞翔的雄鹰的姿态，十分壮观宏伟。馆内设施完善，可举行各种大型活动赛事。,https://dimg04.c-ctrip.com/images/100j170000011gs4uCB1E.jpg
沈阳,方家栏公园,1696042,41.775569,123.494397,4.0,方家栏公园位于沈阳沈河区方家栏路上，公园内绿树成荫，空气好，走在公园内的林荫小道上，顿让人感到心旷神怡。园内设有供有人休息的凉亭、长椅，并有各类健身设备供市民使用，是一个休闲散步的好去处。,https://dimg04.c-ctrip.com/images/010591200089lyo2bC70B.jpg
沈阳,中国科学院沈阳树木园(文艺路),114122,41.777327,123.462754,4.5,沈阳树木园坐落在沈阳市中心的南运河中段，万柳塘公园的对面。沈阳树木园是东北地区专门从事植物引种驯化和野生植物种质资源的集中保存地之一，目前园内栽培有国内外各种珍稀植物，园内设有稀有濒危植物区、非豆科固氮植物区、水杉园、草卉园、槭树园等十二个植物分区和多处人工雕塑、园林小品等。园内空气新鲜，是城市的绿肺。,https://dimg04.c-ctrip.com/images/0103l120008a1t4vo7AC0.jpg
沈阳,刘少奇旧居纪念馆,4477467,41.80793,123.424823,4.6,刘少奇旧居纪念馆，因地处新北站二号规划区内，已不能原地保留， 经市委、市政府批准，按原貌异地重建于和平区皇寺路福安巷3号，即中共满洲省委旧址北院。1991年9月始建，1992年5月竣工，同年7月1日正式对外开放。这栋硬山式青砖瓦房东侧的第二、三间是刘少奇旧居复原陈列，西侧房间内举办了刘少奇在满洲省委专题陈列。通过这两个陈列展现了刘少奇同志在第五界满洲任职时的艰苦斗争环境及其八个半月的战斗历程。,https://dimg04.c-ctrip.com/images/100k170000011lg4gC5EB.jpg
沈阳,朝阳寺,1685367,41.726227,123.669122,5.0,猪踪朝阳寺位于沈阳市东陵区祝家镇北部林木茂密、风光秀丽的朝阳山上，承风水而建宝刹，因朝向始定寺名，是沈阳郊区较大的庙宇。朝阳寺因神猪下凡的故事而富有传奇色彩，虽远离市区，但仍有不少游客前来探寻。而山间山花怒放，百鸟齐鸣，硕果累累，称得上是一座世外桃源。,https://dimg04.c-ctrip.com/images/0HJ3412000g2tzpvg55E6.jpg
沈阳,辽宁省图书馆,2279523,41.678078,123.451598,4.7,辽宁省图书馆位于沈阳市浑南区，是一所大型的综合性公共图书馆。馆藏文献650余万册（件），其中不乏相当数量的珍贵古籍。图书馆也会经常开展讲座、展览、读书节、影音欣赏等活动。,https://dimg04.c-ctrip.com/images/01026120008ggz9qz555A.jpg
沈阳,杨宇霆公馆旧址,1694940,41.79263,123.466148,4.0,杨宇霆公馆位于大东区魁星楼路6号，目前由大东国税分局使用。为辽宁省省级文物保护单位。杨宇霆1885年出生，曾任东北军总参谋长。公馆由主楼和四合院组成，主楼为西式，砖混结构，地上二层，地下一层，仿石墙面，窗呈拱券形，饰弧形窗套，二层窗与窗间饰半圆形柱，爱奥尼式柱头。正门前建门厅，厅前有高台阶，大厅内木雕装饰精美。西山墙外建一椭圆形敞厅与主楼相通，厅为二层，一层饰爱奥尼柱头，二层檐头饰木雕垂苏。地下室一层，有窗高出地面。四合院位于主楼南，建筑早于主楼，由正房、东西厢房和门房组成，为中国传统式青砖灰瓦前廊硬山式建筑，正房五间，明间前有抱厦，东西两侧有耳房。四栋建筑皆檩枋彩画廊柱涂朱，廊下地面铺花釉面砖。院中央有汉白玉雕莲花喷水池一座。,https://dimg04.c-ctrip.com/images/0104n12000a0fsr173D17.jpg
沈阳,金山会馆,2329985,41.841695,123.456596,3.0,金山会馆坐落于皇姑区，以主流的韩式装修风格为主，一楼为男、女浴，采用玉石独立沐浴装修风格，环境高雅。二楼以客房、韩式养生按摩为主。三楼为多功能活动区域，有韩式汗蒸、黄泥浴、茶艺、韩式简餐、儿童乐园、多功能休闲厅、影视厅、无烟睡眠厅等。,https://dimg04.c-ctrip.com/images/100f0w000000k60rwA17E.jpg
沈阳,月月汤泉,4974347,41.813024,123.444931,5.0,月月汤泉位于沈阳市沈河区团结路，设计理念时尚现代，整体环境温馨典雅，是都市人群汗蒸休闲、商务洽谈的休闲场所。,https://dimg04.c-ctrip.com/images/100u0w000000k5zldEB75.jpg
沈阳,秋枫林,5015389,41.868646,123.457158,4.3,秋枫林地处沈阳市皇姑区鸭绿江北街70号，秋枫林的枫树主要是美国的红枫，这里的美国红枫，另有一番风情，比起中国的火红枫叶，它的美多了些凝重、深沉，悠远，似醇香的美酒，绵软有长。,https://dimg04.c-ctrip.com/images/10090x000000l8bi8FB55.jpg
沈阳,煦日暖阳汤泉,4283367,41.584225,123.560637,3.8,煦日暖阳汤泉集沐浴、疗养、休闲、娱乐于一体，温泉园区包含泡池区、养生休闲区、餐饮中心、儿童戏水乐园以及游泳馆等多个区域。温泉泡池区：主打纯户外野趣泡池，让您在沐浴温泉的同时，可以更充分地吸收到大自然中的氧分。养身休闲区：总面积为700平方米，餐饮中心：红谷温泉的餐饮中心，可同时容纳300人用餐，层层严选的食材，营养健康，私房自助美食，带来地道的红谷绿色味道。儿童戏水中心：红谷温泉的儿童戏水乐园，不仅能提高孩子的身体素质，还能培养孩子的创造力及探索力。在室内儿童水乐园的水都是恒温设置，孩子在温泉中玩耍，通过各种的玩水游戏，不仅能锻炼身体，还有益于孩子的健康。,https://dimg04.c-ctrip.com/images/10070o000000f7hc8504F.jpg
沈阳,莫子山公园,4992343,41.670889,123.485142,4.8,莫子山公园位于浑南新城规划的东西生态景观轴的东端，是浑南新城绿化景观的重要组成部分。园内草木茂盛，种植有各类花卉，空气新鲜，环境秀丽，是放松休闲的好去处。莫子山公园也是一个体育公园，里面设置了网球中心、锻炼器材、跑道等设施。其中，荧光跑道是公园的一大亮点，它采用高分子材料和陶瓷颗粒铺制而成，旁边增设了不同颜色投光灯，在夜间会发出色彩斑斓的炫彩图案，走在上面仿佛走在璀璨银河一般，十分梦幻。此外，这里还专门开辟一处烧烤区，为市民提供户外烧烤地。周末，可自带食材和烧烤工具来此进行烧烤，和家人朋友围坐在一起，喝啤酒、吃烧烤，尽情享受户外烧烤带来的惬意时光。,https://dimg04.c-ctrip.com/images/01A35120008qkyj8jFE04.jpg
沈阳,南市场八卦街,2497787,41.789252,123.421176,4.8,是一个极具时代特色的文化街区，周边有鹿鸣春、厚德里、汇丰银行都聚集在此，十分热闹。,https://dimg04.c-ctrip.com/images/0100d120008cetiy7F584.jpg
沈阳,大洋山森林公园,1685335,41.963278,123.697752,4.8,大洋山森林公园位于棋盘山风景区内的秀湖东北岸，大洋山海拔241.8米，是棋盘山景区内第三高山。大洋山森林公园方圆约四平方公里，被油松、落叶松、刺槐覆盖成林。这里谷幽山深，树高林密，浓荫蔽日，人迹罕见，无论是从森林还是地表植被都保持着良好的原始的自然状态。给人以粗扩、乡野之感，是登山旅游，体味自然野趣的较好的去处。在大洋山有一条幽径从山脚下蜿蜒通向山顶，山顶建有“翠微亭”，供游人小憩和眺望，领略洋山叠翠的风采。,https://dimg04.c-ctrip.com/images/0104o12000ddz7a30609D.jpg
沈阳,灵泉,1694942,41.59198,123.735314,0.0,灵泉位于沈阳水洞风景区水上乐园西侧，此泉水质纯正，清冽甘甜。相传薛礼征东避难藏军洞时饮此山泉水方得逢凶化吉，遇难呈祥。日后，方有马跃养军山、淤泥河救驾之功绩。此泉后经“济公”点化成为一方圣水，可消灾祛病，延年益寿，故曰：灵泉。,https://dimg04.c-ctrip.com/images/0102v120009aptocs3AF3.png
沈阳,突击联盟射击训练场,2372406,41.967188,123.674291,5.0,突击联盟射击场，是经有关部门批准经营的专业射击竞技场，占地8万平，是辽宁省重点国防教育基地。设有实弹射击、Wargame团体对抗（BB弹）、匹特博团体对抗（彩弹）、儿童水弹对抗等射击项目，同时配套餐饮、客房、会议室、战术型团队拓展训练等项目。诚邀国家射击队退役队员担任射击教官，为会员指导实弹射击、战术对抗等。,https://dimg04.c-ctrip.com/images/10031f000001grzh9F28C.jpg
沈阳,方圆大厦,5066717,41.816829,123.443951,4.5,沈阳方圆大厦是一座以古钱币为造型的建筑，由李祖源建筑事务所（C.Y. Lee & Partners）设计，作为写字楼使用，建筑面积48000平方米，一共24层。大厦的立面以具有传统文化意味的“古钱币”为外形，借此来预示入驻大厦的业主事业发达，财源广进。,https://dimg04.c-ctrip.com/images/0104b120008jsez96B225.jpg
沈阳,京城索相声茶馆,5048342,41.803459,123.455599,5.0,鼎泰茶社坐落于中街豫珑城东区一层（汗王宫门前），有晚场的相声、鼓曲、评书和周日下午的京剧、评剧专场。设有特色包房，茶歇环境舒适、舞台流光溢彩、可同时容纳百人以上观演，在欣赏各种艺术演出的同时，体会北京品味、天津氛围、辽沈特色的传统茶馆风格。,https://dimg04.c-ctrip.com/images/1lo1012000d5pgadm2309.jpg
沈阳,盛京国际高尔夫俱乐部,1408352,41.840521,123.598837,5.0,沈阳盛京国际高尔夫俱乐部距沈阳市中心15公里，位于沈阳市东陵公园东百年松林内，被称为中国古典、富有挑战性的球场。俱乐部是沈阳市一家18洞国际标准森林高尔夫球场，是沈阳市重点旅游和体育项目。球场占地面积93万平方米，周围森林茂密、山岭起伏、空气清新、环境幽静。澳洲高尔夫设计师麦克设计的18洞国际标准比赛球道，顺山林地势，自然起伏，变化无穷，妙趣与挑战并存。,https://dimg04.c-ctrip.com/images/0100w120008jt4sc300E9.jpg
沈阳,魔法小镇,5582372,41.781247,123.359341,4.3,魔法小镇位于沈阳市沈辽路万达二楼，游客可以在这里购物或体验游乐场里面的游乐设施。,https://dimg04.c-ctrip.com/images/0HJ1s12000g8ud8ab8F21.jpg
沈阳,乐高活动中心(嘉里城店),4328752,41.775959,123.43653,4.5,乐高活动中心(嘉里城直营校区)为2-16岁的孩子提供一个展现想象力、创造力、合作能力的环境，以“玩中学”“做中学”的方法从而培养孩子解决实际问题的能力。,https://dimg04.c-ctrip.com/images/0106q12000c4gmth078C9.jpg
沈阳,朵朵童世界(星摩尔沈阳购物中心店),3254802,41.807628,123.376229,4.7,,https://dimg04.c-ctrip.com/images/0102j12000boof9xoC22A.jpg
沈阳,花果山神秘谷风景区,1410577,41.991803,123.752969,1.3,"花果山神秘谷风景区内森林茂密，鸟语花香，风景宜人，建筑奇特，风情各异，主要反映来自于大西南边陲，以原始方式生活的“土人”的民俗，民风，民情。具吸引力的莫过于神秘谷的野人部落，他们稀有的生存和生活方式令人称奇叫绝。神秘谷是由多民族部落文化构成与古朴文化互动的景区,从远古的原始部落文化到现代的村落文化，展现出人类民族发展进程史。《民族文化展厅》内重点展示了东北五大主要少数民族的概况发展与成就。《民俗文化展厅》再现了祖辈生活场景。这里又是沈阳市数民族教育活动场所,并被沈阳市民委命名为<沈阳民族团结进步教育基地>。各地少数民族在此进行联欢、联谊活动的同时即加深了民族间的相互了解、增进了友谊，也起到了共同发展繁荣昌盛的作用.请参观蒙古大营与回回营的民族风情。骑马场：紧邻蒙古大营，园区拥有60余匹世界珍奇矮马，国家保护物种，生性温顺，成年纯马高85厘米，原为宫廷阿哥学习马术所用，也称宫廷矮马。骑上此马自有皇宫般的礼遇。园内还有俄罗斯高头大马，圈长200多米。棋盘山花果山神秘谷风景区还有八卦迷宫、cs巷战、神意堂、怪异空间、长寿园、果蔬采摘、野生动物保护基地、古朴民居、香味楼餐厅、香味楼客栈、佛家养生院、鹊桥园、大型户外野炊烧烤、福音池、警示堂、连心锁、“不老泉”、“不老酒”、“天知楼”、原始部落、篝火晚会(土人联欢和奇人表演)、滑草场众多的参观和游玩项目。",https://dimg04.c-ctrip.com/images/0106o120008jvphu6D740.jpg
沈阳,东陵荷花湖冰雪大世界,5700963,41.827262,123.591378,4.7,"东陵荷花湖冰雪大世界位于沈阳市浑南区东陵公园对面。夏天时，满湖盛开的荷花，吸引了许多游人争相合影留念！冬天时，荷花散去，湖面结冰，各种各样的冰雪项目入驻荷花湖，服务沈阳民众！2019年12月21日沈阳""东陵荷花湖冰雪大世界""儿童主题戏雪乐园正式启动！20余种戏雪项目嗨爆全沈阳！今年是第四届东陵荷花湖冰雪大世界，激情香蕉船（超过瘾），雪地碰碰车（会漂移的碰碰车），ATV越野车（特炫酷），还有3层楼高的雪山冲浪（雪圈）骑马（雪地飞船）挖掘机；还有承载着儿时梦想的冰陀螺、冰车，瞬间带你回到快乐的童年！雪白世界里，配上红彤彤的糖葫芦，参杂着各种美食，让人流连忘返！2019-2020雪季东陵荷花湖冰雪大世界戏雪区全新升级，打造好玩有趣的户外亲子娱乐冰雪乐园，专为家庭量身打造，全家人的欢娱时光，亲子戏雪区让天真不再只是禁锢，小朋友、家长们一起打雪仗、堆雪人，感受雪的趣味，体验父母儿时的快乐。",https://dimg04.c-ctrip.com/images/350s1b000001av3j5A12D.jpg
沈阳,儿童游乐场,4660589,41.785518,123.409059,4.7,中山公园自然王国(中山公园儿童游乐园) 里动物种类很多，其中包羊驼、梅花鹿等。园内还有丰富儿童玩乐项目，非常受欢迎。,https://dimg04.c-ctrip.com/images/0103d120009gidk8c4351.jpg
沈阳,西塔,38333319,41.805063,123.408694,4.7,西塔位于沈阳市和平区西塔街，建于崇德五年（1640年），顺治二年完工，是清初盛京四塔之一。因为塔身呈白色，也称白塔。塔高26.33米，塔基座占地256平方米，藏式覆钵式造型与彩绘纹饰至今保存完好，是东北地区藏传佛教建筑的重要遗存。如今，以西塔为核心形成的朝鲜族风情街区，已成为体验多元文化的城市地标。周边的西塔街区以其浓郁的朝鲜族文化氛围吸引着游客。这里有丰富的朝鲜族美食，街道两旁的餐馆和小吃摊提供地道的韩式风味。西塔周边交通便利，距离地铁站步行约10分钟。建议游客预留半天时间，漫步于周边街区，感受多元文化的交融。,https://dimg04.c-ctrip.com/images/0102c1200089y0e6l8EF4.jpg
沈阳,天后宫,5143534,41.811254,123.456233,4.2,沈阳天后宫历史上曾是中国较北端的妈祖庙，由福建的商人兴建。面积宏大，建筑辉煌，历史悠久，有众多信众前来参拜。,https://dimg04.c-ctrip.com/images/0104p120009fdumbnB297.jpg
沈阳,铁西体育场,1834054,41.811571,123.325926,4.6,铁西体育场位于沈阳市重工街，占地面积14万平方米、建筑面积3.5万平方米。铁西体育场场内有一块152平方米的超大电子显示屏格，一次加工成型的蓝色环保座椅抗高、低温能力极强。球场草皮采用耐寒的冷季型草，标准的400米跑道为世界流行的无颗粒的塑胶跑道。站在高处俯瞰，体育场呈一个巨大的彩虹形状。“它象征着铁西老工业基地各项事业如绚丽的彩虹，蒸蒸日上。”,https://dimg04.c-ctrip.com/images/0102w120008cf8j4r4C31.jpg
沈阳,龙尾湖,2501609,41.842687,123.589538,4.9,龙尾湖位于东陵郊野公园，外形就像龙尾一样，湖面平静，湖水很清澈，还可以临湖垂钓。,https://dimg04.c-ctrip.com/images/0103k12000de2n69mDA79.jpg
沈阳,长青桥,1835378,41.756171,123.497397,5.0,长青桥位于沈阳市区东南部，改造后焕然一新。桥梁横跨沈阳的母亲河-浑河，随着时间的变迁，见证了这座城市的成长与变迁。,https://dimg04.c-ctrip.com/images/01004120008k06gpe7E17.jpg
沈阳,皇寺-法物流通处,4660601,41.806734,123.428124,4.2,皇寺法物流通处位于北市场附近，且建筑风格金碧辉煌且很神圣，法物流通处顾名思义与佛教有关，是了解佛教历史的理想场所。,https://dimg04.c-ctrip.com/images/0102c12000bp7t9tw374E.jpg
沈阳,沈北七星国家湿地公园,5628408,42.149303,123.51995,4.8,"公园占地一万多亩，园区内主要以辽河水面风景为主。通过建设""滩地、岸边、水面”相结合的流域生态保护工程，将宝贵的自然资源和人造景观有机地结合起来，达到防风固土、改善水质、恢复生态的目的。",https://dimg04.c-ctrip.com/images/1lo3512000k72kqp080BF.jpg
沈阳,思堡特乐园,5099451,41.730642,123.232159,4.4,思堡特乐园位于沈阳经济技术开发区沈辽西路139号（学府新城商业中心），总占地面积10万平，室内运营面积5万平，拥有三大主题区域：妙趣成长欢乐区、科技互动体验区和竞技拓展运动区，同时乐园配备了汇集五湖四海美食的休闲广场、提供专业影音条件的星耀舞台，是一座可供休闲、娱乐、运动、社交的综合体乐园。,https://dimg04.c-ctrip.com/images/100o1f000001gp3un3416.jpg
沈阳,鲁迅公园,5067929,41.779225,123.421635,4.9,鲁迅公园的外墙很独特，墙上有镂空，公园入口处有鲁迅的生平简介，还有一座铜像，园内树木苍翠，风光秀丽。,https://dimg04.c-ctrip.com/images/0103f120009hopsgqE721.jpg
沈阳,蛇神庙,4675325,41.850128,123.428992,4.7,蛇神庙历史悠久，是硬山式造型，整体坐北朝南，四面为青砖砌成的素面墙体，古色古香，庄严肃穆。,https://dimg04.c-ctrip.com/images/fd/tg/g4/M06/3A/7A/CggYHVaQt5qAGcaZADpPVu8UIgw366.jpg
沈阳,东北民俗博物馆,4675299,41.831032,123.449907,4.7,东北民俗博物馆位于沈阳市皇姑区，馆内珍藏颇多东北老物件，可了解更多东北民俗风情。 ,https://dimg04.c-ctrip.com/images/0106a12000auktwml4A24.jpg
沈阳,沈阳新世界博览馆,3455110,41.750254,123.438747,4.6,沈阳新世界博览馆是一座现代化的展览和会议中心，位于辽宁省沈阳市。其建筑设计独特，外观时尚，内部设施齐全，能够满足各种大型活动的需求。博览馆的展厅面积广阔，适合举办各类展览、会议和文化活动，吸引了众多国内外参展商和游客。游客可以在博览馆内欣赏到丰富多样的展览内容，从科技创新到文化艺术，应有尽有。馆内配备先进的音响和照明系统，确保每场活动的高质量呈现。博览馆周边交通便利，地铁和公交线路众多，方便游客前往。博览馆附近有多家酒店和餐饮设施，提供舒适的住宿和多样化的美食选择，是游客休息和用餐的理想选择。沈阳新世界博览馆不仅是一个展览中心，更是体验沈阳现代都市魅力的重要窗口。,https://dimg04.c-ctrip.com/images/0101g120008jshhne5061.jpg
沈阳,沈阳劳动模范纪念馆,3445268,41.804988,123.442207,4.7,纪念馆坐落在沈阳市，是一个以劳动模范为主题的大型纪念馆，通过史料图片，雕塑，多媒体影视，全面展示沈阳众多劳动模范的事迹。,https://dimg04.c-ctrip.com/images/0101j12000ar7o4upF1AF.jpg
沈阳,沈阳梵高星空艺术馆(中街益田旗舰店),5656372,41.803101,123.463308,4.7,梵高星空艺术馆以梵高的作品为主题元素，采用空间视错觉，光影效果等技术内容，将一幅幅梵高画作立体式呈现，成为观众可触摸、可进入、可任意玩味的神奇4D光影世界。艺术馆拥有文化创意、休闲娱乐、趣味互动、艺术体验等新型元素，市民游客能在艺术馆内看到、学到、体验到艺术文化，拉近市民游客对艺术的认知，让艺术走进生活，走进每一个人的世界。,https://dimg04.c-ctrip.com/images/0102e12000f6s1ad075AE.jpg
沈阳,边业银行蜡像馆,3253413,41.793631,123.45738,4.6,边业银行蜡像馆由，是张作霖筹办的边业银行，张氏父子的私家银行，其前楼主体建筑为四层， 呈中西合璧式建筑风格。正门6根由花岗岩雕刻成的巨型罗马式门柱，直排到三楼，三楼以上为一座西式门楼，由6根柱顶饰花垂穗门柱作为装饰。,https://dimg04.c-ctrip.com/images/100d170000011fs9s6E87.jpg
沈阳,沈阳市大东区文化馆,3133989,41.800346,123.468492,5.0,大东区文化馆位于沈阳，馆内设有少儿舞蹈活动室、老年健身活动室、声乐活动室、多功能活动室和展厅等，整个文化馆占地面积约四千多平方米。,https://dimg04.c-ctrip.com/images/0105f12000bp8hcctBF8E.jpg
沈阳,沈阳勒思气膜足球馆,3835326,41.829952,123.405322,4.8,气膜足球馆自开放之日起就吸引了众多市民参观锻炼，室内足球馆面积较大，是气膜结构室内标准足球场，拥有无眩光照明以及空气净化系统。,https://dimg04.c-ctrip.com/images/0100b1200096jfkt754A0.png
沈阳,Miss超级密室,2209857,41.801286,123.46626,5.0,,https://dimg04.c-ctrip.com/images/0106n12000a33xer95488.png
沈阳,Meland Club（皇姑万象汇店）,4660644,41.835415,123.459113,5.0,梦幻童话游乐王国，圈粉无数的大型亲子游乐地标 。以「童话秘境」为主题，将超3000㎡游乐空间，幻化为溢满生命张力的童话王国！入驻沈阳皇姑万象汇！5.20盛大启幕，一起见证童话奇迹！超庞大自然景观元素汇集，塑造多重层次感，引人入胜，即使你和宝宝站立不动，也能体会身临梦境的奇妙感。重新定义乐园好玩度，30＋主题场景，50＋玩乐体验，引进前沿创意项目及先进游乐设备，真正打造一座细节性极强，功能性极高、体验感极深的童话秘境！高人气|儿童玩乐乌托邦，模拟餐厅：Fine Dining 亲子餐厅中的小盛宴 。考古博物馆：Archaeology 探寻史前奥秘。海洋球池： Hi Ball 来一场球球大作战 。木粒沙池： Sand Pool 锻炼手部精细动作 。积木乐园： Toy Bricks 学会团队协作 。公主堡： Princess 个性化定制专属造型 。极限攀岩： Rock Climbing 增长自信与勇气。建筑学堂：Architecture 构建机械力学的认知。 从大自然到餐桌：农场 · 牧场 · 超市 · 厨房 。消防站：Fire Station 安全灭火游戏 。探索丛林：Jungle Gym 探索不尽的兔子洞 。遨游书海，绘本馆  ： Library 。原创亲子剧场 ：meland show 。厨趣 创意 手作，meland育乐成长涵盖“厨趣工坊、创意艺术、绘本延伸、科学实验、音乐表演、魔术舞台、运动游戏”等亲子活动体验。全新梦幻亲子餐厅，美食＋派对＋社交体验。meland club优秀策划团队共同创造精致派对服务，不仅满足生日、节日、毕业派对上的惊喜，更为亲子交流创造值得纪念的瞬间，从配套到卫生到服务，营造无可复制的高品质体验。,https://dimg04.c-ctrip.com/images/0106p120009grvb0fFEB8.jpg
沈阳,棋盘山森林野生动物园游乐场,4675400,41.928439,123.684048,4.7,棋盘山森林野生动物园游乐场位于森林野生动物园院内，这里环境优美，是休闲娱乐的好去处。,https://dimg04.c-ctrip.com/images/01005120008s7fzlpE23B.jpg
沈阳,魔幻乐园(浑南天惠店),4681734,41.732066,123.436785,3.9,魔幻乐园(浑南天惠店)位于辽宁省沈阳市，乐园占地面积广，有充气城堡、滑滑梯、攀岩等儿童游玩项目，孩子们还可以在这里看到诸如小兔子、观赏鱼、鹦鹉、羊驼等动物。,https://dimg04.c-ctrip.com/images/0106j12000buav6ps7C91.jpg
沈阳,岁月流痕沈阳故宫博物院院史展,4682314,41.799261,123.454451,4.4,岁月流痕沈阳故宫博物院院史展的开展受到很多人的参观，地址位于正阳街4号附近。展会上，可以看到，努尔哈赤创业时的艰辛，皇太极波澜壮阔的一生，乾隆皇帝溯源求本的文化之源，波澜壮阔的历史画卷，都将在这里展开。,https://dimg04.c-ctrip.com/images/0104j12000f6rk2mu9EEF.jpg
沈阳,满铁事务所旧址,4678590,41.793086,123.395915,4.0, 满铁事务所旧址的建筑风格为典型的欧亚风格，这里也是沈阳近现代重要建筑群之一。,https://dimg04.c-ctrip.com/images/100o170000011g3vlDBB6.jpg
沈阳,回龙寺,4675172,41.833955,123.379276,4.7,回龙寺始建于唐代，地处舍利塔滩地公园内。寺庙整体为唐代建筑风格，寺前有塔，名舍利塔。现是人们焚香祈祝的圣地之一。,https://dimg04.c-ctrip.com/images/01050120009e0tgjyBEA6.jpg
沈阳,砂山公园,4748354,41.770288,123.389478,4.8,砂山公园位于沈阳，公园有鹅卵石小路，还有健身器材，这里植被茂盛、景色迷人，是人们休闲放松的好地方。,https://dimg04.c-ctrip.com/images/0106t12000bp7fr1hA7D7.jpg
沈阳,龙潭荷花湖度假公园-天柱排青公园,3999760,41.8276,123.595192,4.4,公园内不仅可以欣赏美丽的荷花，还设有儿童游乐场。充分满足周围市民的休闲需求。,https://dimg04.c-ctrip.com/images/0100312000a1jurh2158C.jpg
沈阳,甜果乐园,5649370,41.887175,123.716872,4.8,甜果乐园选址沈抚新城高坎街道腰沟村，占地面积246亩。该地区日照充足、降雨量较大、水源充足、坡度平缓、周边无工厂和商业区，无任何污染源。依托沈阳棋盘山优美宜居的自然环境和历史悠久的文化气息，打造农业景观为游客提供接近大自然的机会，体验绿色食品采摘、果品加工、农事操作等娱乐活动，是集农作物生产、绿色采摘、生态游乐、休闲观光于一体的农业园区。,https://dimg04.c-ctrip.com/images/3509180000014rhq16162.jpg
沈阳,J-MAX密室逃脱,2385639,41.803617,123.469203,0.0,,https://dimg04.c-ctrip.com/images/100f0p000000ffijc1F58.jpg
沈阳,荣宝斋(沈阳分店),4742341,41.807274,123.425305,4.5,荣宝斋前身松竹斋成立于1672年，有三百多年经营史的古玩字画店，以书画艺术品、文房等文化产品为主。荣宝斋的沈阳分店珍藏着近现代艺术大师的数十件艺术精品，还陈列着许多明清时期家具，价值不菲。部分字画可以出售，还有各种中国画的颜料。,https://dimg04.c-ctrip.com/images/0103w12000a0gyz7w2898.jpg
沈阳,沈阳市图书馆,2121970,41.760457,123.438192,4.6,沈阳市图书馆图书种类齐全，有多功能厅、儿童借阅室和自习室。,https://dimg04.c-ctrip.com/images/0106b120009asq8v321E2.jpg
沈阳,城市假日广场,4671188,41.823765,123.37034,4.9,城市假日广场占地面积广阔，到了晚上这里人来人往，十分热闹，是周末放风的好去处。,https://dimg04.c-ctrip.com/images/0103712000boototd46CC.jpg
沈阳,沈河区图书馆,2548843,41.792312,123.44182,5.0,沈河区图书馆是一所综合性的公共图书馆，该图书馆藏书十几万册，因此满足广大市民的文化需求。,https://dimg04.c-ctrip.com/images/0102t12000atit25u3998.jpg
沈阳,沈北绿岛休闲垂钓度假村,4671314,42.136979,123.452822,4.0,,https://dimg04.c-ctrip.com/images/0100f12000967yo1q6290.png
沈阳,城市广场,4678695,41.79487,123.408642,4.7,沈阳城市广场占地面积较广，位于中心地带，交通便利，周围有金融领域、大型购物中心等。,https://dimg04.c-ctrip.com/images/0101t120005s8n1prFCD0.jpg
沈阳,浑南时代广场,4666586,41.744392,123.459814,4.7,,https://dimg04.c-ctrip.com/images/0102l12000btq5hqw7332.jpg
沈阳,北陵公园,69131705,41.851766,123.427683,4.8,北陵公园（又称清昭陵）位于中国辽宁省沈阳市皇姑区，是清朝第二代开国君主皇太极及其皇后孝端文的陵墓，也是中国现存较为完整的古代帝王陵墓建筑群之一。作为“关外三陵”（另两陵为福陵和永陵）中较具规模、保存完好的一座，北陵公园集历史文化遗产与城市休闲功能于一体，现为世界文化遗产（明清皇家陵寝扩展项目）、国家AAAA级旅游景区。清昭陵始建于1643年（崇德八年），顺治八年（1651年）基本建成，康熙、乾隆时期多次扩建，是清代皇家陵寝规制与满汉文化融合的典范。陵园建筑群包括正红门、碑亭、隆恩殿、方城、月牙城和宝顶（地宫）等，布局严谨，雕刻精美，展现了清代早期陵墓建筑的恢弘气势。园内古松参天，现存古松2000余棵，树龄逾300年，形成独特的“古松群”景观。南侧为现代公园区域，设有湖泊、花海、林荫步道，四季景色各异：春季樱花盛开，夏季绿荫如盖，秋季银杏金黄，冬季雪景静谧。,https://dimg04.c-ctrip.com/images/0100b12000lkcgy9dC612.jpg
沈阳,石佛寺,5066528,42.14232,123.343635,4.0,石佛寺始建于辽代，历史悠久，是一座很宏伟的建筑，有很多人前来求拜。,https://dimg04.c-ctrip.com/images/0HJ4e12000g8za14t65F0.jpg
沈阳,沈阳怪坡风景区-休息亭,4675427,42.068743,123.633398,3.0,沈阳怪坡风景区内有怪坡玻璃观景桥、空中漂流、怪坡东北虎园、新游客中心、美食街、试坡游览通道、花海等景点。园区内的凉亭是游客常去的休息处，凉亭建在山坡之上，游客在这里可以感受清凉的山风，欣赏怪坡的自然景观。,https://dimg04.c-ctrip.com/images/010041200096jsc277D8C.png
沈阳,沈阳市少年儿童图书馆,3994097,41.77311,123.421409,5.0,沈阳市少年儿童图书馆位于南湖公园附近，环境很好，图书很全，种类很多。这里学习氛围好，看书不仅丰富自己，同时还可以放松心情。,https://dimg04.c-ctrip.com/images/0102s12000a0v1nmiE8BA.jpg
沈阳,沈阳月星中央公园,4676386,41.701212,123.468317,4.8,中央公园的面积很大，南部有一个湖，公园修建有木栈道可以直通湖中央，湖里种植有很多荷花，夏天荷花开的时候特别美。,https://dimg04.c-ctrip.com/images/0105712000bp2k6ejAE56.jpg
沈阳,方型广场,4673550,41.775546,123.416789,5.0,方型广场位于和平区南五马路、文艺路、光荣街、西滨河路、南八马路相交处，总面积为20659平方米。此处，在清朝时曾被称作十里码头。今天的方型广场是南五马路和文化路的分界点。广场西南角通向砂阳路方向的宁波路，西北角通向光荣街、马路湾，东北角通向文艺路、三经街、青年大街。但有趣的是，方型广场并不是“方型”的，而是由两个长方形小广场组成，铁西与沈河之间连接的建设东路——南五马路——文化路从其中横穿而过。,https://dimg04.c-ctrip.com/images/0106j12000a0v14p2E6E9.jpg
沈阳,后妃生活用品展,4660637,41.799193,123.455335,5.0,后妃生活用品展位于辽宁省沈阳市沈河区，展品有一百多件，主要分为首饰佩饰、生活用品、饮食器具、后宫陈设等部分，展品丰富且精美。,https://dimg04.c-ctrip.com/images/100t1a0000019e2vl355A.jpg
沈阳,丁香湖,5067841,41.849878,123.3314,4.7,丁香湖，即丁香湖公园，是沈阳较大的城中湖。公园内有多个休闲广场和休闲长廊。市民还可在湖面上乘船游览。公园除了供市民休闲外，还改善了沈阳西部的生态环境和人居环境。,https://dimg04.c-ctrip.com/images/0103g120008cex5ssA624.jpg
沈阳,苏联领事馆主楼旧址,4675180,41.802351,123.427511,5.0,苏联领事馆主楼旧址，位于沈河区北三经街9号，2004年被沈阳市文物局确定为沈阳市第一批70处不可移动文物之一。建筑物是典型的欧式风格，共占地3.4万平方米，始建于1906年，在1907至1917年间曾经是俄国领事馆，1931年至1945年成为日本驻奉天总领事馆。,https://dimg04.c-ctrip.com/images/0102j1200098ceqtc192F.png
沈阳,三好桥,5067044,41.750694,123.410172,4.9,沈阳三好桥是一座钢拱塔斜拉桥，荣获全球桥梁设计较高奖项“尤金·菲戈奖”和2009年度全球道路成就奖。桥上的钢拱塔重量达1800吨，形为百合花瓣，又被称为在浑河上展翼的“蝴蝶翅膀”.三好桥，成为沈阳市的又一标志性建筑。,https://dimg04.c-ctrip.com/images/0104e120008jsdqta96B9.jpg
沈阳,沈阳市园林植物标本公园,4678525,41.759733,123.444148,4.8,沈阳市园林植物标本公园位于沈阳市城区南端，占地面积9.7万平方米。它依托沈阳市园林科学研究院的技术力量，以搜集、展示北方地区的植物资源为主，包括树木标本园、花卉展示区、植物休闲区3大主题园区。,https://dimg04.c-ctrip.com/images/010221200086jgjc1BB82.jpg
沈阳,沈阳老北市艺术品收藏展示中心,4508105,41.805335,123.421501,4.5,,https://dimg04.c-ctrip.com/images/0103c12000d5j5g0lFF02.jpg
沈阳,和众公园,4678425,41.740502,123.407412,4.4,和众公园又叫和众人口文化公园，位于长白街，交通便利，园内有儿童乐园、小迷宫、司马光砸缸雕塑等设施。,https://dimg04.c-ctrip.com/images/0103412000boypfaw481D.jpg
沈阳,朝鲜银行(奉天支店旧址),4675202,41.797499,123.411628,4.9,朝鲜银行奉天支店旧址，位于辽宁省沈阳市中山广场周边，已作为银行使用近百年，竣工日期为1920年，该建筑于2013年3月5日被公布为全国第七批重点文物保护单位。建筑总面积约2800平米，平面形式不规则，地上二层，混合承重结构体系。,https://dimg04.c-ctrip.com/images/0105n12000aufyfg49D55.jpg
沈阳,白沙岛公园,4660663,41.831473,123.634374,5.0,这是一个很安静的公园，在这里可以看到河对岸的鸟岛，公园的环境很优雅，风景美如画。,https://dimg04.c-ctrip.com/images/0105k1200095ljmbmD389.jpg
沈阳,仿莫高窟遗址(万佛堂),4675307,41.834975,123.596711,4.3,仿莫高窟遗址(万佛堂)位于东陵公园，内部仿制的一些陈列馆还原度很高，可以欣赏到很多制作的过程。,https://dimg04.c-ctrip.com/images/0104a12000b9cgtf6C99B.jpg
沈阳,民国时期水会旧址,4678545,41.804972,123.415,3.9,该水会旧址位于和平区延边街和图门路路口。这座建筑始建于1921年，为砖木结构，地上两层，地下一层，水泥仿石墙面，建筑面积450平方米。水会的用途相当于现在的消防队，不过当时的水会并非官办，而是由民间各商号联合出资组建，保一方平安的。,https://dimg04.c-ctrip.com/images/0106n12000bp7p2ca55C9.jpg
沈阳,沈阳故宫-满清一条街,3377285,41.797611,123.456924,4.5,沈阳故宫及满清一条街是辽宁省沈阳市的两大历史文化地标，共同展现了清朝早期历史与满族文化的独特魅力。历史地位：沈阳故宫（又称盛京皇宫）是清朝入关前的皇家宫殿，始建于1625年（后金天命十年），为清太祖努尔哈赤和清太宗皇太极的居所。2004年被列入《世界遗产名录》，是中国两大皇家宫殿建筑群之一（另一为北京故宫）。建筑特色：融合满、汉、蒙多元风格，以“宫高殿低”的满族特色著称，与北京故宫的“殿高宫低”形成对比。主要建筑包括大政殿（八角攒尖顶）、十王亭、崇政殿、清宁宫（后宫区域）等，布局紧凑，彰显早期满族政权特色。文化价值：藏有大量清代宫廷文物，如龙袍、兵器、书画等，是研究清朝早期历史的重要实物资料。定期举办清文化主题展览、皇家礼仪表演等活动。文化特色：街道两侧建筑为仿清代风格，青砖灰瓦、飞檐斗拱，复原了盛京古城的风貌。集中展示满族民俗文化，如剪纸、旗袍、萨满面具等手工艺品，部分店铺提供满族服饰体验。街区内有“沈阳故宫博物院文创店”，可购买特色文化周边产品。主要亮点：历史遗迹：沿街分布清代牌楼、古井、碑刻等历史遗存。美食体验：汇聚东北传统小吃（如马家烧麦、老边饺子）、满族特色饮食（如萨其马、酸汤子）。节庆活动：春节期间举办庙会，重现清代市井风情。,https://dimg04.c-ctrip.com/images/0101512000ijkxcsq4BAB.jpg
沈阳,沈阳市辽中赛车场,4677357,41.497159,122.753635,4.6,,https://dimg04.c-ctrip.com/images/0105212000cd7eavk2319.png
沈阳,蒲河冬雪湖公园,4675388,41.960193,123.481471,4.8,蒲河冬雪湖公园有室内外游乐区、沙滩浴场、冰雪娱乐区等，不仅可以体验水上急速滑行的刺激，还可以在人工沙滩品味海水浴场的奇妙……,https://dimg04.c-ctrip.com/images/0103112000cg8anha563E.jpg
沈阳,民主广场,4662274,41.788592,123.398269,4.8,民主广场始建于1922年，当时称“平安广场”。后改称“民主广场”，广场中央建有有一座3个少女与和平鸽的雕塑，旨在突出和平区区名的主题。后因修建太原街地下商业街重新进行改造。,https://dimg04.c-ctrip.com/images/0101y12000brxtjoi4739.jpg
沈阳,于洪基督教堂,4660642,41.80192,123.282408,3.5,,https://dimg04.c-ctrip.com/images/0106x1200096gwi6aA7D5.png
沈阳,张官基督教会,4675164,41.749304,123.512302,2.0,,https://dimg04.c-ctrip.com/images/0101u12000d5q85z450D9.jpg
沈阳,大东区善邻基督教会,4675292,41.805769,123.50683,2.0,,https://dimg04.c-ctrip.com/images/fd/tg/g2/M02/AE/62/CghzgFW7IBCAHuSzAAAx3FcjVOM139.jpg
沈阳,沈阳棋盘山开发区花果山度假村,4682240,41.991846,123.743672,3.0,,https://dimg04.c-ctrip.com/images/01014120009atttch0067.png
沈阳,天主堂,4660674,41.893121,123.22791,0.0,,https://dimg04.c-ctrip.com/images/0105w12000bbdyl0bE16A.jpg
沈阳,沈阳浑河西峡谷蚂蚁城堡,2738903,41.697512,123.23405,4.8,蚂蚁城堡游乐园是一个以儿童游玩为主题的游乐场。位于沈阳铁西经济技术开发区浑河西峡谷公园内，距离市中心20公里，距离谟家堡高速口10公里，毗邻中德产业园（宝马工厂）、中法生态城，交通非常便利。蚂蚁城堡游乐园主要以中小型游乐设施为主，40余项机械游乐设备遍布园区各个区域，配以百余只各种形态的蚂蚁士兵和蚂蚁国王及其他中外耳熟能详的卡通动物形象的雕塑，游乐与观赏具备。游乐园针对不同阶段学生儿童的特点，打造出具有游乐、运动、趣味、互动等多功能的游乐区域。目前，蚂蚁城堡游乐园已成为当地青少年及幼儿主要的游乐场所。,https://dimg04.c-ctrip.com/images/01021120008oin4a0EDF5.jpg
沈阳,横滨正金银行(奉天支店旧址),4672570,41.797099,123.409443,4.0,横滨正金银行奉天支店位于中山广场西侧，始建于1924年，1925年9月30日竣工，是日本横滨正金银行设在奉天的分行。建国前曾为远东银行，1949年后改为工商银行，现为沈阳市工商银行用房。1996年7月17日，立为：沈阳市文物保护单位。,https://dimg04.c-ctrip.com/images/0101812000bueali393BC.jpg
沈阳,清福陵-福陵遗物及高仿品展一展室,4660669,41.833885,123.589416,0.0,,https://dimg04.c-ctrip.com/images/0105m12000gem9ysdB28B.jpg
沈阳,日满空军大楼旧址,4678547,41.797794,123.410873,5.0,日满空军大楼旧址，位于辽宁沈阳市和平区中山广场中山路108号，现为招商银行等单位用房。1996年7月17日，由沈阳市人民政府公布，沈阳市文物管理办公室立为：沈阳市文物保护单位。2007年又晋升为辽宁省级文物保护单位。,https://dimg04.c-ctrip.com/images/0101i120009atsq2xD9D5.png
沈阳,辽宁美术馆,2523065,41.773945,123.432833,4.2,辽宁美术馆坐落在和平区，展厅面积近千平方米，初期以中小展会为主，现以发展一流综合展厅为目标。,https://dimg04.c-ctrip.com/images/0101l12000ati09saF6D6.jpg
沈阳,重工文化广场,4662271,41.826116,123.330056,4.0,,https://dimg04.c-ctrip.com/images/fd/tg/g1/M07/FC/25/CghzflW7IASANUuCAAAtJkkq6KA204.jpg
沈阳,大舞台美食街,5168026,41.799821,123.453438,4.4,在美食街可以品尝到各种具有东北特色的美食，晚上很热闹，还能观看二人转演出。,https://dimg04.c-ctrip.com/images/0ww371200094dgw0h20D0.jpg
沈阳,沈阳清真美食街,5168047,41.80363,123.44104,4.7,在这里可以品尝到很多特色小吃。是一处集观光，休闲，美食于一体的特色街区。,https://dimg04.c-ctrip.com/images/0104g12000f6u64s63B18.jpg
沈阳,太原街步行街,5142437,41.793672,123.401618,4.9,太原街商业步行街距今已有百年历史，这里各类配套设施齐全，是东北具有影响力的时尚潮汇地。,https://dimg04.c-ctrip.com/images/0104l120009f3c0f9456C.jpg
沈阳,和平广场,5554352,41.778445,123.404309,4.0,沈阳和平广场位于沈阳市和平区和平大街与新华路、民主路的相交处，始建于1932年，当时称朝日广场，后称崇德广场，解放后定名为和平广场。沈阳和平广场沈阳市乃至东北三省人民的革命传统教育基地。和平广场的标志性建筑是东北解放纪念碑，这是为了纪念东北解放40周年设立的，位于和平广场正中间。,https://dimg04.c-ctrip.com/images/0104612000cbo4pug15EB.jpg
沈阳,盛京马会·马术俱乐部,2483094,41.904139,123.496487,0.0,盛京马会俱乐部拥有国际化标准的室内外教学场地，专业的全套马术装备，所有马匹均为欧洲进口温血马，品种优良。在骑乘体验的过程中，全程提供一对一专业马术教学指导，让你全方位感受这一项将古典气质与现代时尚完美融合的运动。此外，这里还可以参观马房，学习马术知识，亲身体验喂马的乐趣。,https://dimg04.c-ctrip.com/images/100n0i0000009evre86D9.jpg
沈阳,老北市剧场(盘锦路),2511043,41.807775,123.421568,0.0,老北市剧场是极具特色的民俗文化场所，内部的装饰是传统古朴典雅的风格，散发着浓厚的传统民族文化气息，可容纳近500人同时观看演出。,https://dimg04.c-ctrip.com/images/100n0l000000d0gpf7861.jpg
沈阳,郎朗钢琴广场,2506643,41.744119,123.416903,4.7,2017年8月建成，对外开放。是沈阳市重点文化项目。用于演奏的钢琴是朗朗为家乡父老捐献的。身处其中，可以感受到浓浓的音乐氛围。,https://dimg04.c-ctrip.com/images/100h170000011iu70F020.jpg
沈阳,美资纳游乐园,5101368,41.935158,123.680912,0.0,棋盘山美资纳冰雪乐园位于沈阳市棋盘山风景区内，在棋盘山秀湖的景观基础上，化身成冰雪游乐项目。嬉冰区包含雪山项目，雪山飞碟，雪地转转，雪上碰碰车，冰上自行车，冰上漂移车，雪上小坦克，滑冰车，雪地悠悠球，动感飞艇，雪滑梯等游乐项目。,https://dimg04.c-ctrip.com/images/100m10000000pxbuzEDD6.jpg
沈阳,清泉盛京赛艇俱乐部,5545348,41.748568,123.452489,0.0,清泉盛京赛艇皮划艇俱乐部拥有专业赛艇、休闲皮艇百余条，室外训练河道全长32公里，可同时满足数百人进行赛艇游玩、训练。室内设有专业体能训练区，设有测功仪、卧推架、深蹲架、动感单车等健身器械数十余种。公司毗邻沈阳的母亲河——浑河，这里集观光、科普、休闲、餐饮于一体，原生态岛屿密布，水鸟翩翩，黄金沙滩隔河相望，令人流连忘返。,https://dimg04.c-ctrip.com/images/100e14000000x91h63753.jpg
沈阳,乐汤汇,5050360,41.825627,123.374641,4.4,乐汤汇洗浴总面积约6000平，是内设温泉洗浴，餐饮，汗蒸，棋牌室，休闲等多功能于一体的休闲洗浴广场。,https://dimg04.c-ctrip.com/images/100a0y000000mayzoE631.jpg
沈阳,洋山民俗村,1685332,41.958088,123.694687,4.5,洋山民俗村坐落在位于棋盘山景区秀湖北岸的大洋山脚下，这里依山傍水，环境优雅，特色烤全羊、鱼宴、山野菜等等，是家人会餐、朋友小聚、同学聚会的好去处。,https://dimg04.c-ctrip.com/images/0104n12000ddz5ct0F272.jpg
沈阳,沈阳九龙上河生态旅游度假区,4741372,42.001962,123.268858,0.0,九龙上河温泉度假村座落在美丽的九龙河畔，庄园占地400亩，院内环境优雅、风景如画，园内18000平米的九龙湖旁建有七座江南风格的亭台阁楼，均是以竹木构建而成。可供游客进行休闲观光、生态采摘、温泉养生、儿童游乐等活动。,https://dimg04.c-ctrip.com/images/100g0u000000je37y2E2E.jpg
沈阳,沈阳宝岛阿美族热带农业博览园,4744353,41.526929,122.776774,0.0,沈阳宝岛阿美族热带农业博览园位于沈阳市辽中区，是一个结合台湾生态农业、旅游休闲、亲子教育体验、观光工厂、产品DIY体验馆等农业特色的博览园，这里可以尽情领略大自然风光以及台湾农作物生长美景，让你体验台湾的特有风情。,https://dimg04.c-ctrip.com/images/100n0u000000j8eji922F.jpg
沈阳,棋盘山大洋山越野车基地,5050369,41.960967,123.697496,0.0,棋盘山大洋山越野车基地坐落于棋盘山风景区的大洋山森林公园内，基地依山形地势开发了多条不同难度的越野赛道，适合不同水平的车手使用，已具备举办汽车越野体验、培训、测试和赛事等各项活动的能力。,https://dimg04.c-ctrip.com/images/100i0y000000md0f8D40A.jpg
沈阳,地宫,4675323,41.853229,123.427504,5.0,沈阳地宫位于泰山路12号北陵公园内，是石雕刻和石结构相结合的典型建筑，是陵寝建筑的重要组成部分，为安放死者棺椁的地方。多见于帝王陵寝和佛教高僧。地下宫有一道石门，隧道有三道石门，构造形式和关闭的方法皆相同。,https://dimg04.c-ctrip.com/images/0105l12000cmuk03z1224.jpg
沈阳,和平鸽广场,4671285,41.93424,123.682446,0.0,,https://dimg04.c-ctrip.com/images/100j15000000y1y83C529.jpg
沈阳,超级飞侠儿童室内主题乐园,5657350,41.776499,123.436985,4.7,儿童室内主题乐园的游玩项目丰富，设施设备齐全，是亲子游的好去处。,https://dimg04.c-ctrip.com/images/0106p12000athvngx0828.jpg
沈阳,铁西区森林公园,2512975,41.807414,123.321241,5.0,公园内绿荫蔽日，凉爽怡然。公园内设施完善，修缮了儿童游乐区，散步步道等基础设施，充分满足休闲需求。,https://dimg04.c-ctrip.com/images/0105f12000b1bi57r4E89.jpg
沈阳,风车谷童话小镇,2377596,41.673453,123.676509,5.0,风车谷童话小镇，带娃亲近自然、感受春光，这里有大型儿童户外乐园，自助烧烤、亲子厨房大锅灶，是寓教、餐饮、娱乐、采摘为一体的综合性主题乐园。拥有丛林绳网乐园、彩虹滑梯、萌宠乐园、勇攀高峰、绳网迷宫、小小赛车手、轮胎乐园、儿童鱼塘、攀岩墙、许愿桥、亲子拓展活动、无动力多功能沙池、网绳足球、绿茵草坪（可自带帐篷）。,https://dimg04.c-ctrip.com/images/0106y120009g42rbt3D90.jpg
沈阳,天旭游泳馆,5045355,41.770817,123.371918,0.0,天旭游泳馆坐落于沈阳铁西区滑翔路，交通方便，一楼为标准游泳池，二楼则有儿童戏水设施，是集休闲、娱乐、健身于一体的休闲场所。,https://dimg04.c-ctrip.com/images/10070y000000mo1r29417.jpg
沈阳,松果滑雪雪上训练中心,5600405,41.742666,123.464029,0.0,场馆面积近600平方米。两台进口滑雪模拟机与雪场的环境训练相似度达到90%以上，优势在于具有极高的安全性，而且在训练中能随时纠正及提高滑行动作。免费提供的全新器材专区，体能训练区及优雅的环境及贴心的增值服务。,https://dimg04.c-ctrip.com/images/1lo0m12000bmeshsq8140.jpg
沈阳,王士兰花千谷景区,2480565,41.650134,123.643263,0.0,花千谷位于沈阳市浑南区李相镇的王士兰村，由一个巨大的草坪乐园、一片林下花海和两个功能区组成，占地150多亩，不时还会举办Party、篝火晚会等特色活动。是休闲、放松、近郊旅游的好去处。,https://dimg04.c-ctrip.com/images/10030h0000008sqvs339A.jpg
沈阳,沈阳国际展览中心,2549531,41.662127,123.373268,5.0,沈阳国际展览中心坐落于沈阳市苏家屯区会展路9号，有室内展览、综合服务区及室外展览。展馆主体结构由8个单层、无柱、大跨度独立展厅组成，中间由双层连廊衔接。东、南、西、北面均设有观众登录厅。北广场可举行开幕式、庆典及大型公益活动。另外沈阳国际展览中心设有四星级宾馆、大型美食广场等配套服务设施，可提供住宿和餐饮服务。,https://dimg04.c-ctrip.com/images/0100d12000auhnugx1F5F.jpg
沈阳,匾额馆,4660634,41.79901,123.45492,3.0,,https://dimg04.c-ctrip.com/images/0102z12000gak16p8A8FE.png
沈阳,保极宫,4675256,41.79883,123.455078,5.0,保极宫是皇帝的起居室，清帝东巡时，就在此召见亲近王公，炕桌上方，悬挂着雕漆海天仙境挂屏，制作极为精妙。,https://dimg04.c-ctrip.com/images/0104l12000cmttns448F6.jpg
沈阳,龙王庙,4660664,41.8356,123.594815,0.0,龙王庙位于东陵公园福陵报恩寺内，这里曲径通幽，建筑被褐色石砖围起，两侧枫树叶在秋天的时候，有红色的、有黄色的，显得格外的美。,https://dimg04.c-ctrip.com/images/fd/tg/g3/M02/F1/AF/CggYGVXIpcOAQKRAAAMh0Fu92hM783.jpg
沈阳,反战碑,4675304,41.83551,123.467294,5.0,反战碑是位于九·一八历史博物馆内的一个日本反战人士建立的反战碑。爱和平，反战争。,https://dimg04.c-ctrip.com/images/0103m12000cs2i6tu084C.jpg
沈阳,东三省总督府(张学良官邸),5072637,41.796853,123.457682,4.4,东三省总督府，是清末民初东北重要军政机关的所在地，也是盛京沈阳继清代皇宫后又一闻名遐迩的大型衙署建筑群。东三省总督府历经百年风云，见证并承载了沈阳乃至全东北地区在近代中国动荡岁月中的历史进程，具有重要的历史文化价值和建筑文化价值。东三省总督府旧址现已定为省级文物保护单位，并作为博物馆对外开放。,https://dimg04.c-ctrip.com/images/1lo7312000hs1mhlv9BE2.jpg
沈阳,城隍殿,4660667,41.836969,123.594445,0.0,,https://dimg04.c-ctrip.com/images/fd/tg/g5/M04/CD/64/CggYsVanNcWAZE1EAAM8f2C6nF4594.jpg
沈阳,标本楼,4660683,41.861608,123.652401,0.0,,https://dimg04.c-ctrip.com/images/0HJ2h12000g886axr0C12.jpg
沈阳,派斯菲克会馆(皇寺广场店),5590471,41.810047,123.416232,4.0,派斯菲克会馆整体规模12000平米，四周交通便捷，毗邻西塔和皇寺商圈，是集洗浴、游泳、健身、娱乐、酒店住宿为一体的大型休闲会所。以游泳馆为中心设计，一二三层建筑都可以感受到游泳馆的美丽设计。,https://dimg04.c-ctrip.com/images/350i160000010dedtFF01.jpg
沈阳,和平奚布汤泉,5680346,41.784045,123.393871,0.0,奚布汤泉洗浴中心位于和平区南五马路太原南街43号，内设温泉、火龙浴、石子浴、窑洞、韩式休闲大厅、休息大厅、儿童乐园、客房、棋牌室以及餐饮等。,https://dimg04.c-ctrip.com/images/35061f000001gctzf2FC4.jpg
沈阳,棋盘山Le团建拓展真人CS烧烤营地,5553417,41.926441,123.661186,0.0,景区为原金鼎山庄渡假村旧址改造，是一所集休闲度假、旅游观光、健康娱乐、会议培训、拓展基地、天文观望于一体的综合性山庄。营地依山傍水，能让顾客充分的感受春天的灿烂山花、夏天的葱茏森林、秋天的累累果实、冬天皑皑的白雪。,https://dimg04.c-ctrip.com/images/10030f0000007gxlzE78A.jpg
沈阳,沈阳chi-K11艺术空间,5637356,41.750926,123.438248,4.8,"沈阳chiK11艺术空间位于沈阳K11四楼，它是以K11购物艺术中心为依托，独立运作的非营利性质艺术空间。该艺术空间旨在通过一系列展览和公众项目来促进其所在城市的文化生活，让公众能更多参与到正在发生的艺术中。沈阳chiK11艺术空间成立于2018年，拥有900多平方米的艺术空间,每年将策划举行3-4场艺术展览，并全年不断推出公共项目、工作坊、表演等教育活动。希望能通过自身不断创造艺术计划，与国际知名的艺术机构和世界知名策展人合作，共同打造有影响力的大展。",https://dimg04.c-ctrip.com/images/350o180000015918qEDC7.jpg
沈阳,超级甜心星空馆,5649343,41.803348,123.462734,4.7,超级甜心星空馆内有30多个场景，各式各样，还有多种道具，在这里无论你怎么拍，都能拍出好看的照片，别犹豫了，赶紧来体验吧！,https://dimg04.c-ctrip.com/images/350k180000014mk1r20C6.jpg
沈阳,超级公园,5678361,41.916028,123.416993,1.5,超级公园superpark位于沈阳市沈北新区蒲昌路22号淘乐新天地5楼，是一家集蹦床运动、拓展飞行于一体得综合性场馆，5000平超大空间，数十种超嗨娱乐游玩项目。,https://dimg04.c-ctrip.com/images/350o1a0000018dmfdEB0A.jpg
沈阳,皇姑区图书馆,4004692,41.830919,123.405342,3.5,,https://dimg04.c-ctrip.com/images/0100712000cf1ukvy7122.webp
沈阳,东北大学-科学馆,5168028,41.766193,123.425154,0.0,沈阳东北大学科学馆内有智能汽车实验室，还有3D打印工作室，人们在这里可以观看智能汽车，还能了解3D技术，对科学技术产生更多的了解。,https://dimg04.c-ctrip.com/images/0102f12000970oevk1FAF.png
沈阳,沈阳和平杯世界足球公园,2498488,41.73379,123.348965,5.0,沈阳歌德杯世界足球公园位于沈阳市，公园内有足球场，草坪，自行车道，跑道等，花草茂盛，景色秀丽，人们可以在河边钓鱼，搭帐篷，野餐。,https://dimg04.c-ctrip.com/images/0100j12000f6r0p54B061.jpg
沈阳,嘉骏马术俱乐部,3868664,41.859356,123.527645,0.0,沈阳嘉骏马术俱乐部成立于2017年01月05日，位于辽宁省沈阳市大东区白塔路156号。作为一家专业的马术俱乐部，这提供多种马术运动活动组织。此外，他们也提供马术运动信息咨询服务，为马术爱好者提供有关马术比赛、培训和相关活动的新资讯。俱乐部还设有马术用品、服装、鞋帽、箱包等销售区域，方便顾客购买所需的马术用品和相关商品。,https://dimg04.c-ctrip.com/images/100u0f0000007gwpi7163.jpg
沈阳,沈阳世界华侨华人社团联合总会雕塑艺术中心,5168052,41.877945,123.457129,0.0,,https://dimg04.c-ctrip.com/images/fd/tg/g1/M08/AE/87/CghzfVW7IAOAbNKNAABCrs7mUrY425.jpg
沈阳,苏家屯区城市规划馆,2827621,41.673122,123.291674,0.0,,https://dimg04.c-ctrip.com/images/0105112000970amye6837.png
沈阳,金海乐园跑马场,4036148,41.933202,123.703904,3.0,,https://dimg04.c-ctrip.com/images/0100q120008ph5cfx2112.jpg
沈阳,极攀岩俱乐部(铁西店),4020879,41.794139,123.348053,5.0,,https://dimg04.c-ctrip.com/images/0100f120008erdbh077C6.jpg
沈阳,精英汇马术俱乐部,3891000,41.660659,123.709997,0.0,,https://dimg04.c-ctrip.com/images/100u0f0000007gwpi7163.jpg
沈阳,沈阳航空博物馆,4477463,41.86481,123.433685,0.0, 沈阳航空博物馆分为室内和室外两个部分，主要是介绍了沈飞的诞生发展和沿革历程。,https://dimg04.c-ctrip.com/images/0ww3p12000946uw7g77AD.jpg
沈阳,孙中山纪念馆,2729925,41.7862,123.40683,0.0,,https://dimg04.c-ctrip.com/images/0105a12000bpib96uDF76.jpg
沈阳,和平区图书馆(八经街),2238699,41.797743,123.421178,4.5,,https://dimg04.c-ctrip.com/images/0103012000cdmr2bz483E.jpg
沈阳,于洪区图书馆,2121938,41.793653,123.291871,5.0,,https://dimg04.c-ctrip.com/images/0HJ6l12000g8vguem8C09.jpg
沈阳,辽宁省实验中学-逸夫图书馆,2350352,41.833008,123.420554,5.0,,https://dimg04.c-ctrip.com/images/0106i12000cen8xep3F6A.jpg
沈阳,宁恩承图书馆,2142521,41.767026,123.419489,0.0,,https://dimg04.c-ctrip.com/images/0104a12000ceciwlf43E3.jpg
