city,名称,id,纬度,经度,评价分数,介绍,封面图片
贵阳,青岩古镇,20403,26.331155,106.686702,4.4,"青岩古镇位于贵阳市南郊花溪区，与镇远、丙安、隆里并称为贵州四大古镇。古镇始建于明代，原为军事要塞，镇内完好地保存了大量明清时期的古建筑，电影《寻枪》的拍摄，使得青岩古镇为更多人所熟知。
古镇建筑依山就势，城墙用巨石筑于悬崖上，有东、西、南、北四座城门，镇内建筑精湛的石雕、木雕工艺是一大看点。镇内景点大多是风格各异的古建筑，每个景点独自收费，如果第一次来，可以购买联票，将古城内景点全盘扫过。如果仅仅是在古城内悠闲度日，则可根据需要挑选几个景点分别购买。
古镇南门定广门是四大城门中气势恢宏的一座，历史上，这里曾是扼守贵阳南大门的第一座门户。巨石砌成的城门楼和城墙高大威武，加上城外蜿蜒的石板路和两侧的农田，构成一副壮美的画图，很多青岩古镇的宣传照都是出自这里。
沿着定广门走进古镇，先看到的是赵理伦百岁坊。牌坊是清道光帝御赐而建，稀奇的是：四根立柱上雕刻的石狮子很反常的尾上头下，与平时所见不同，颇为奇特。沿着石板铺就的古驿道前行，街道两侧几乎全都是售卖当地特产的店铺，卤猪脚、烤豆腐、玫瑰糖等特色小吃也别具风味，走累了不妨停下里买一点尝尝。
从南门蜿蜒向北一直到北门的古驿道，既是古镇的中轴线，也是主街。主街以古镇中心的古文化广场为界，以北称北街，以南称南街。与主街相交的向东有东街，向西是西街。沿着东街向东，可抵达文昌阁，文昌阁位于东街143号，建于明万历年间，砖木结构，依山而建，为攒角重楼八角式。是旧时读书人常去读书、聚会、祭拜文昌帝君的地方，有兴趣也可祭拜一番。
主街向西可抵达迎祥寺、慈云寺、万寿宫和天主教堂等风格各异的宗教建筑，无不各具特色，精雕细琢，是游人拍照的好地方。在南街与西街之间有一条幽静小巷，称为背街。背街是青岩古镇具特色的一条石巷，路面的青石板经过几百年的冲刷、磨砺，已光可鉴人，如镜面般泛着青黑的光芒，感觉幽深而静谧。街边都是层层片石垒起的院墙，路窄而幽静，沿山势起伏，是摄影的地点。
青岩古镇街巷幽深，曲折复杂，但主街和每个重要路口都有指引牌，况且大多数小巷都可以兜回主街，所以，在古镇内穿行，无须担心迷路问题。一般来说，步行逛完古镇约2小时左右，所以也无需在镇上住宿。",https://dimg04.c-ctrip.com/images/1lo4z12000fsda3vlBC1C.jpg
贵阳,黔灵山公园,3084,26.597823,106.692587,4.6,黔灵山公园位于贵阳市区西北隅，园内可以爬山观景，也可以游湖、看洞，还可以去弘福寺礼佛，或者逛动物园。黔灵山公园有东西南北四个大门，其中南大门是公园的正门，途经的公交车很多，上山索道也是在南大门这边的，所以建议游客从南大门进入公园。进入南大门，首先看到的是七星潭，泉水从麒麟洞流向公园南门，形成七个阶梯状的水潭。顺着七星潭走几步，就是上山路了。如果不想爬山，可以坐索道直达象王岭上的瞰筑亭。爬山的话，沿着九曲径拾级而上，山上植被茂密，空气很新鲜，一路上还能看到摩崖石刻群。山不是特别高，距离地面的垂直距离大约是200米。山顶有一座始建于清代的弘福寺，据说寺里祈福很灵验，所以来拜的信徒很多。弘福寺后再爬一些山路，就到象王岭的瞰筑亭，在亭子处可以俯看贵阳群山中高楼林立的景色，是个不错的拍摄点。若特别喜欢爬山，黔灵山公园的山是由几座山头连绵而成的，还可以去白象山、关刀岩、大罗岭爬爬，而一般游客看过弘福寺、瞰筑亭就差不多可以下山了。弘福寺及下山的这段路上猕猴特别多，不少游客来黔灵山公园就是为了看这些猕猴，猴儿们是公园放养的，一点不怕人，人反而要让它们三分，有照相机的手里要拿好，有食物的要特别藏好，因为猴子会来抢。下山遇岔路，先走黔灵湖方向，黔灵湖边有小吃店，可以补充一点体力。黔灵湖是个人工水库，湖畔有一座烈士纪念碑。湖中可以划船，到了夏季，荷花盛开，景色很美。接着去动物园，动物园边上也有小吃店，有烤肉串、烤鱿鱼、烤豆腐等，味道不错，价钱都不贵。动物园动物品种不是很多，不过如果有小孩子同行的话，看到黑熊、狮子、梅花鹿、鸽子等，也已经乐得合不拢嘴了。动物园南边就是麒麟洞。在洞中可以看到一些奇石，其中有一块长得酷似麒麟。张学良、杨虎城曾先后被关押于此，这里还有张、杨二将军文物陈列室，能看到他们当年在此的卧室，与二人相关的图文介绍等。这样一圈逛下来，黔灵山公园的主要景点就玩得差不多了。若是带小孩的游客，还可以去公园南大门进门处的儿童游乐场，有碰碰车、转马、海盗船等游乐设施。,https://dimg04.c-ctrip.com/images/0105r12000f6scsegDE66.jpg
贵阳,甲秀楼,18081,26.571397,106.719771,4.6,甲秀楼是贵阳的标志性建筑，它始建于明代，坐落于市区内南明河中的一块巨石上，是一座三层的木质阁楼。甲秀楼是来贵阳的游客必看的景点，这里的夜景也非常迷人，楼旁同样建于明代的翠微园也可一同游览。甲秀楼景区主要分为三部分，即浮玉桥、甲秀楼、翠微园。甲秀楼建于明代万历年间，其名字取“科甲挺秀”之意。这座木楼高22.9米，共有三层，顶层题“甲秀楼”三字，游客可登楼俯瞰南明河岸风光。数百年来众多文人墨客在甲秀楼留下了赞美诗词，其中以清人刘玉山所撰206字长联脍炙人口，此联概括了山城贵阳的地理形势及历史变迁。浮玉桥是一座纵跨南明河的石桥，由北向南将石木牌坊、涵碧亭、甲秀楼、翠微园串连一线。翠微园原名观音寺，现为一组将寺庙和园林结合为一体的古代建筑群，有亭台楼阁、假山、长廊，如今主要是当地人品尝聊天和交流字画的去处。,https://dimg04.c-ctrip.com/images/0105t12000f6rbgxc2CFB.jpg
贵阳,荣华庄园,141039980,26.706471,106.712611,0.0,餐厅环境很好呢，餐厅的门面制作的十分精致，以金色为主，感觉很气派呢，餐厅主要以黄色和白色为主，干净却又不失温馨，布置的古色古香，餐位都用统一的座套套着，显得十分整齐，木制的桌椅又给人古时茶楼的感觉，餐位之间都是用木制的篱笆隔开的，在上二楼的楼梯口那边，墙壁上还挂了一个金色的“驴”字，这是餐厅的象征呢，餐厅的角落里还放了几盆盆栽，又给餐厅增添了几分绿意呢。这里的东西口味十分的好，价格也不贵，在这里消费是个不错的好地方，以后要常来。一个不错的选择。而且环境也很不错，是一个不可多得的好地方！,https://dimg04.c-ctrip.com/images/0102u1200086k28vc0A5C.jpg
贵阳,天河潭旅游度假区,3089,26.440145,106.580608,4.4,"天河潭位于贵阳西南城郊，这里汇聚了溶洞和瀑布景观，堪称贵州山水的微缩。景区分为钙化滩瀑布观赏、香粑沟水文化、水洞游船和旱洞游览四大内容，游客还可坐上约400米长的高空滑索俯瞰景区风光。

进入景区，先是会经过一条叫做天街的商业街，游客游览结束后可以回到这里用餐、休息。接着沿着一条栈道，向右通往溶洞码头，向左则通向多处瀑布、溪流和水潭。向左拐第，一眼看到的就是210米的钙化滩瀑布。

瀑布上游即是溶洞景区，天河潭溶洞分为旱洞和水洞。水洞需乘船游览，10-12人一条船，船票包含在通票内，有专门的员工划船并沿途介绍。洞内有石钟乳、石笋、石柱等喀斯特景观，而令人叫绝的则是洞内的一条300多米长的只容一条船开进的狭长地下河道。整个游览时间大约是20分钟。
出了水洞，则要换上机动船去欣赏九道湾风景区。然后穿过银河宫后游览旱洞，旱洞分为三层，全长200余米，由于地形较为复杂，和人结伴或者紧跟旅行团导游，不然很容易迷路。洞中有一座天然石桥叫奈何桥，洞内也有很多的钟乳石景观。整个游览时间大约1小时。

出了旱洞，要过同心桥，需要收费3元，山上的溜索值得推荐，一道钢索连接景区的两个山头，从高的一头挂个挂钩哧溜一下滑到低的那座山头，速度非常快。在几十米的高空上玩这个远比坐缆车要刺激得多，寻求刺激的人不容错过。

景区附近的民族村寨也是一定要去的，过小桥、看水车、访农家，观赏苗家姑娘亲手织的精美刺绣，亲身体验异样的民俗风情。沿着钙化滩瀑布下游的香粑沟，飞泻而下的瀑布星罗棋布。连接钙化滩的是卧龙湖，湖水清澈如镜，犹如世外桃源。天河潭夜间旅游以文化为魂、以山水为骨，充分汲取贵阳厚重的历史文化精髓，探寻神秘的苗族文化。通过声、光、电、科技设备、创意活动运营等方式营造烟雾飘渺、歌声环绕、红叶映衬的山水仙境，利用实景、演艺、影像、互动体验等手段，打造有主题、有特色、有亮点、有文化的夜游产品及服务。
通过对天河潭夜游文化形象提炼，将神灵、自然、艺术、民俗、爱情等元素融合在整个夜游线路中，以美丽的神话传说为线索，跟溶洞、两岸以及崖壁等处的声光电景点，形成奇特的审美关系，融文学性和视觉享受于一体，在灵活自如的穿插浏览中，联袂阐释天河潭夜景之美和如梦如幻的意境。",https://dimg04.c-ctrip.com/images/0100k12000ji0cisl2ABA.jpg
贵阳,花溪公园,3085,26.432687,106.67198,4.7,花溪公园位于贵阳南郊的花溪区，是贵阳历史悠久的自然景观公园。花溪公园融山水田园和民俗风情于一体，这里景色四季皆美，尤以春季群花与秋季梧桐夹道的黄金大道很迷人，而蜿蜒于花溪河上的百步桥也是一道美景。花溪公园落成于1940年，1949年正式命名为花溪公园，园内主要以真山真水和田园风光为主，有芙蓉洲、百步桥、坝上桥、黄金大道、麟山、龟山、松柏园、碧桃园、牡丹园、竹莲池、憩园等景点。公园内有花溪河贯穿，而景点多错落于花溪河两岸。花溪公园是一个山水环绕的地方，春季来此可以看到这里处处绽放着各种花卉，夏季则是非常适合避暑消夏的地方，秋季行走在铺满梧桐树叶的黄金大道上，其景可媲美童话世界。不过公园里顶美的莫过于碧绿的河水和架于水上的各种小桥，其中有意思的是盘曲在水上的一个个石蹬——百步桥。来花溪公园可以随意地散步，也可以在湖中划船，或登上小山丘远眺。公园里也有提供自行车租借服务，不过由于公园里小桥很多，骑行的话要经常将车抬上抬下，多为不便。,https://dimg04.c-ctrip.com/images/100s1f000001gx7l0418A.jpg
贵阳,弘福寺,110206,26.593627,106.691931,4.7,弘福寺坐落于贵阳黔灵山上，始建于1672年，是贵阳有名的佛教寺院，素有“贵州首刹”之称。弘福寺内有摩岩石刻、徐霞客游过的古佛洞、历代长老塔林等古代遗迹，而寺庙本身素以祈福灵验著称，因此香火十分旺盛。弘福寺建于清代康熙十一年，由赤松和尚所开创，“弘福”二字乃“弘佛大愿，救人救世；福我众生，善始善终“之意。整座寺庙坐落于黔灵山群峰中心，弘福寺虽然不算大，但寺内格局严谨，建筑威严，更因掩映于一片绿色之中，显得古风十足。寺内有多处古代遗迹，包括赤松和尚开辟的九曲径及摩岩石刻、古佛洞、历代长老塔林等。寺内钟楼里则有一口三千余斤重的铜钟，是铸于明成化五年（1469年）的古物，它原在城内大兴寺，于1980年移此。,https://dimg04.c-ctrip.com/images/01015120009hztaniD2B8.jpg
贵阳,观山湖公园,120589,26.632972,106.634065,4.7,观山湖公园位于贵阳市区西北，是一座面积较大的城市公园。公园内拥有迷人的湖光山色和品种丰富的植物，还建有专门的塑胶跑步道，是贵阳近郊的一处环境优美的休闲健身之处，同时也是春季赏花踏青的好去处。观山湖公园位于观山大桥南北两侧，北侧以观山水库为中心、南侧以金华湖为中心，四周植满了各种植物，包括樱花、桃树、梨树、垂柳、白玉兰、桂花、银杏、水杉等等应有尽有，在不同的季节都能看到不一样的自然景观。而这里的生态湿地也吸引了许多白鹭、野鸭等鸟禽在此栖息。,https://dimg04.c-ctrip.com/images/0101912000kltsr7c459C.jpg
贵阳,贵阳森林公园,3087,26.546269,106.751922,4.6,贵阳森林公园地处贵阳市区东南，是离市区很近的一处大型森林旅游区，公园里各种树木枝叶茂盛，走在步道上头顶是遮天蔽日的参天大树，还可以看到许多放养的猕猴在林中嬉戏，春季时更有各种花卉竞放，生态环境良好。贵阳森林公园起初为贵州省林科院实验林场，这里林木种类众多，面积广阔，开辟为公园后曾被誉为“贵阳八景之一”。这座森里公园如今成为贵阳市民郊游远足的好去处，也是非常适合避暑和野营的地方。,https://dimg04.c-ctrip.com/images/0100212000j4srf4f6F1F.jpg
贵阳,文昌阁,56300,26.578767,106.719202,4.4,文昌阁坐落于贵阳市区老东门遗址，是一座三层宝塔形建筑，它始建于1609年，原为供奉道教神明文昌帝君之所。因国内阁楼建筑的角均为偶数等角，所以拥有九个角的文昌阁便成了独特的，同时也是与甲秀楼齐名的古建筑。文昌阁坐落于宽厚高大的东门月城上，建筑古朴而雄伟，阁楼两边设有配殿，前为联结配殿的斋房，平面布局成四合院形。阁内二、三层有楞木各9根，屋顶有9个角，以及柱54根、梁81根，均为9的倍数，古时的“9”通常代表高权力和高等级，设计者之匠心可见一斑。虽然如今文昌阁已不是道教之所，而是成为了当地人的茶楼，但这座经典而特别的古建筑依然值得喜好历史与建筑的游客前往一观。,https://dimg04.c-ctrip.com/images/0100e12000f6tsqx9EDCA.jpg
贵阳,河滨公园,3086,26.567851,106.705718,4.5,河滨公园位于贵阳市中心西南部，紧邻着南明河，公园内植有各种植物花卉，环境宜人，每到春季便成为市民身边的赏花胜地。这里也设有摩天轮等许多游乐项目，很适合亲子出游。平日里，河滨公园主要是市民们散步健身、对弈遛鸟的去处。公园内有花台、鱼池、画廊等设施，也有掩映于万绿丛中的楼台亭榭，环境十分优美。园内还建有经常会举办各种科学技术展览的科普区，以及桃园、花圃和温室，园内植有许多樱树，春季来此可见到樱花绽放的唯美画面。,https://dimg04.c-ctrip.com/images/0102i120009cnjy5m7DAC.jpg
贵阳,贵阳欢乐世界,1408215,26.670697,106.640252,4.5,贵阳欢乐世界坐落于贵阳城区西北隅，由原白云公园改建而成，是贵州地区规模较大、游乐设施较全的动漫为主题的游乐园。在这里你可以体验悬挂过山车、挑战者之旅、高空飞翔等让你尖叫不已的惊险项目。贵阳欢乐世界的游乐项目非常丰富，既适合酷爱挑战的年轻人，又适合少年儿童。如果想挑战自己的胆量，这里的悬挂过山车、挑战者之旅、高空飞翔、四环过山车、跳跃云霄等项目不可错过。如果想玩不过于疯狂的，可以尝试极速风车、旋转迪士高、飞舟冲浪、飓风飞椅等，或者坐上108米高的摩天轮看风景。这里更有旋转小蜜蜂、激战鲨鱼岛、袋鼠跳、自控飞机等适合青少年体验的项目。此外还有以动漫为主题的魔兽世界、太空漫游、奇境穿梭、4D影院等设施。,https://dimg04.c-ctrip.com/images/0104v120008iizawd917B.jpg
贵阳,筑城广场,1677611,26.569046,106.711211,4.5,筑城广场位于贵阳市内南明河畔，它对面就是民族文化宫大楼。筑城广场是贵阳的市中心广场，平日里是人们休闲散步的地方，广场中间矗立着壮观的大型景观建筑“金芦笙”，夜晚在灯光的映衬下景色很美。筑城广场地处贵阳市中心城区，周边有民族文化宫大楼、广电中心大楼、电视大楼等大型建筑，广场面积较大，植有齐整的花卉植物，平日里这里有许多市民来健身散步，也有孩子来放风筝、溜冰，是理想的休闲之所。,https://dimg04.c-ctrip.com/images/0105i120008damunjFF71.jpg
贵阳,贵州省博物馆,1416591,26.647058,106.643078,4.4,贵州省博物馆位于贵阳国际会展中心对面，馆藏包括旧石器时代的人类化石、夜郎青铜文化代表作的战国无胡戈及戈范、铜柄铁剑及剑茎内模、贵州西部汉墓出土的漆耳杯等大批珍贵文物，是了解贵州历史文化的好去处。贵州博物馆所展示的馆藏文物主要分为史前文物标本、历史文物、民族文物三大类，基本陈列有《贵州矿产资源》、《贵州自然资源》、《太平天国时期贵州各族农民起义斗争》、《中国工农红军在贵州的革命活动》、《贵州出土文物》等。在馆内不仅可以看到贵州龙化石、海龙化石、鱼龙化石、海百合化石等史前文物标本，还可见到省内出土的铜车马、立虎辫耳大铜釜、石寨山铜鼓、杨餐墓铜鼓、铜柄铁剑、鎏金铜鍪、一字格剑、明代金冠、彩釉陶俑仪队等古代珍贵文物。而民族文物则是展示重点，除刺绣、蜡染、挑花、织锦、银饰等1000余件外，典型藏品有苗族婚姻记事符木、苗族刻绘动物图案酒角、苗族青缎镶花边饰银铃银坠女夹衣，彝族土司八挂龙袍、彝文《六祖纪略》手抄本和水族墓葬石刻“铜鼓”，颇具观赏价值。,https://dimg04.c-ctrip.com/images/0100112000hzop1wh01FF.jpg
贵阳,小车河城市湿地公园,1677601,26.545485,106.671939,4.8,小车河城市湿地公园位于贵阳城区西南部，地处南明河城区段上游，这里汇集了溪流、山谷、溶洞、森林等自然景观，不仅风光优美，而且平时游人较少，是贵阳近郊一处免费的郊游之地。公园内设有落英飞雪、碧溪云霞、木兰林语、芰荷深处、茗泉问茶、梓木林香、水磨时光等十多处主题景观。其中“落樱飞雪”是初春欣赏樱花的名地；“木兰林语”可以看到原生的参天大树；“花海拾贝”则是一片植满了柳叶马鞭草、松果菊、鼠尾草、千屈菜等开花植物的谷地，每到花季时五彩缤纷。此外，公园内还建有风雨桥、河滨步道、儿童游乐园等设施，游人们可以在这里惬意漫步，享受优良的自然环境。,https://dimg04.c-ctrip.com/images/0102b120009dm647kA756.jpg
贵阳,花溪国家城市湿地公园十里河滩景区,120560,26.464264,106.676137,4.5,花溪十里河滩旅游度假区主要包括花溪湿地公园、花溪公园、十字街、孔学堂、黄金大道等，东至大将山山脉、西至迎宾馆（含）、南至明珠大道、北至腾龙湾，总面积5.32平方公里，度假区平均海拔1140米，年平均气温15.3°C，冬无严寒，夏无酷暑，气候温和湿润，空气清新宜人，具有“生态大氧吧”、天然“大空调”的美称，是集科普教育、游园观光、休闲度假为一体的旅游度假区。,https://dimg04.c-ctrip.com/images/1lo0312000cndgmva873C.png
贵阳,高坡苗族乡,21891,26.295602,106.813126,4.7,高坡苗乡位于贵阳花溪区的东南部，这一带自然风光优美，拥有峡谷、石林、草场、瀑布、大盆景、万亩田园等景观。其中有名的当属云顶村的云顶草场，是高原上难得的一处广袤的平地草原。高坡苗乡地处花溪区与龙里、惠水三个县区的交界处，这里居住有苗族、布依族等民族，民风比较淳朴，民族风情浓郁。每逢正月“跳场”、“跳硐”、“四月八”、“斗牛节”和“吃新节”等民族节日。,https://dimg04.c-ctrip.com/images/1008hk124dgx8m4a8CCF8.jpg
贵阳,镇山村,21890,26.44865,106.613529,4.2,镇山村是位于贵阳西南郊石板镇的一个以布依族村民居多的小村，它坐落于花溪水库中段的半岛之上。镇山村三面环水，景色优美而宁静，村内可见到石头城楼、城墙、石屋以及许多石头凿成的生活用具，布依族特色浓郁。镇山村始建于明代万历年间，整个村子依山而建，寨内层层叠叠卧着许多低矮的石屋，村内仍完好地保留了石头城楼、城墙、石板路等建筑，就连磨、钵、槽、缸之类的生活用具也都由石头凿琢而成，整个村子看起来就像一座石头城。镇山村约有近200户人家，寨子分上寨和下寨，村民大部分是布依族人，还有一部分是苗族人，他们的生活风情已成为当今旅游者追访的目标。来到镇山村，可以作客布依人家，品尝布依族的风味饭菜，看布依族的歌舞表演，也可去花溪湖边的码头坐船游湖。此外，镇山村内还有始建于明代的武庙，与镇山村隔水相望的李村右侧山头有明代李仁宇将军的墓，当年李将军受皇命屯兵镇山村，后定居此地并在此此开枝散叶，现在镇山村和李村一带的村民有不少都是李将军的后裔。值得一提的是，每年正月十二、十三、十四这三天，镇山村布依族和苗族的“跳花场”，苗族的“四月八”和布依族的“六月六歌会”，是镇山村较为热闹的节日。,https://dimg04.c-ctrip.com/images/0102x12000f6t35s2ED08.jpg
贵阳,百花湖,3090,26.660492,106.497309,4.6,百花湖位于贵阳城区西北郊，是一座大型人工水库，湖中湖汊与岛屿极多，拥有秀丽的岩溶地貌和湖光山色。百花湖水质清澈，湖中群峰耸立，湖畔还有田园风光，春季时湖畔百花齐放，人们可坐船游湖欣赏这些美景。百花湖景区目前已开放松林远眺、双猴守园、蟹洲螺屿、观音洞、百花双狭、群峰叠翠、金蟾嬉水、孤峰独秀、奇石、洪武庙、茶饭营盘、朱昌古堡、鸟岛等景点。其中鸟岛是百花湖珍贵的一景，每当春冬两季，岛上百鸟盘旋，给秀丽的自然景观增添了许多乐趣。田园野趣也是这里的一大特色，湖中有三个小村寨，几十户农家在岛上休养生息，渔家扁舟停泊水边林旁，一派诗情画意。此外，百花湖畔东南是有名的朱昌镇，是明代驻兵的“朱昌古堡”，现仍留有些许遗迹。,https://dimg04.c-ctrip.com/images/0101c120008j3pewb3DE2.jpg
贵阳,贵州省民族博物馆,120566,26.56829,106.71288,4.4,贵州省民族博物馆位于贵阳地标建筑之一的民族文化宫大楼里，馆内主要陈列了贵州17个世居少数民族的传统服饰、银饰、生产用具、生活用品以及民族文献古籍等展品，向人们展示了贵州各民族的文化与历史。贵州省民族博物馆是一座对外开放的公共博物馆，陈列展厅分布于文化宫大楼的二楼和三楼，在这里可以欣赏到贵州省内各个少数民族的图文介绍，以及具有各民族特色的服装、饰品、面具、乐器、手工制品、农作器具、家具炊具等物品，以及相关的摄影作品和农民画等常设的展品。博物馆还经常举办丰富的专题展览，包括各民族的服饰专题、摄影精品展、画展等等，来到这里可以更深地了解到苗族、布依族、侗族、土家族、彝族、仡佬族、水族等贵州世居少数民族的方方面面。,https://dimg04.c-ctrip.com/images/0101a12000ifup6nrEDA2.jpg
贵阳,花溪黄金大道,1713480,26.43008,106.658023,4.9,花溪黄金大道是一条沿着花溪河的梧桐步道，入秋后这里成片的梧桐树相继泛黄，深秋时可见道路两侧金色夹道，直至梧桐树叶铺满地面，蔚为壮观。这里是花溪地区赏秋的好去处，也是秋季摄影胜地。花溪黄金大道位于花溪公园西侧往花溪水库的方向上，沿着花溪河往西走到平桥，河两岸开始出现清丽的风光。继续沿河往西走，不久就可以看见那些高大的法国梧桐了。11月来此赏秋摄影，看河中倒影着的金色和黄色，景色如同仙境，令人心旷神怡。不过即使是春夏季节，这里也是散步骑行的好地方，走在翠绿的繁密枝叶之下，吹吹河风，不能不说是一种享受。你也可以像那些年轻人一样，骑着自行车来梧桐林中，悠闲地穿行。,https://dimg04.c-ctrip.com/images/0101d120008ouym74CACC.jpg
贵阳,花果园湿地公园,1831301,26.566312,106.687653,4.6,花果园湿地公园位于贵阳市的核心地带，周边被树木繁茂的云贵山所包围。花果园湿地公园有古树银杏，吉祥如意的罗汉松，十里飘香的桂花，它们同五颜六色的花草、湖中的鱼鸟等一起组合成了一幅美丽迷人的风景画。,https://dimg04.c-ctrip.com/images/0102p1200089j2ua00DB4.jpg
贵阳,《多彩贵州风》演出,137901,26.563307,106.719251,4.4,大型民族歌舞《多彩贵州风》集多民族风情为一体，以新颖的舞台展现形式为观众呈现一台既有深厚文化底蕴、又有时尚元素，具备超强视觉冲击力的视听盛宴。十五年来持续演出4800余场，并巡演了美国、加拿大、俄罗斯、英国等多个国家。《多彩贵州风》由11个歌舞节目组成，集中反映了贵州多民族大家庭的和谐生活，可使游客在短时间内领略到贵州绚丽多彩的民族文化。《多彩贵州风》的制作是全国优秀的水平，创作灵感来源于古老而神秘的贵州高原。整台节目以一位美丽的苗家少女返乡所看到的新变化为红线，构思上将深远的意境、新奇的艺术语汇、绚丽的色彩、淳朴的古风、现代的神韵及人文景观相融合在一起。 运用现代舞台声、光、电手段，以新颖的舞台形式展现在观众眼前，揭示了人与自然相和谐、文明和文化相映衬的空灵、宽阔的艺术主题，构成一台令人耳目一新的民族歌舞诗。,https://dimg04.c-ctrip.com/images/01022120008gddd3tEB23.jpg
贵阳,贵御温泉,142079,26.615756,106.770757,4.5,贵阳贵御温泉青山相拥，泉水为伴。贵御温泉，是贵州省第一家露天园林温泉，是贵州本土特色原脉品质温泉，是国家AAAA级旅游景区。 贵御温泉景区位于“黔中秘境、生态乌当”，空气清新，四季葱绿，幽静雅致，交通便利。已开发经营面积达35000平方米，有水温池型各异的泡池和盆景花卉；有温泉区、功能区、休息区，功能完备，满足您的不同需求，是休养度假、会议交流、康体游乐的理想场所，任您自在享用，饱尝健康和快乐！贵御温泉的优质地热矿泉水，源于1900米地层深处，出水温度高达53摄氏度。水质晶莹，无味无色；富含偏硅酸、锶、硫、铁等30多种矿物质微量元素，经常浸泡，益处良多。 贵御温泉泉水健身、景色怡人、服务温馨，来到这里，收获健康、休养身心、享受愉悦，一切让您倍感物超所值，流连忘返！,https://dimg04.c-ctrip.com/images/100b10000000q1ri2042D.jpg
贵阳,保利国际温泉,142177,26.610167,106.759244,4.3,"保利国际温泉座落于素有“黔中秘境，自然乌当""之称的乌当区，四周环绕着二十年的环城林带，景色宜人、空气清新、交通便利,距市区仅15分钟车程,距火车站、飞机场仅20分钟的车程。占地150亩，建筑面积近15000平方米，室外面积23000平方米，涵盖温泉、餐饮、客房、SPA、保健、棋牌等服务项目，装修为东南亚风格，是按国际标准打造的养生、休闲、度假胜地，国家AAAA旅游景区、中国十佳温泉度假酒店。温泉区主要由室内、室外两大温泉板块，由8个温泉池区、1个露天休息区（小食坊）、58个不同种类的特色温泉池、鱼疗池、地热带、水上乐园、8间温泉汤屋组成。 其中室内温泉含风情水疗区，共13个温泉池；室外温泉含水上乐园区、游泳池、泉中秘境区、情侣区、养生谷、思静台等区域45个温泉池。四大特色，室内和室外相结合： 室内温泉汤池让客人在沐浴休闲的同时，也能领略到浓郁的各国风情文化，在享受露天温泉所带来的养生保健的同时，感受大自然所赐予的青山绿水、繁星夜色，给人心旷神怡、飘然于世的心灵享受。人文景观和自然景观相结合： 温泉区在保留原有自然风貌的同时增添了具有亚热带特色的植被景观，同时在功能设计上融入了国外的沐汤文化精髓，使温泉区形成了人文与自然和谐融合的特点。 国内外传统、时尚结合： 除中国传统的茶、酒、醋等加料浴和地热带等温泉外，还荟萃了国外的水疗、鱼疗、精油浴等，使人在享受温泉的同时，感受到别样的温泉文化。 休闲、娱乐、旅游、度假相结合： 在感受温泉的同时更是身心的放松，各种娱乐休闲设施，丰富了人们的度假休闲生活，相对于人潮涌动的景区，保利国际温泉真正意义地将休闲与放松完美结合。",https://dimg04.c-ctrip.com/images/300s1f000001gcrbdD93A.jpg
贵阳,翠微园,1677613,26.570723,106.720069,4.6,翠微园与城南甲秀楼相毗邻，是一组较大规模的古建筑群，占地四千多平方米，始建于明弘治年间（1488-1505年），为市级重点文物保护单位。园内拱南阁造型敦朴生动，翠微园端庄秀丽，淡花空翠园修竹婆娑，龙门书院浓荫幽静，长廊花墙四围，集幽、雅、雄、朴于一体。这里原先是一片寺庙和园林，王阳明普经游览过的南庵便在这里。近年来改建为翠微园，把寺庙建筑与园林庭院合为一体。,https://dimg04.c-ctrip.com/images/10041f000001gp9ah4FCE.jpg
贵阳,万寿宫,1677102,26.330739,106.68759,4.4,万寿宫位于青岩古镇西街3号，毗邻慈云寺。清康熙年间建，嘉庆三年（1798年）重修，早并不是一座道观，而是江西会馆，为南来北往的商贾之所，后来改造为道观。整座宫院由正殿、配殿、西厢、戏楼和生活区组成，坐东向西，建筑大都在“文革”中被毁，多是后来重建。宫内有看头的便是戏楼，其中的木雕精美绝伦。在戏楼右侧的木质横梁上，一组高浮雕人物图案为，内容为“鸿门宴”、“十面埋伏”、“四面楚歌”等，很有军旅文化特色。,https://dimg04.c-ctrip.com/images/100n1f000001gpdlk5870.jpg
贵阳,状元府,1677120,26.333541,106.689144,4.6,状元府是贵州第一个文状元—赵以炯的故居，坐落在青岩古镇状元街1号，状元街与北街交接，靠南边那一截叫“下院街”，北街干道上有指示路牌比较容易找到。大院门前是一副简单的对联“琴鹤谱志，论语传家”，显示了主人一生的志愿。府第坐南朝北，为两进四合院，均为一正两厢，风格是歇山式，总占地面积700平方米左右。现存前殿、正殿、两厢和朝门，朝门内墙上有许多不同“寿”字残迹，据说这是赵以炯曾曾祖父赵理伦百岁时所留。建筑是以木质结构为主的，气派而不张扬，宁静恬淡，一派书香风范。,https://dimg04.c-ctrip.com/images/100t1a0000019e2oh4D87.jpg
贵阳,麒麟洞,1676478,26.597577,106.696478,4.4,,https://dimg04.c-ctrip.com/images/100v1f000001h1cgz9911.jpg
贵阳,多彩贵州城极地海洋世界,1999330,26.529406,106.790571,4.5,"多彩贵州城极地海洋世界是贵州省第一家以海洋生物观赏、海洋动物表演为主的大型海洋展馆。场馆由亚马逊热带雨林区、海洋珊瑚礁鱼区、鲨鱼区、极地世界区、海底隧道区、梦幻水母区、科普展示区及“美人鱼”剧场、海豚剧场等七个展区两大剧场组成。同时展示了北极熊、白鲸、海豚、企鹅等300多个品种、上万尾（只）珍稀海洋生物。

观看了种类丰富的海洋生物之后，大家可千万要记得观看一场海洋萌宠们带来的精彩表演，在极地海洋世界推出的海豚狂欢表演、海狮互动表演、人鲸共舞表演中，搞怪逗趣的毛皮海狮、憨态可掬的加州海狮、聪明伶俐的海豚和呆萌可爱的白鲸将用它们的独门绝技征服你挑剔的眼光。置身长达35米的海底隧道区里，你会被蓝色所包围。在众多大型的海洋生物中你会看到善于伪装的深海巨斑，飞翔飘逸的鳐鱼，带人毒刺的牛鼻鲼，色彩鲜艳、成群结对的圆燕、体型庞大的护士鲨等等，你还可以观赏到安徒生笔下的美人鱼在巨型的海螺宫里深情的等待着她的王子而演绎的曼妙的水下舞蹈、还有国内的水下表演者带来的异域风情的水下芭蕾表演、潜水员带来的人鲨共舞表演，都将会大大震撼你的眼球，让你体验到大海的神奇与梦幻、人与自然的和谐。

海底隧道区:海底隧道全长35米,储水2500多吨,穿越海底隧道,您可以欣赏到种类繁多的海洋大型鱼类,有善于伪装的深海巨斑,飞翔飘逸的鳐鱼,带人毒刺的牛鼻鲼,色彩鲜艳、成群结对的圆燕、体型庞大的护士鲨等等,你还可以观赏到巨型的海螺、安徒生笔下的美人鱼、珊瑚礁等美丽景观。

多彩贵州城极地海洋世界不仅仅是提供观赏和表演那么简单，他更是贵州省和贵阳市重要的“科普教育基地 ”和“水生野生生物保护和救护中心”，在提高人们对水生生物的认识与保护方面肩负着艰巨的社会责任。在给大家带来欢乐的同时，这里还能让你了解到关于海洋生物的生活习性，从而对人类认知海洋、了解海洋、保护海洋起到了积极的推动作用。
",https://dimg04.c-ctrip.com/images/01068120008m61eyuC345.jpg
贵阳,花溪夜郎谷,1831311,26.386992,106.645555,4.3,花溪夜郎谷位于贵安新区花溪大学城斗篷山脚的小峡谷里，与之相对的斗篷山相传曾是夜郎王后继金竹司的住所。时至今日，山顶仍保留着古夜郎屯堡的遗址，夜郎谷也因此得名。夜郎谷内的石头建筑、陶艺、雕塑等特色建筑，神秘而又充满了浓郁的艺术气息，值得一观。,https://dimg04.c-ctrip.com/images/0100m12000f6qzo5bB649.jpg
贵阳,贵州大学(花溪东校区),1830855,26.444072,106.671793,4.7,贵州大学(花溪东校区)创始于1902年，是国家“211工程”建设高校。贵州大学(花溪东校区)历经贵州大学堂、省立贵州大学、国立贵州农工学院、国立贵州大学等时期，1950年10月定名为贵州大学(花溪东校区)。 1997年8月，与贵州农学院等院校合并。 2004年8月，与贵州工业大学合并。截至2018年3月，学校占地面积33833.29亩，下设40个学院。,https://dimg04.c-ctrip.com/images/0107112000joxahdv26DB.png
贵阳,七星潭,1676484,26.590172,106.695745,4.6,七星潭的泉水从麒麟洞涌出至公园正大门，形成七个潭，取北斗七星作潭名，依次为：摇光潭、开阳潭、玉衡潭、天权潭、天玑潭、天璇潭、天枢潭。潭边杨柳井、白象泉清冽甘甜；潭上杨柳笼烟，拱桥雕栏；潭中莲花盛开，游鱼嬉戏。赤松和尚曾泳诗赞道：“那是檀山幽涧水，和烟和月到前溪”。2003年，七星潭驳岸、水景、植被和林相得到大规模改造，增加道路、广场和休息设施的建设，突出开放性、亲和性、观赏性。形成七星潭景区翠嶂清溪、山泉叠瀑、怪石嶙峋、林木葱茏、山花点点、鸟鸣深谷、猿啼幽涧、石壁岩貌、四季有景的山水画卷。,https://dimg04.c-ctrip.com/images/0107112000f6qyc7rF8C4.jpg
贵阳,文昌阁,1677134,26.33109,106.688981,4.6,青岩古镇文昌阁位于古镇内东街143号，占地面积800多平方米。建于明万历年间，乾隆年间重修，砖木结构，依山而建，为攒角重楼八角式。是旧时读书人常去读书、聚会、祭拜文昌帝君的地方。,https://dimg04.c-ctrip.com/images/0104f12000f6twdbk57A8.jpg
贵阳,百步桥,1677301,26.433725,106.671987,4.8,花溪公园百步桥又称跳墩，因由一百三十多个相隔两尺左右的石墩立于河上，游人跳踩石墩而过，故名。,https://dimg04.c-ctrip.com/images/0101212000asew2kp89E3.jpg
贵阳,林青就义处,1677518,26.588921,106.705052,4.6,林青就义处在贵阳市区环城北路江西坡。1935年9月11日，年仅24岁的林青同志被杀害。路上，林青高唱《国际歌》，惨无人道的敌人用刺刀插进他的口中、林青面对强敌，威武不能屈，表现出一身浩然正气和无私无畏的革命英雄气慨。林青同志被害后，遗体被地下党秘密安葬在江西坡的乱坟岗上（今瑞金北路江西村小学后门处）。1983年9月，林青同志被杀害的地点，被贵阳市政府列为市级文物保护单位。同年，市政府拨专款修建了“林青就义处”，该处同时也被列为爱国主义教育基地。,https://dimg04.c-ctrip.com/images/0102b12000asbk9lp001E.jpg
贵阳,情人谷,56391,26.605449,106.80846,3.8,该景点位于贵阳市乌当区东风镇，整个峡谷景致奇特多变，除奇丽的峡谷风光外，还有许多溶洞，“望天厅”、“通天洞”、“犀牛洞”等，洞内外石钟千奇百怪，栩栩如生。整个景区中，“金龟托桥”不可不去。在峡谷两岸陡峭的河谷中，你可以看到一座酷似龟的巨石托起一座桥横跨河谷。在水流的激荡中，这只“巨龟”在水浪中摇头晃脑，时起时伏，活灵活现，非常有趣。,https://dimg04.c-ctrip.com/images/100i1f000001gp56z3C80.jpg
贵阳,龙洞桥,1677816,26.549217,106.778517,4.7,龙洞桥又名见龙桥，俗称老桥，始建于明朝初年，位于今龙洞堡见龙桥上游300余米深湾处。龙洞桥两岸山岩陡峭，灌木丛生，桥建在深邃的河沟里，横跨在龙洞河上。它是明、清湘黔驿道之津要，地处贵阳东面门户。龙洞桥为青条石砌成的三孔石拱桥，东西朝向。它不同于平常的石桥，而是一座奇特的“S”形桥，桥身东窄西宽，桥面平整无护栏，桥下河水清澈，可见游鱼。桥长64米，宽的一端8.5米，窄的一端4.7米，依山形水势，修建得别具匠心，是将一座单孔石桥和另一座双孔石桥衔接成的三孔石拱桥。2003年10月，龙洞桥被贵阳市政府公布列为市级文物保护单位。,https://dimg04.c-ctrip.com/images/01046120008s7gdjo4AE5.jpg
贵阳,黔明古寺,1677527,26.570175,106.714526,4.6,黔明寺建于明朝末年，清乾隆三十六年（1771年）重修，显笃禅师驻锡于此，弘传禅宗。黔明寺因年久失修，破败不堪。后来又遭严重破坏，佛像被毁，经籍被焚，僧众离散。后经兴建，寺庙现建有大雄宝殿、大悲阁、藏经楼、客堂、斋堂、僧寮、办公楼、山门等，气势宏伟。,https://dimg04.c-ctrip.com/images/100g1f000001gqxsiECDB.jpg
贵阳,东山公园,51219,26.582446,106.726511,4.6,东山又称栖霞山，在贵阳市东门外，孤峰兀立，峭壁陡绝，海拔约1200米。反径一线由北坡曲折而上，至巅，地势平坦。原有东山寺，已毁。摩崖、碑刻尚多保存。“负山雄丽，景色清幽”的自然风光亦具特点，“东岭路如梯，云深曙色迷”。登高远眺，高峰霞举，峻岭云回。俯视城郭，万家烟火，历历在目。,https://dimg04.c-ctrip.com/images/0102y12000j4t6hom10AA.jpg
贵阳,龙泉寺,1677191,26.333733,106.688538,4.6,龙泉寺位于青岩古镇北明清街终端，始建于明万历年间，清康熙五十七年（1718年）重修，是青岩古镇中大的寺庙，占地3500馀平米，为三进四合大院。寺内内有大殿、配殿、戏楼、厢房等数十间，均为穿斗式悬山顶砖木结构，建筑群规模恢弘，雄伟壮观。配殿、戏楼、侧山门厢房还有保存完整的木雕艺术珍品，有中国传统的二十四孝故事以及神话小说《封神演义》中的经典故事等，大殿内木柱有特色，以手敲击，可听到咚咚的鼓声，一如黄钟。,https://dimg04.c-ctrip.com/images/100n1f000001gpd2w1745.jpg
贵阳,阳明祠,1834912,26.583646,106.725741,4.4,阳明祠位于贵阳城东扶风山麓，始建于清嘉庆十九年（1814年）。阳明祠是三组古建筑的总称，它包括阳明祠、尹道真祠、扶风寺三部分。三组古建筑共同组成环境清幽、景色秀丽的扶风山风景区，清代西南巨儒郑珍曾赞之为“插天一朵青芙蓉”。阳明祠是后人为了纪念明代的哲学家、军事家和文学家，心学的创始人王守仁（字伯安，号阳明）(1472年—1528年）而建立的祠堂。祠内殿廊相接，林木葱茏，清幽宜人，诗文碑刻甚多，文物荟萃，引人注目。祠内林木葱茏，根雕、盆景千姿百态，桂树浓香四溢，碑刻甚多，曲径回廊，清幽 宜人。祠内现存有王阳明先生朝服线刻大像。祠内左右两壁还嵌有王阳明先生的《训士四 条》和《论语四条》木刻。建祠以来，文人墨客吟唱题赞，佳作不乏。,https://dimg04.c-ctrip.com/images/0103412000j4szf37E6A2.jpg
贵阳,云顶草场,120661,26.292067,106.815293,4.3,位于贵阳市花溪区的高坡乡，距贵阳花溪风景区约37公里，是一个苗族为主、汉族和布依族杂居的苗族自治乡。 广袤的云顶草场，位于高坡东部，是体味草原风光的旅游佳境。在如此高地有广大的平地草原，实属罕见。缓丘广袤，无边无际，大有“风吹草低见牛羊”的塞外感觉。山高水也高，极端顶上，有“天塘”如镜，傍苗寨竹园草舍。山颠云驻，时聚时舒，缥缈犹仙。,https://dimg04.c-ctrip.com/images/0105k12000877wjyjCE5B.jpg
贵阳,贵阳药用植物园,1677608,26.531999,106.700366,4.3,贵阳药用植物园位于贵阳市中心城区南明区和小河区交界处，交通十分便利，具备城市园林建设及开展药用植物科研、科普工作的自然地理环境优势。贵阳药用植物园具有科研、科普、生产、游览四大功能。植物园规划面积1200亩，园区房屋建筑总面积约36000平方米，这里气候温和湿润，具有优美的亚热带高原立体生态景观特色。园内建有药用资源博物馆、网球场、健康养身会馆、拂云楼、中试厂等房屋和设施。,https://dimg04.c-ctrip.com/images/100q12000000s4v0o62E9.jpg
贵阳,迎祥寺,1677735,26.32958,106.687442,4.6,迎祥寺位于贵阳青岩镇南街，是明末清初贵州的重要寺院之一，寺名为迎接吉祥之意。迎祥寺始建于明天启元年（1621年），由智安法师修建，前后历时七载，于天启七年（1627年）竣工。寺院建有阁式山门、大殿、后殿及两侧配殿。1990年，在社会各界大力支持捐助下，由通修法师主持，再次照明代建筑样式进行维修，并从贵阳黔灵山弘福寺迎入释迦牟尼、阿南尊者、十八罗汉等佛像21尊，供奉于大雄宝殿。1997年9月，经贵阳市人民政府公布列为市级文物保护单位。,https://dimg04.c-ctrip.com/images/10020y000000lyi3bB8B7.jpg
贵阳,鹿冲关森林公园,1677486,26.62442,106.705222,4.8,鹿冲关森林公园位于贵阳市城北黔灵山脉，距城区2.5公里，交通很便利，这是贵阳比较大的公园。公园集休闲、健身、疗养和科普为一体，拥有体育健身游乐区、森林科普游览区、农业休闲区、森林疗养康复区、花卉观赏区、盆景艺术展览区、果园区、森林阳光野营区、管理区等九大功能区，并建有公园主要园道、步道。园内有莲花览胜、莲花洞、地母洞、五虎朝阳、植物科普观赏园等景点，是休闲放松的好去处。,https://dimg04.c-ctrip.com/images/10031f000001gs21z3F92.jpg
贵阳,达德学校旧址,120629,26.576019,106.712679,4.7,达德书院坐落在贵阳闹市区，原是元代修建的南霁云庙，明清两代曾多次重修和增修，改建为忠烈宫。院子里，地上落满了紫色梧桐花，让人都浸透在淡淡的芳香之中。现在的书院是一个集戏院、书店和茶馆为一体的休闲场所。穿过忠烈宫后的操场，就是达德学校旧址的主体部分，一所典型的明清风格的四合院，设在礼堂内的达德校史展览，向游人展示这个开始只有二十几个小学生的私立小学，是如何发展成拥有1600多名学生的门类齐全的学校的。书院后院建有王若飞和黄齐生的纪念堂，每年的4月8日，都会有纪念活动，院中两人的塑像前一年四季都放有不知什么人献上的鲜花，成为了贵阳市重要的爱国主义教育的基地之一。,https://dimg04.c-ctrip.com/images/0103f12000f6q0zm54F87.jpg
贵阳,香纸沟,4164,26.794219,106.886034,4.4, 香纸沟位于贵阳市东北35公里的乌当区新堡乡，是一座清新自然的山寨。因沿用古法盛产祭拜时的香纸而得名。香纸沟沟内峰峦叠嶂，瀑布飞流，周围环境优美，空气清新，古朴典雅的木结构民居错落有致地点缀于山水之间。分布着锅底箐、南靖寺、龙井湾、马脚冲等7个景区。香纸沟不仅有美丽的自然风景，重要的是还保存着据说是目前国内规模大、集中的古法蔡伦造纸作坊系统。以竹为料，伐竹、破竹、蒸竹、沤竹、水车碾竹、竹帘抄纸等72道工艺流程，古朴而奇特。香纸沟盛产的“香纸”主要是民间祭拜时用来焚烧的神圣“纸品”.每年“三月三”的布依歌会以其浓郁的民族风情，吸引八方客人，同时香纸沟的布依贴画和簸箕画，工艺独特，别具匠心。,https://dimg04.c-ctrip.com/images/1A02170000011hc0j8FB9.jpg
贵阳,观风台,1677778,26.569838,106.72526,4.4,观风台又名观象台，位于今省委侧面的小山上，下临南明河。相传蜀汉诸葛亮南征牂牁时，大将马忠驻兵于此。曾是清代“贵阳八景” 之一，称“风台踏草”。1983年9月列为贵阳市文物保护单位。观风台风景如画，登台远眺，极目筑天，南明河两岸风光，一览无余，引来无数文人争相赞咏。“文化大革命”期间，山上庙宇、亭、阁，均被视为“四旧”而毁坏殆尽，今仅存遗址。1980年，贵阳市人民防空委员会在山上架设防空警报器，并建凉亭等设施，供游人登临游览。,https://dimg04.c-ctrip.com/images/0106412000atwl7f84D5D.jpg
贵阳,观音洞,120630,26.565446,106.737038,4.4,观音洞位于贵阳城南油榨街左侧的青年路上，该处山半有一天然岩洞，洞外有佛殿，重楼高耸。洞中有观音坐像，故名观音洞。山因洞而名，又俗称观音山。观音洞，洞内面积约100余平方米，四壁钟乳玲珑，抚之如玉肌，睹之如云涌。观音寺为清朝嘉庆年间建造，洞外有佛殿，又有客室三楹。现殿阁高耸，直上云端，佛殿已成为寺庙的核心建筑。,https://dimg04.c-ctrip.com/images/01A5p120009admvcx86E4.jpg
贵阳,万象温泉,2019090,26.650321,106.782853,4.3,万象温泉位于万象温泉度假酒店内，是集温泉养生与旅游度假于一体的温泉养生综合体。位于贵阳市乌当区中北部中国振华电子集团北侧，距振华广场约1公里。万象温泉水采自地下2188米深热水层，属偏硅酸型，温度高达57℃，日出水量1670吨。主要分为温泉酒店、温泉中心、万象泉苑、马垅别苑四大板块。,https://dimg04.c-ctrip.com/images/0101q120008lj561sBEE3.jpg
贵阳,赵公专祠,1677186,26.3306,106.688367,4.4,赵公专祠位于青岩镇南街，建于清同治年间，原为青岩团务总理赵慰三之专祠。专祠1600占地面积平方米，建筑面积923平方米，由山门、通道、过厅、两厢房及大殿组成。祠东为文昌阁，祠南为青岩书院。2003年被公布为贵阳市市级文物保护单位。,https://dimg04.c-ctrip.com/images/10020y000000lyi399225.jpg
贵阳,仙人洞,1677622,26.576765,106.735568,4.7,贵阳仙人洞位于贵阳市仙人洞路和水口寺路之间的山上是贵阳有名的道教胜地。仙人洞在山腹，仙灯洞在山顶，八仙洞在仙灯洞之上，洞内塑有张果老、吕洞宾等八仙神像。传说八仙在洞中下棋，山下南明河中有巨石与巨龟相斗，八仙中的吕洞宾掷棋子一颗下来，巨龟逃遁，巨石震裂成船形，俗称“船石”。船石位于水口寺小学附近的南明河边，是一块如船形状的天然巨石，高出水面，为仙人洞下一景。今船石尚存，“宛然桅舟野泊”。,https://dimg04.c-ctrip.com/images/1me1612000fcb7xp61D1C.jpg
贵阳,三岭湾猕猴观赏园,1677201,26.594224,106.695077,4.7,黔灵公园野生猕猴观赏园是公园三岭湾景区的一部分，原为中西式建筑，包括会议室、招待所等，始建于二十世纪三十年代。一九八五年，政府投资对此处进行了整修，只保留了原会议室，并配以富有中国园林特色的长廊及江南亭榭，以供游人欣赏及休息。一九九一年，公园在该景区建成全国仅有的城市公园野生猕猴观赏园。,https://dimg04.c-ctrip.com/images/0105g12000bsby4e09245.jpg
贵阳,三元宫,120617,26.576883,106.706945,4.6,三元宫位于贵州省贵阳市西瑞金路金锁桥侧，始建于清光绪十二年 （1888年） ，建有大殿三层，底楼供三官、冥王；二楼供关帝、吕祖；三楼供玉皇大帝，配诸四相。光绪十五年建钟鼓二楼，次年又建乐亭。建筑保存至今，为省级重点保护单位。,https://dimg04.c-ctrip.com/images/10081f000001gqfvt1068.jpg
贵阳,慈云寺,1677181,26.330299,106.687212,4.2,慈云寺位于青岩古镇北街5号，始建于康熙年间，道光十二年（1832年）重修，总占地面积近2000平方米。整个建筑构架保持完好，有很多石柱础为贵阳市石柱础中石雕艺术精品。,https://dimg04.c-ctrip.com/images/100f0s000000hrreyF012.jpg
贵阳,甲秀广场,1831475,26.571327,106.717327,4.7,甲秀广场坐落在西湖办事处驻地西面的南明河畔，由原滨河路，滨河巷改建，占地为16500平方米。由南明区政府投资了5000万元，在2001年10月8日动工，历经3个多月，于2002年2月4日正式向市民开放。甲秀广场中铺装了8800平方米花岗岩地面，2700平方米青石板，300平方米鹅卵石健身路及4700平方米草坪，3700株灌木和20506盆时令花卉，235株珍贵树木，其中两株300多年树龄“镇场”的银杏树。,https://dimg04.c-ctrip.com/images/100q1900000175flk9360.jpg
贵阳,刘统之先生祠,120625,26.577163,106.716644,4.4,刘统之先生祠位于贵阳市白沙巷，现为六一幼儿园所在地，始建于1917年，原是贵州省财政厅长张协陆的私人宅院，此宅十分气派。1919年，刘显世将这座私宅转了过来，并改为“刘统之祠堂”以纪念自己的父亲刘统之。刘统之（1840-1910年），名刘官礼，字统之，贵州兴义人。咸丰时弃学从戎，参加团练。同治初年因镇压白旗军起义有功，被任命为兴义府安义镇各军统领，升在籍知府，后加道员衔，留云南用。光绪末，因在家乡率团抗击广西会党起义军，收复兴义，升云南后补道，统领兴义滇黔靖边营。晚年扩建书院，办新式学堂，兴实业，对地方卓有建树。该祠堂坐南向北，今存前后院，占地面积约2000平方米，所有建筑均为穿斗式木结构硬山顶，两山和后檐均为砖砌空斗墙。前檐为木装修，屋面盖小青瓦。大门拱门，门额“刘统之先生祠”系康有为于1920年3月书。该祠现为贵阳市“六·一”幼儿园使用。,https://dimg04.c-ctrip.com/images/100k0r000000he34x5C49.jpg
贵阳,东山寺遗址,120619,26.577853,106.727478,4.6,贵阳城东二里处有一山称栖霞岭，一山横起，形若屏障，林木葱郁，山上建有一寺名为东山寺。东山寺又名东庵，栖霞寺，明清以来为贵阳游览佳处，建于明洪武时期，后多次重建。特殊时期遭到破坏，现仅存遗址，有多处摩崖石刻。1981年该遗址被公布为贵阳市市级文物保护单位。,https://dimg04.c-ctrip.com/images/0101j12000ikvukkt1C53.jpg
贵阳,麟山,1677471,26.434528,106.670461,4.7,麟山位于花溪公园北侧，原名狮子山，长200米，宽100米，相对高度4185米，是花溪公园内的高山。山上林木苍翠，古树参天，峭壁入云。沿石级而上，山腰有“飞云阁”，依山而建，亭中可小憩观景。从“飞云岫”穿洞而出，可至山顶，在此鸟瞰四周，花溪景色尽收眼底。山顶矗立巨石，石壁上刻有“黔山一柱”，为书法家王萼华墨迹。山麓有“生聚教训”摩崖，为刘剑魂先生1938年提撰。“麟山耸翠”已成为花溪公园富有特色的景观。游人游览花溪公园，也以一登麟山纵览花溪全景为快。,https://dimg04.c-ctrip.com/images/0104o12000aseuy5e6FC6.jpg
贵阳,相思河,56392,26.743198,106.857348,4.5,相思河景区是由泥岩和石灰岩组成的峰林峡谷。茂密的森林、陡峭的山峰、幽静的湖面、直泻的瀑布、奔腾的急流，巧夺天工地组成了52处景点、景物的“世外桃源”。景区设施包括相思河度假村、彩凤坪接待中心、望郎山庄等。建筑风格古朴、极具地道的少数民族农家风情。相思河风景区森林覆盖率高，植物达620多种，不乏极其珍贵的植物，各种珍禽异兽栖息其中，是森林旅游狩猎的好去处。,https://dimg04.c-ctrip.com/images/0100d1200092lusxkFC4F.jpg
贵阳,天上人间-银河宫,1677281,26.437455,106.573923,4.8,银河宫即为龙潭洞旱洞，分为三层，全长近2000米，洞中有一天然石桥——奈何桥，它座落在洞里两座悬崖之间，桥下是深不可测的阴潭，堪称鬼斧神工，令人叫绝。洞内满布玲珑剔透，形态各异的钟乳石，千姿百态。让人流连忘返，其中较著名的景点有：“猴子捞月”、“千年等一会”、“春满人间”等。,https://dimg04.c-ctrip.com/images/1me6u12000bm5hzn46425.jpg
贵阳,民国英式别墅,1677826,26.571197,106.723661,4.5,英式别墅位于贵阳市南明东路18号院内，它是我市上世纪30年代建造在南明堂的诸多别墅之一。由上海建筑大师陶桂林设计建造。别墅为花园式洋房，砖木结构，青砖红瓦。两层楼，四壁开窗，外墙面清水勾缝，内墙面刷白。共有正房10间，地面全铺梓木地板。饭厅、客厅地面拼花，花饰清晰，格外雅致，客厅内设有壁炉。二楼门厅处有近10平方米的阳台，房屋设计别致，结构牢固，通风采光良好，它是诸多别墅中较为有特色的一幢。随着时代的变迁，原南明堂别墅群先后拆除，唯有这座英式别墅完整的保存下来。它既见证贵阳城市的发展变化，又佐证上世纪三四十年代贵阳豪宅的建筑状况。2003年10月，经贵阳市人民政府公布列为市级文物保护单位。,https://dimg04.c-ctrip.com/images/100q1900000175fln43C5.jpg
贵阳,戴安澜将军墓,1677457,26.431711,106.674487,4.4,,https://dimg04.c-ctrip.com/images/0104z12000asexohp834C.jpg
贵阳,孔学堂,1831849,26.464719,106.6778,4.2,孔学堂背倚大将山，俯瞰花溪河，建筑面积2万余平方米，因袭宏伟、大气之汉唐风格，并融入贵州地域建筑元素。2011年7月3日奠基，2012年9月28日即孔子诞辰2563周年纪念日落成揭幕，孔学堂的兴建得到社会各界大力支持，民营企业中天城投集团欣然捐资建设。孔学堂500米中轴线起于棂星门，过泮桥，拾阶渐上，经大成门、礼仪广场、大成殿，止于杏坛；左有溪山书院、讲堂群，右有六艺学宫、乡贤祠、阳明祠、奎文阁。大成门前耸立孔子行教像，高9.28米，以纪念孔子诞辰。希望将孔学堂建设成为研究、传承、弘扬中国优秀传统文化的重要基地。,https://dimg04.c-ctrip.com/images/0105512000f6tzvzz7A7B.jpg
贵阳,相宝山,1677777,26.591537,106.721202,4.3,相宝山又名“照壁山” 俗称“平顶高峰” ，皆因山势得名，位于今贵阳市宝山北路东侧。相宝山包括两座相连的山峰，西峰高而东峰低。早在明崇祯年间，西山建寺，名“相宝寺”、“照壁山寺”、“屏山寺”，亦称“毗尼寺”。“毗尼”为梵语戒律之意，该寺为贵阳地区唯一律寺，故有此名。相宝山远观形如画屏，又似一叶张帆待航之舟，逢春秋佳节，游人如织，历来骚人墨客留下不少题句于此。吴廷祯、朱文、邹一桂、王本玉、郑珍等均有游览相宝山的诗词传世，地方史志多有记载，这些诗不仅有一定的文学欣赏价值，还是研究贵阳历史的重要史料。抗日战争时期驻兵于寺内，本已破旧的殿宇又遭破坏。1958年大炼钢铁，山寺房屋被拆毁，寺院仅存屋基遗址，昔日旧貌，荡然无存。1983年9月相宝山列为贵阳市文物保护单位。,https://dimg04.c-ctrip.com/images/0104y1200092m0jpx0300.jpg
贵阳,青岩古镇-南门,1713527,26.327905,106.688276,4.5,是清顺治年间，班应寿扩修青岩城时所建，城楼青瓦屋面，现建筑是后期修葺，加修了护身墙。安广门前一片池塘，荷花盛开，景色别致。,https://dimg04.c-ctrip.com/images/0101z120009ecylt0E22E.jpg
贵阳,乐湾温泉,4239751,26.631859,106.827181,3.1,乐湾温泉温泉水清澈碧透，日出水量1500m3，来自地下3000m的71℃温泉问鼎贵州高温。根据权威机构对温泉水矿物质含量检测报告，乐湾温泉属偏硅酸泉。乐湾温泉以丰厚的温泉沐浴文化，加上热情、周到、温馨的个性化服务，尽显温泉神奇魅力，是众多追求健康、钟情美丽的高尚人士休闲度假旅游的新天地。,https://dimg04.c-ctrip.com/images/0100h12000f6u286m019D.jpg
贵阳,清真寺,1677771,26.584933,106.710777,4.5,该建筑位于市区称夏状元街西侧，改建后的建筑，占地约620平方米。寺临街大门为古典牌楼式方形大门，以巨石砌成，门额正中嵌有长1米许的石碑1块，镌刻行书，字大径尺，苍劲有力。门枋以条石竖砌，门柱正面阴刻楷书楹联一副，联云：“清净中孚，恒乐同人而集福”； 下联为“真诚无妄，咸歌大有以延庥”。两联第一字分别嵌“清真”两字。楼脊上置一连珠宝瓶，大门与二门之间有近20米深巷。二门也是中国古典牌楼式，惟门洞为园拱形，门顶有阿拉伯文石刻一块，两侧石门柱均有花纹图案雕刻。二门之后，为新建的六层楼房，六层是在第五层平顶上的东端建成一座正方形，穹窿顶的大楼，即“望月楼”，亦称“拜楼” 。该建筑大殿，座东西向，为宫殿式木结构古建筑，三开间，木地板，青色筒瓦，檐牙飞翘，木格扇门，古朴典雅，为教徒进行礼拜之所。,https://dimg04.c-ctrip.com/images/0101k120009v7m8at2A6F.png
贵阳,坝上桥,1677282,26.431886,106.669736,4.7,花溪公园内的坝上桥原是一座石墩木板桥，桥上朱栏，鲜丽夺目 ，取“坝桥风月”之意命名为坝上桥。,https://dimg04.c-ctrip.com/images/0103112000bpiqfluF04D.jpg
贵阳,渔洞峡,21892,26.631731,106.838361,4.4,鱼洞峡景区内山峦波壮起伏，陡岩峭壁耸立，形成奇特的岩溶绝壁、峡谷景观，南明河、鱼梁河、渔洞河迁回交错，有“十里河湾”的美誉。景区以来仙阁和鱼洞峡两景点为骨架。鱼洞峡上游是地下河溶洞以及人工湖，湖两岸是高200－235米的峡谷，悬崖绝壁，河谷狭窄，“天水一线”；下游在清澈的鱼洞河，修筑了5道堤坎，形成了一个10000平方米的游泳场和4个划船区，集跳水、游泳、划船、冲水滑梯等多种娱乐、健身功能为一体。,https://dimg04.c-ctrip.com/images/0104v1200092m1tn98901.jpg
贵阳,王伯群故居,120633,26.574228,106.716908,4.5,,https://dimg04.c-ctrip.com/images/01020120009e2fe4s2D7C.jpg
贵阳,金翠湖,56607,26.519653,106.833094,4.0,金翠湖全称叫“贵阳金翠湖旅游园”。园内青山叠翠、绿树成荫、植被满园，截河成潭形成了天然的金翠湖，她古朴纯真的美景、秀丽独特的韵味、田园风光的格调、情画意的风情。金翠湖旅游园内既有欧式别墅建筑群、豪华套房、普通标间、休闲广场，大、中、小会议室、高级会议中心、茶楼、棋苑、酒吧、KTV包房、娱乐歌舞厅、真人CS、露天演艺台、能容纳千人就餐的餐厅、室内健身房、室外运动场、草坪赤足运动场、儿童乐园、儿童游泳池、天然游泳场、湖边赏光长廊，又有浓郁民族民间的山寨建筑群、瀑布等人造景观。金翠湖是养身的馨园、休闲、度假乐园、团体会议、旅游度假憩园、文人墨客作画、吟诗的田园。,https://dimg04.c-ctrip.com/images/01007120009415uje48D2.jpg
贵阳,简书墓,1677637,26.600161,106.68829,0.0,简书墓位于秀丽的黔灵湖畔，沿着茂密的森林小道拾级而上，约走百余米开外就能看到。墓四周古木参天，遮荫蔽日，墓主人就是贵州辛亥革命先行者，领导大方人民武装起义推翻清朝统治，建立大方军政府的重要领导人简书。墓前石碑刻“简公孟平之墓” 六字，墓地东侧有碑两块： 一为“简书墓重建纪念碑”，一为“简书先生传略”碑。简书是贵州辛亥革命的先行者，简书的一生对研究贵州辛亥革命史有着一定的历史价值。1987年5月贵阳市人民政府公布简书墓列为市级文物保护单位。,https://dimg04.c-ctrip.com/images/0105b12000bs0yp7r6D37.jpg
贵阳,放鸽桥,1677130,26.434378,106.673218,4.7,放鸽桥位于贵阳花溪公园内，1943年将介石游花溪，途径此桥时遇一只被枪击而落的斑鸠，斑鸠遭枪击却并无大碍，因斑鸠形似鸽子，因而桥得名放鸽桥。,https://dimg04.c-ctrip.com/images/0105s12000bpikhf9A3D7.jpg
贵阳,泉湖公园,2016554,26.672018,106.617972,5.0, 泉湖公园是贵阳市27个“千园之城”示范性公园之一，在这里能欣赏到西南地区较大规模的水幕电影，水幕喷泉面积近3000平方米，喷泉长150米，可达80米，水幕半径16米，效果非常震撼人心。云楼禅影是公园的标志性建筑，共七层，寓意七级浮屠，浮屠是前世，云楼是今生，建筑外形主体木质结构，造型独特精巧，与草坪、镜面水景及两侧的林荫树阵共同打造出了一个天光云影共徘徊的曼妙意境，引人入胜。泉湖公园还打造了一面2.5维的空间挡墙，将贵阳的时代变迁以2.5维图画照片的形式生动展现，从街边摊的烤小豆腐到打糍粑等各种场景都有，让人不禁回忆起小时候的各种趣事。公园内的净心广场、普陀夕照、禅谷秘境、泉湖溪畔、温澜对雪、空山止水、百戏云阶、水玉长桥、环湖映画、无名石韵、数聚泉湖等特色景点也非常吸引人。除了景点以外，台地式阶梯景观旁的停车场也让人啧啧称奇。,https://dimg04.c-ctrip.com/images/0105c12000f6py54rE02C.jpg
贵阳,来电(久幽密室花果园店),1483881,26.560131,106.682774,0.0,密室逃脱又名TAKAGISM，是一种在线解密类游戏，一般需要玩游戏者在游戏中寻找线索，一步一步走出密室，真人密室逃脱，打破了电脑游戏的局限和束缚，原汁原味的展现了密室的精髓，特别强调了团队的合作，想玩吗？想玩就来吧。来吧，带上您的亲友，展开你的想象力，展现团队配合的时候到了！来感受一下只能在电影里才能感受到的体验！绝不会让你失望！密室主题新颖，可玩性超高，N多只能在电影里出现的场景应有尽有！,https://dimg04.c-ctrip.com/images/100m0q000000gwqk9EFCB.jpg
贵阳,放鹤洲,1677291,26.434302,106.671247,5.0,放鹤洲又称芙蓉洲，位于花溪公园的东北部。由于贵州优越的气候条件，冬无严寒、夏无酷暑，全年平均温度15℃，加上优质的水源，丰富的水生物，所以每年都吸引很多候鸟到此栖息，每到冬天就会有很多的白鹤飞到此处，白鹤与水中的一座座的芦苇小岛相呼应，形成了一幅美丽的风景，于是便把这里叫做了放鹤洲。,https://dimg04.c-ctrip.com/images/0105b12000bpio9bc0D49.jpg
贵阳,同心桥,1677187,26.436241,106.575875,4.9,天河潭景区内的同心桥是一座用铁链和木板连接而成的吊桥，过桥人须配合默契才能共同通过，如果是情侣还可挂上同心锁，祝愿地久天长、永结同心。,https://dimg04.c-ctrip.com/images/1mh1612000bpkgwupFD93.jpg
贵阳,西普陀寺,2016555,26.67033,106.621006,4.8,贵阳西普陀寺，原名白云寺，始建于康熙六年(公元1667年)以前，迄今已有三百余年历史，从2005年动工修缮至今，总规划面积约有三万九千多平方米，气势恢宏。寺庙充分体现了园林艺术与佛教文化建筑艺术，寺院座北朝南，前有广场、牌坊，后有依靠青山绿水而建成的天然石壁雕刻塑像，中轴线上主建筑有大悲殿、大雄宝殿、藏经楼、卧佛殿等，观音殿中用红木雕成的三十二观音化身像，更是让人惊叹寺院的典雅精致。,https://dimg04.c-ctrip.com/images/0102t120009czahvgF9E8.jpg
贵阳,棋亭别院,1677461,26.432687,106.670032,4.5,花溪公园棋亭原叫“旗亭”，书上记载，“旗亭”之名是借唐人“旗亭画壁”和宋人“旗亭卖酒”的典故而来，是供游人休息、饮茶、娱乐之处。但还有一种说法是在抗战时期，棋亭原是一座办公楼，每天这里的工作人员都要在此举行升旗仪式，于是叫“旗亭”。,https://dimg04.c-ctrip.com/images/0101n12000btt6fx007D1.jpg
贵阳,阿哈湖国家湿地公园,2495010,26.540013,106.667438,4.2,阿哈湖国家湿地公园共包含南郊公园、小车河湿地公园、啊哈湖水库三部分，公园离市中心不远，景色幽静，是休闲漫步的好去处。公园面积广阔，有河流、沼泽、人工湿地三大湿地类型，景观资源丰富，沿着公园入口延安南路延伸段往公园内走便是长百余米的樱花大道了，继续往前走，可看到与小车河城市湿地公园相连的公园北广场，周围古树参天，花海烂漫。公园内还有一座按照侗乡风雨桥原型设计的风雨桥，古色古香，极具民族特色。听鸟谷、花谷、木兰林语等景观也极具自然特色。当然这里也不乏儿童乐园、运动中心之类的休闲娱乐设施。,https://dimg04.c-ctrip.com/images/0105m12000f6tau02CD28.jpg
贵阳,平桥,1677303,26.432392,106.663955,3.7,平桥位于花溪公园西侧大寨村旁，横跨花溪河上。桥畔一弯清水，碧波荡漾，走上以青石块砌成的踏步桥，感受清清的河水在脚下流淌，很是惬意。花溪平桥旁有大片的油茶花田，阳春三月，油菜花开时节来此赏花、野炊、放风筝，更是一番美丽景象。,https://dimg04.c-ctrip.com/images/0101212000bttrwpzE6D0.jpg
贵阳,贵阳市城乡规划展览馆,2003592,26.64461,106.641512,4.5,贵阳城乡规划馆位于贵州省博物馆对面，作为常年开放的公益性贵阳城乡规划展览馆，布展面积约1.2万平方米，是展示贵阳城市形象的窗口、接待中外来宾的客厅、宣传教育交流的平台、旅游休闲观光的景点。规划展览馆分为4层、16个层区。互动性和体验性，是展馆的一大特色。在生态文明城市建设成果展区跟随3D虚拟主持人可以将贵阳的过去、现在、未来尽收眼底，在展览馆三楼的绿色漫游展区，踩上馆内自行车，跟随电子屏幕就仿佛亲身穿梭在贵阳的大街小巷，在展馆的4楼还有着全国较大智能沙盘，展示着贵阳城市发展的历史、现状和美好未来。,https://dimg04.c-ctrip.com/images/01074120005x114ye201A.jpg
贵阳,卢焘蒙难处,1677614,26.580117,106.686575,4.3,卢焘先生蒙难处位于贵阳市二桥转湾塘公路旁，是爱国人士卢焘先生在贵阳解放前夕，为保护地方治安和人民生命财产，于1949年11月14日，被杀害之处。为纪念卢焘先生，1986年经贵阳市政府公布为市级文物保护单位。卢焘先生蒙难处，凿山建有纪念亭，纪念亭以钢筋混凝土建成。原占地约140平方米，因公路扩建面积缩小，现亭紧靠人行道，坐南向北，以山为壁，亭上覆琉璃瓦，高约5.4米，阔约3米，亭中立须弥座圆首碑一通，碑额有秦天真书阴刻大篆“浩然正气”四字和阴刻楷书卢焘生平。1999年于碑亭东西两壁增设卢焘先生及家人瓷像8幅。,https://dimg04.c-ctrip.com/images/0105812000bts0uxq06AD.jpg
贵阳,关刀岩,1677105,26.606225,106.698583,4.2,关刀岩景区位于黔灵公园东北角，南与小梅湾景区相连，有道路与中华北路相通。景区周边山岭多为松树密林，部分为阔叶密林，谷中则以密被的竹林为主，另有部分银杏林，是一个以绿为主体，以生态功能为核心的绿色景区，是黔灵公园绿色与生态价值表现，是市民休闲活动和康体健身的好去处。,https://dimg04.c-ctrip.com/images/100r0w000000k2i6e751C.jpg
贵阳,锅底箐,1677477,26.79146,106.91936,0.0,锅底箐位于贵阳香纸沟景区内，景点长约3公里，深300米，谷内原始植物遮天蔽日，绝壁兀立，瀑布垂悬，孤峰冲天，泉水叮咚，谷口外古造纸作坊错落有致，非常适宜生态旅游。,https://dimg04.c-ctrip.com/images/fd/tg/g1/M04/FC/24/CghzflW7H_yAR-QPAAAqstMKCwU318.jpg
贵阳,龙洞堡,4993345,26.553562,106.777117,4.5,位于中国贵州省贵阳市东郊，这里有贵阳龙洞堡国际机场、高铁龙洞堡站、龙洞堡汽车客运站等，是个交通的要道。,https://dimg04.c-ctrip.com/images/0104112000ikti5ji2A09.jpg
贵阳,燕楼营盘,1677822,26.319671,106.624633,5.0,燕楼营盘位于贵阳青岩燕楼乡，距青岩古镇约七公里路程。始建于清同治二年（1863年），同治五年（1866年）建成，系燕楼村民周氏家族兴建，因营盘建在山上，该山形酷似一头雄壮公牛，故俗称公牛屯。此山巍峨雄伟，拔地倚天，十分壮观。从山脚到山顶有一条两米多宽的石阶小道，营盘依山就势建在山巅，由青石块筑砌而成，四周均建有城垣，东西侧各建有一拱门，占地约六亩。有部分墙垣已垮塌，营盘内原有房屋及其他建筑早以损毁，但屋基尚能辨识。山顶建有一长方型巨池，长约六米，宽约四米，深约三米，池四面均用青条石叠砌，估计昔日作蓄水之用。池壁中央一石中横刻“天地生成”四字，字径大约50厘米。右侧刻有“同治五年”四字，左下方刻有“公立”二字，字径10厘米；另有 “中和营”和“保卫营”两横石刻，分别有“同治四年六月吉旦”和“周营公立”及“同治四年十二月吉旦”和“众姓同立”等字样。2003年10月，贵阳市人民政府公布燕楼营盘为市级文物保护单位。,https://dimg04.c-ctrip.com/images/0102w12000ckdwqxx44B8.jpg
贵阳,长坡岭古驿道,1677734,26.653331,106.67029,5.0,长坡岭古驿道位于贵阳市白云区长坡岭森林公园内，始建于元代，明初大加修整，沿途建立卫所，保证驿道畅通。驿道用大小不等的青石块铺砌而成，现公园内约有三公里路段至今保存完好。驿道表面石块虽踩磨得光滑，但看起来仍十分牢固，可想当时足以胜任繁重的人背马驮，担负交通运输任务。驿道藏身于茂密的林海深处，蜿蜒曲折，错落有致，驿道上青苔覆盖，藤蔓杂生，花香四溢。它原为贵阳入川的驿道，在当时具有特殊意义，关系着调兵遣将、行军作战、粮袜运输、情报通达、布宣号令、官员迎送、地方朝觐、物资交流、商旅往来、人口流动等军事、政治、交通、邮传、接待、商业等多种功能。2003年10月，长坡岭古驿道被贵阳市人民政府公布列为市级文物保护单位。,https://dimg04.c-ctrip.com/images/0105412000asbdhzcB6A2.jpg
贵阳,贵阳喀斯特公园,2121853,26.616308,106.616898,4.5,公园主要由南北两片石林景区组成，一线天、石林飞瀑、滴水观音、金蟾献宝等景点各具特色，园中道路蜿蜒，嵯峨秀石千姿百态，绮丽多姿的喀斯特景观在国内城市中很罕见，是贵阳城市会客厅和难得的“城中盆景”。阳明书院、阳明草堂、奇石博物馆、多彩贵州文化长廊、喀斯特广场等丰富了其地域文化内涵，具有童趣的苹果狗智慧乐园、7D影院和动漫拍摄基地等是是贵阳市民休闲漫步的主要聚散地，也是很多外来游人的旅游目的地。从北门广场进入，然后观赏源石照壁、冠云落影等胜景，再步入观景台，踏过莲花桥，可以欣赏瑶池、金蟾献宝等美景，而后去往一线天、阳明草堂等，从南门广场出来，就可以遍历景区内的精华景点。,https://dimg04.c-ctrip.com/images/0104e12000f6uzc49B7E8.jpg
贵阳,万科花溪大都会,5553435,26.408073,106.671116,4.5,万科花溪大都会位于贵阳市，这里有大型的超市，影院，服饰店，儿童乐园等，还汇集了各种美食，是人们放松娱乐的好去处。,https://dimg04.c-ctrip.com/images/0105z120008g2t3uh54CC.jpg
贵阳,永乐古堡遗址,1677539,26.597389,106.871093,1.0,永乐古堡位于贵阳市东部近郊的永乐乡，古堡建于明代永乐年间（1403-1424年），为屯兵所筑。平面布局呈八卦图形，为内外两城，有东、南、西、北四城门，今残存西城门和城垣（矮墙）数段，长1650米，高3米，厚2米。古堡整体上分为内堡和外堡两部份，分别修建有富丽建筑物和围墙（城墙），内城墙围绕永乐山的山顶部分而建，内堡是内城墙围绕的部分，原建有玉皇殿、马王庙、五显楼等主要建筑、内城墙沿东、西、南、北面的山腰而建、有东、南、西、北四道门与堡外连通，外城墙与内墙之间的区域，内居住权贵阶罢，而外堡侧多是平民百姓。这种布局符合属中国传统城池布局的特点，体现了防御性和安全性的要求。,https://dimg04.c-ctrip.com/images/0103u12000cmsje8sDC86.jpg
贵阳,刘氏支祠,1677513,26.582087,106.717709,4.3,在贵阳幼儿师范学校东侧，有一个占地近850平方米的祠堂叫刘氏支祠，它是贵州名贤刘春霖的家祠，是刘春霖的侄子秉承刘春霖的遗愿所建。刘氏支祠坐北朝南，由大门、享堂、戏楼和两耳房及东、西厢房构成一座封闭式四合院。享堂为抬梁穿斗式，木构架硬山顶建筑，前带廊，面阔五间。屋面原盖青筒瓦，现在改为小青瓦，正脊中央为浮雕灰塑天宫，两端上部塑有环行龙。檐柱、外金柱、里金柱间的额枋，均有浮雕人物故事。檐柱上有狮形撑拱，外金柱上部装龟纹套形蒲公英风窗，下部装雕花隔扇。刘氏支祠大门也非常别致，为明间大、次间小的牌楼式券洞门，祠门上嵌有一石，横镌“刘氏支祠”，左右浮雕文官和武将人像，边框饰以花草图案；祠额上方开一圆窗，四角边框有浮雕花鸟龙凤；两旁的侧门式样与大门相同，仅仅窄、矮而已，门顶是扇形窗，浮雕除花草外还有六角星等几何图案“刘氏支祠”题辞两侧各塑文官、武将，侧门门额一是“光前”，一是“裕后”，门额上各有圆窗一樘，整座祠门工艺精细，华丽气派，外观上显然融人了西式建筑风格。,https://dimg04.c-ctrip.com/images/100j0m000000dx3z6F938.jpg
贵阳,贵阳车田问仙谷,1829951,26.432704,106.548021,4.6,车田·问仙谷，一个隐匿于尘世喧嚣之外的唯美之地，它不仅是自然风光的杰作，更是我们心中对仙侠世界的无限憧憬与向往。在这里，您可以看到溶洞之奇，感受大自然的鬼斧神工；可以聆听瀑布之韵，体会那份磅礴与壮阔；更可以乘一叶扁舟，花船游河，让心灵在碧波之上自由翱翔，尽享水乡独有的柔情与宁静。但问仙谷的魅力远不止于此。我们精心设计了丰富的NPC互动环节，让您在探秘的过程中，仿佛置身于真实的仙侠世界，与角色同悲共喜，体验超凡脱俗的奇幻旅程。在这里，每一次对话都可能触发一段意想不到的故事，每一次选择都将引领您走向不同的仙侠之路。,https://dimg04.c-ctrip.com/images/1lo1412000fnm8e6sC61A.png
贵阳,FUTURE ZOO未来动物城,5074345,26.632509,106.60927,3.9,"FUTURE
  ZOO未来动物城是一座集科教、展览、游乐、休闲于一体的新型主题公园。这里没有夸张的笼子和隔板，而是通过极力还原小动物的生活场景，营造人与动物和谐共处的体验氛围。全馆饲养展览动物40余种，内部设置萌宠体验、科普展示、丛林生态观赏、海洋生态体验、休闲服务和亲子互动等区域，每个区域都能给您带来不同的亲身体验，探险家们可零距离与耳廓狐、巨嘴鸟、鬃狮蜥等萌宠动物喂食、拍照！新风和除菌系统让馆内空气清新流动，独特设计的清洁环保设施维护动物们的生活起居，在这里，可以悠然漫步在丛林间，放松紧张的神经，迈着轻松的步伐，享受大自然的梦幻魅力。",https://dimg04.c-ctrip.com/images/100t0z000000nqkuu46CA.jpg
贵阳,光华钱币博物馆,2007644,26.580947,106.718468,4.6,光华钱币博物馆在全国的私人博物馆中名列前茅，在这里大家能欣赏到收藏家王亚光和王子华父子的钱币藏品，整个博物馆面积约2000平方米，共有4个展厅，展品丰富，而且每个时代的钱币基本上都是精品，质量非常高。一号展厅陈列了中国先秦至五代十国的钱币藏品；二号厅陈列了宋至清代的钱币藏品；三号厅陈列了清末时期的机制币藏品；四号厅陈列了元、明、清的古钞及样钞藏品，其中“元代至元宝钞”、“明代大明宝钞”、“清代户部官票五十两”这三张纸币属于中国纸币十大珍稀品种。在这里能更好地了解到钱币在我国历史长河中发挥的重要作用，这里也是钱币爱好者不可错过的观光胜地。,https://dimg04.c-ctrip.com/images/0102612000asecjjh01B2.jpg
贵阳,李端棻墓,1677606,26.61392,106.8386,2.0,李端棻墓位于贵阳市南明区永乐乡水塘村一小阜上，坐西向东，封土长11米，高2.5米，墓前石碑刻“诰授光禄大夫礼部尚书显考李公字芯园府君之墓” 。1987年5月，经贵阳市人民政府公布为市文物保护单位。李端棻(1833-1907年) ，字芯园，贵阳人。清同治二年（1863年）进士，入翰林，历任内阁学士、刑部侍郎、礼部尚书等职。因器重梁启超之才，将堂妹嫁与梁启超，与梁相友善。甲午战争后，支持康有为、梁启超等从事维新变法活动。1896年上疏请设京师大学堂，各省、府、州、县遍设学堂，并建藏书楼、仪器院、译书局等。,https://dimg04.c-ctrip.com/images/100r0n000000efbdy096F.jpg
贵阳,贵州科技馆,4385352,26.573249,106.705472,4.4,展厅丰富多彩，有“数学天地”、“物理奥秘”、“机器人世界”等，将科学与艺术进行结合。,https://dimg04.c-ctrip.com/images/0104512000f6r0ce129BD.jpg
贵阳,天下水夷温泉度假村,4284353,26.691172,106.647675,4.5,天下水夷温泉集淋浴、温泉、水上乐园、儿童淘气堡乐园、休闲、保健等为一体，拥有一流的环境，极具个性化的装修和高品质的设备设施。温泉亭分布于男女宾区及棋牌楼中央，四周游鱼欢畅、绿荫袅绕。种类多功能各异，具体现为缓解疲劳、益于身心。温泉具有温经通络、活血化淤、调畅气血之功，使人气血调和、精神愉悦、从而达到养生保健的目的。,https://dimg04.c-ctrip.com/images/10091f000001gsq9f3E3C.jpg
贵阳,贵阳恋爱博物馆,5545450,26.560601,106.682029,4.3,       贵阳恋爱博物馆是一座独具特色的主题博物馆，专注于展示和探索爱情的多样性与深刻内涵，为情侣和所有对爱情充满好奇的人们提供了一个浪漫而富有启发的空间。让单身的在这里找寻另一半，恋爱的在这里见证爱情，异地的在这里给你坚持下去的决心，失恋的在这里走出悲伤。       贵阳恋爱博物馆内设有多个展厅，涵盖了爱情的历史、文化和艺术表达。展品包括古今中外的爱情信物、文学作品中的经典爱情故事，以及现代艺术家对爱情的独特诠释。每一个展厅都通过精心设计，让游客在感受爱情的同时，思考其在不同文化和时代背景下的表现形式。贵阳恋爱博物馆提供了一系列互动活动，让游客在参与中增进彼此的感情和理解。       无论是情侣约会还是个人探访，贵阳恋爱博物馆都为每一位到访者提供了一个探索爱情、激发情感共鸣和思考的文化空间。,https://dimg04.c-ctrip.com/images/350c15000000y671lB421.jpg
贵阳,多彩贵州风景眼文创园,4379384,26.532502,106.776259,3.6,"文创园2015年建成，占地70余亩，位于贵阳市双龙航空港经济区腹地，介于兴业西路和鱼梁河之间，与双龙生态湿地公园融为一体，紧邻龙洞堡机场，被称为“机场的公园，非遗的乐园”是国家AAAA级景区。
多彩贵州风景眼文创园景区定位为贵州民族文化窗口，是发挥贵州文化优势和特色的省内特色文化创意园区，全景式非遗体验研学基地。园区以品牌资产为依托、非遗文化为内涵、创意为灵魂、产业为支撑，通过非遗展示，文化创意孵化、研发和学习等，与现代相结合，促进非遗文化的传承、保护、研学、交流和发展利用。",https://dimg04.c-ctrip.com/images/100b0s000000i1smjE92A.jpg
贵阳,香纸沟枫叶谷旅游度假区,1913672,26.792759,106.890525,3.6,香纸沟枫叶谷旅游度假区位于享有“黔中秘境 自然乌当”美誉的乌当区新堡乡，占地面积800多亩！水上乐园占地面积60亩，可同时容纳万人次戏水；并设有丛林树上拓展训练基地。“黔中秘境• 自然乌当”，展示“香纸沟欢乐园之独到欢乐趣味、之惊心动魄玩味、之休闲养生风韵。在这里可以放飞自己的心灵、放松身心，置身与大自然的怀抱之中，尽情吸取“天然氧吧”之精华。,https://dimg04.c-ctrip.com/images/350w1900000163l7jF291.jpg
贵阳,周王氏媳刘氏节孝坊,1713531,26.32665,106.688854,4.6,该地方主要是为了表彰周朝忠的妻子王氏和儿媳刘氏而修建的。精致雕刻，保存完好，非常漂亮。,https://dimg04.c-ctrip.com/images/0103112000auzglmg8E55.jpg
贵阳,大十字广场,5068452,26.578467,106.711689,4.5,大十字广场是贵阳有名的城市中心地标和繁华商业区，品牌种类繁多，商业繁华，交通便利。大十字原是一座有20多年历史的环形天桥，后来拆除。,https://dimg04.c-ctrip.com/images/0102r120009dfckn0F63E.jpg
贵阳,工委活动旧址,5620371,26.580663,106.717411,4.3,该旧址位于贵阳市云岩区，党组织以高家花园为掩护，将其作为贵州省革命活动的指挥中心，在怡怡楼和楼外楼秘密存放、制作重要文件和书刊等；接待来筑联系工作的上级来人；作为省工委领导人的秘密居所；多次召开重要会议。,https://dimg04.c-ctrip.com/images/0100g12000caux3f39D9A.jpg
贵阳,米克小镇亲子乐园,4683341,26.531516,106.657638,3.9,米克小镇亲子主题乐园是个户外森林系亲子主题乐园，定位为15岁以下家庭娱乐体验，亲子互动，地址位于贵阳阿哈湖国家湿地公园（小车河）内，分为不同的主题项目：米克牛游戏部落包含14个游乐园项目，如双层亲子宫廷木马、金刚、户外儿童驾校、神勇消防员、奶牛家园等；皮克猪攀爬王国让5岁以上小朋友自由畅玩；滑梯天堂满足3岁以上小朋友轻松游艺；同时童梦空间拥有3岁以下小朋友爱的茜茜羊淘气堡，更有亲子的主题儿童电玩等你来互动。还有水上气模闯关水乐园也将在2018年7月开放。当然除了游玩游乐园，你还可在小镇内品尝到精致的美食、在读书草坪阳光阅读、购买琳琅满目的特色礼品、一家人在茶苑休闲娱乐。,https://dimg04.c-ctrip.com/images/10090s000000ib1x05957.jpg
贵阳,盘龙洞旅游区,2018345,26.683479,106.478684,3.8,盘龙洞旅游区位于贵阳市观山湖区百花湖乡盘龙洞村，原生态植被保存完好，树木高大茂密，芳草茂盛，鸟语花香，天成的园林风情。溶洞分上中下三层，现主要开发上、中两层。洞内有钟乳石形成的各种石龙、石帘、石人、石柱、石刀、石笋等等，应有尽有，形态万千。经过人为打造，配套设施建设，达到人间仙境。,https://dimg04.c-ctrip.com/images/100w1f000001gwc7d9160.jpg
贵阳,星奇儿童俱乐部(元隆店),1994410,26.591919,106.703281,5.0,星奇俱乐部（银海元隆店）位于贵阳银海元隆广场A区，这里颠覆了传统儿童俱乐部，包含冒险城、多功能砂池、海洋球池、儿童攀岩、蹦床、墙面益智、交通模拟、奇幻迷宫、生日party区、（超市、厨房、医院）角色扮演、月亮沙、墙面积木、DIY陶艺、超轻粘土、欧盟标准玩具、阅读空间、数十部亲子游戏等超过60种儿童智玩项目。,https://dimg04.c-ctrip.com/images/100b0b0000005nlhp39B5.jpg
贵阳,花果园湿地公园阳光草坪,4618643,26.56719,106.686861,4.7,花果园湿地公园阳光草坪位于贵阳市南明区，是湿地公园湖边的绿色点缀，也是市民休闲放松、锻炼健身的好去处。,https://dimg04.c-ctrip.com/images/0104x12000b6hph3jF9C5.jpg
贵阳,未来方舟,1411617,26.59432,106.756244,4.6,环球嘉年华是世界知名的娱乐品牌，是与迪斯尼主题公园、环球影城并驾齐驱的世界三大娱乐主题之一，但它的运营形式很独特。此次在贵阳上演的环球嘉年华实现了改版升级，欢乐的现场更具“静态与动态结合之美，传统与时尚交融之美，梦幻与现实的穿越之美”的特性。活动将在贵阳的“母亲河”南明河沿岸举办，充分利用沿河地形，在游乐项目的整体布局上充分考虑游客的空间舒适性、流线的安全性和场景布置的通透性，现场游乐项目板块纷呈，独立成章，游客可依据自己的喜好自由组合游玩形式。贵州人民足不出户，即可享受世界前卫的超级娱乐大餐。亲身体验百余项娱乐游乐活动，观赏来自欧美和非洲百余名外籍演员上演的红磨坊歌舞、苏格兰军鼓等20余国的异域风情节目；零距离观看歌坛巨星迈克·杰克逊生前最亲密的朋友之一、与大卫·科波菲尔齐名的大型魔术表演大师弗兰斯·哈拉利的奇幻表演；激情感受法国高台特技跳水和精彩纷呈的中天音乐节。活动期间，由荷兰艺术家弗洛伦泰因·霍夫曼设计监制、风靡世界的大黄鸭也将“游进”贵阳。,https://dimg04.c-ctrip.com/images/0103412000bg4xmeh6EE7.jpg
贵阳,蓬莱仙界,2737294,26.725107,106.722277,4.0,蓬莱仙界·休闲农业旅游区位于贵阳市白云区牛场乡，距市区25公里，是全国休闲农业与乡村旅游示范点之一。景区总规划面积66.5平方公里，核心部分占地2000亩，是以现代农业展示为基本功能，集生态农业、循环农业、精致农业、旅游观光休闲农业为一体的农业旅游区。,https://dimg04.c-ctrip.com/images/0100v1200092lvwwn3814.jpg
贵阳,苗疆故事民族服饰博物馆,1964262,26.673386,106.63841,5.0,贵阳苗疆故事民族服饰博物馆是一座展示苗疆传统精品刺绣、盛装的博物馆，父女两代用40年的时间搜集、整理贵州古老的传统民族民间刺绣盛装嫁衣，倾其所有的财力、物力和时间，做了这个纯粹又深情的博物馆，得到观众多品论的语句是“震撼、感动”。博物馆位于贵阳市白云公园绿漪湖畔贵州民族民俗博物馆园区，该馆自2007年4月对外开放。除了藏品的精深，博物馆的特别之处在于展陈和解读方式，长期深入的田野考察基础与主流文化的对比研究，深层次解读了苗家文化的深刻内涵，以服饰上的纹样故事梳理出神秘古老的苗疆文化。我国收藏家、“苗族服饰收藏第一人”曾宪阳、曾丽两代人历经40年对苗族服饰的收藏、整理及研究成果，其中包括苗族各种刺绣服饰、银饰精品及明代到清末时期的铜鼓等，是国内大、成体系的苗装苗绣主题博物馆，亦是贵州较早集中展示以“本土文化精粹”为中心的主题博物馆。由于收藏的时间早，博物馆里很多藏品都是孤品和绝品，故而在学术价值上属于国内高，其中又以苗绣、苗装藏品好、精。,https://dimg04.c-ctrip.com/images/100f070000002id3v4B08.jpg
贵阳,贵州民族民俗博物馆,1830779,26.673298,106.63829,3.0,贵州民族民俗博物馆为一座白色的仿古院落，设有苗、侗、布依等多个民俗展馆，是了解民俗文化的好去处。,https://dimg04.c-ctrip.com/images/0100t12000ato74z74A51.jpg
贵阳,长坡岭国家森林公园,1835313,26.655148,106.671879,4.8, 长坡岭森林公园位于贵州省观山湖区（原金阳新区），总面积3486亩，跨越白云区、乌当两个区，属于贵阳环城森林带中的一段，它有整个西南地区最优质的森林草地，高森林覆盖率让这里有着贵阳市“生态博物馆”之称，清新的空气又让这里成为“森林氧吧”公园内有一片草原，整饬、养护良好的混交景观林挺拔隽秀如银针布地，林下盛厚的草地如绿毯铺地不染一尘；园中有樱花湖，是长坡岭森林的眼睛，处处充满灵气。沿湖杨柳低垂，生意盎然。湖面碧波潋滟，林影云映。岸边的樱花林已具规模，春天来临，樱花盛开时候，红白相间。公园开发旅游业，把公园分布为五个景区，分别为樱花湖、森林草坪、都溪林场、两个少数民族村寨。这里的森林景观特佳，高大乔木之下满铺翠绿如茵的草地，美观而明快清新，森林里还有湖泊、池塘，林水相映，平添了不少光采。植被色彩随季节而变化，四时景色各异。,https://dimg04.c-ctrip.com/images/0101412000f6t9sjx1538.jpg
贵阳,贵阳云顶滑雪场,1786923,26.274305,106.838979,4.1,高坡云顶滑雪场坐落于贵阳市花溪区高坡乡云顶草原，距离贵阳市中心约46km。高坡海拔约为1600米左右，常年气温比市区低3至4度。滑雪场占地面积约480亩，目前已建成初级滑雪道两条，中级滑雪道两条，雪圈道8条，雪地摩托区约3000平方米，雪地面积约70000平方米，能同时接待2600人。据介绍，雪场共配置美国SMI进口雪炮12台，瑞士ARECO雪炮8台，大型进口压雪车一台，给游客提供良好的滑雪运动度假场所。,https://dimg04.c-ctrip.com/images/0106v120008a4h12x3BD9.jpg
贵阳,花果园湿地公园滨水广场,4627178,26.56802,106.688081,4.4,广场附近高楼耸立，人来人往。广场上设有水池，玻璃长廊，是市民日常休闲聚集之地。,https://dimg04.c-ctrip.com/images/0103j1200093wg6os1280.jpg
贵阳,多彩贵州城,5064393,26.52989,106.789512,4.1,多彩贵州城，在贵阳市双龙航空港经济区核心服务区，临近贵阳龙洞堡国际机场，距离贵阳市中心有7公里。景区规划占地面积为7696亩，总投资为420亿元，是国家AAAA级旅游景区，是贵州省文化旅游创新示范区，也是贵州省“5个100工程”旅游综合体和城市综合体双100项目。更是在2014年被评为全省“十佳旅游景区”，于2015年评为全国优选旅游项目。,https://dimg04.c-ctrip.com/images/0100s12000h16ib7p1FB1.jpg
贵阳,下水大佛,4246439,26.710674,106.737332,4.0,大佛的鼻子、眼睛、耳朵以及眉心痣都是人工雕刻出来的，十分壮观。,https://dimg04.c-ctrip.com/images/0103v12000atib67j6A9E.jpg
贵阳,黔陶燕子洞度假村,4619289,26.350989,106.741719,5.0,燕子洞度假村位于花溪区黔陶老榜河边上，这里环境优美、空气清新、有山有水，是盛夏消暑度假的好去处！ 燕子洞度假村的美食主要有绿色农家菜，多种野生菌、野菜、中华鲟、野生河鱼等，这里的餐厅可接待500人就餐，200人的会议室，就餐可免费提供会议室，住宿分别有单间、标间、还有部分公共卫浴的床位可供选择，同时还提供露营场地，可以自带帐篷到这里露营观光。,https://dimg04.c-ctrip.com/images/01A1c120009dnaidh0599.jpg
贵阳,贵阳国际会议展览中心,2537669,26.642387,106.64655,4.8,这里地理位置优越，交通很便利，展馆内经常举办各类展会，展览会涉及家居、汽车、建材等，感兴趣的朋友，一定不要错过。,https://dimg04.c-ctrip.com/images/0102e12000klt9anpA1DD.jpg
贵阳,贵阳梦幻星空艺术馆（花果园店）,5567352,26.559209,106.672289,4.5,贵阳梦幻星空艺术馆（花果园店）位于贵阳市南明区花果园R1区财富广场，是一个利用高科技让你亲身体验艺术的互动式体验馆。同时也是喜爱拍照和艺术的小伙伴们不可错过的打卡圣地。艺术馆内包含了梵高作品、儿童天地、3D立体世界、缤纷水母、镜幻宫、万花筒、互动音乐墙等几大展区。,https://dimg04.c-ctrip.com/images/350d16000000zfdo34A37.jpg
贵阳,贵州古生物化石博物馆,1830759,26.533763,106.710087,4.9,贵州古生物化石博物馆是在贵州石文化艺术宫的基础上建立的。2001年7月，贵州石文化艺术宫正式对外开放，以其独特的环境在贵阳乃至全国古生物化石界享有盛誉，是全国收藏古生物化石和贵州奇石数量较多、品位较高的综合性展馆，2002年被命名为“贵州省科普教育基地”。2010年4月，经贵州省文物局批准，成功申报贵州古生物化石博物馆，它是贵州省内仅有的省文物局批准的公益性的古生物化石博物馆。,https://dimg04.c-ctrip.com/images/0101112000ase2uen0F30.jpg
贵阳,周恩来父亲曾居地,5067760,26.329969,106.68831,4.5,,https://dimg04.c-ctrip.com/images/0103a12000auzd8ltF3DE.jpg
贵阳,大兴国寺,4242576,26.344142,106.67769,4.5,大兴寺是贵阳市历史上悠久的寺庙之一，寺内有灵泉，贵阳八景之一的“灵泉映月”即此。殿宇宏伟、规模宏阔，湖边有黑天鹅，孔雀等动物来去自如，体现人与自然的和谐统一，非常适合静心。,https://dimg04.c-ctrip.com/images/01028120008fu5ptkBC66.jpg
贵阳,贵阳可佳博物馆,3378803,26.325917,106.688674,4.5,可佳博物馆主要展示了中国古代艺术珍品，展品的年代跨度很大，从商代、西周、春秋战国，到唐、宋、元、明、清代，涵盖了华夏五千余年的历史文明。,https://dimg04.c-ctrip.com/images/0104w12000cjzekzn7B6C.jpg
贵阳,国家大数据(贵州)综合试验区交流体验中心,4618691,26.618526,106.644619,4.3,贵州大数据综合试验区展示中心位于贵阳市观山湖区，内设数字中国 、数化万物 、云上筑梦、未来已来和智慧体验共五个展区。让人们真切感受以互联网、大数据、人工智能为代表的新一代信息技术带来的影响。,https://dimg04.c-ctrip.com/images/0104g12000asa0nqvEE1B.jpg
贵阳,云贵山山头公园,4618635,26.573993,106.685929,3.9,云贵山山头公园，又称为花果园兰花坡公园，山顶景色优美，还有观景的小亭子，休闲游玩的好去处。,https://dimg04.c-ctrip.com/images/0105x12000awfp0koDEF7.jpg
贵阳,青岩古镇-邓颖超母亲曾居地,1713473,26.3288,106.688431,4.6,,https://dimg04.c-ctrip.com/images/0107012000bturl7l4343.jpg
贵阳,云顶草原民族风情园,5068449,26.274743,106.863214,4.7,视野辽阔，景色优美，可以在宽阔的大草原骑马,https://dimg04.c-ctrip.com/images/0101n120009ebrsl41F21.jpg
贵阳,南明区青云法治廉政文化广场,4619363,26.566066,106.709006,4.3,南明区青云法治廉政文化广场位于风景旖旎的南明河畔，以“法廉润南明、正气腾青云”为主题，集法治与廉政为一体，借助轩昂法兽、溯源法治、泼墨抒法、守廉生威、清廉如茶等十四个表现版块，将法治廉政文化诗化般呈现，于无声处让市民感悟法廉之美。,https://dimg04.c-ctrip.com/images/100o1e000001fta97AFC8.png
贵阳,筑城旧貌,4618659,26.578521,106.71202,4.7,筑城旧貌是贵阳市中心保存相对完好的一片老建筑区，大多建于明清时期，特色鲜明，典雅古朴，与周边现代化的高楼相辉映。是当地较受游客欢迎的人文景点之一。,https://dimg04.c-ctrip.com/images/0103r12000bpdbyyf2788.jpg
贵阳,贵阳悟空攀岩馆(星力城汇金店),4619487,26.581582,106.702212,4.0,贵州贵阳悟空攀岩馆（原格岩攀岩馆），2016年建馆，是贵阳较早成立的一家室内攀岩馆；从格岩到悟空，我们本着对攀岩运动的热情，岩馆运营至今已有十余年的历史；我们不但有着丰富的运营管理经验，专业的教练团队及成熟的培训课程体系，而且我们一直致力于青少年攀岩运动员的培养，为国家攀岩运动的发展储备力量；岩馆成立以来，已培养出大批省内优秀运动员走向更大的竞技舞台，为省内攀岩运动事业的发展奠定了良好的基础。﻿,https://dimg04.c-ctrip.com/images/01059120008npk4vsD7F6.jpg
贵阳,登高云山森林公园,4618714,26.609935,106.75207,4.5,登高云山森林公园位于贵阳市东北面城郊接合部，分布在云岩区、乌当区境内，黔灵山脉与南岳山脉之间。它是一环林带的重要组成部分，也是老城风貌的重要载体。公园总规划面积135.8公顷，以“森林之城、休闲胜地”为总体定位，园内规划为6个区，即山清气韵、梅樱报春、林幽巡迹、林海康乐、森林花海5大核心区和森林保育区。,https://dimg04.c-ctrip.com/images/01046120009ctqztnEE44.jpg
贵阳,檀香山公园,4618605,26.510283,106.718725,4.1,檀香山公园交通便利，灌木、乔木等树种繁多，景色优美。园内用红、黄、灰三色点缀，设计精巧，还有众多依地形而建的休息座椅，是您休闲健身的好地方。,https://dimg04.c-ctrip.com/images/0102k120009hkorb861F1.jpg
贵阳,贵州师范大学-图书馆,3670373,26.382474,106.635377,5.0,贵州师范大学花溪校区图书馆除了提供普通的借阅服务外，还提供参考咨询和文献传递等服务，另外，该馆开设有24小时网上图书馆。,https://dimg04.c-ctrip.com/images/0101c120008ot50sm9AB9.png
贵阳,贵州省植物园,2537985,26.624353,106.729532,4.2,贵州省植物园有蕨类植物、裸子植物、被子植物等数千种，是一个植物种质资源保存较为丰富的基地。,https://dimg04.c-ctrip.com/images/0103u120009dzis6d018F.jpg
贵阳,贵阳市新华路天主堂,4628419,26.568172,106.717114,4.6,贵阳市新华路天主堂位于贵阳市南明区，教堂直立高耸，通体为石材建筑，侧面还有一排哥特式建筑的尖顶，异域风情十足。,https://dimg04.c-ctrip.com/images/0104v120008g2s8qe64FE.jpg
贵阳,麦翁布依古寨,4618592,26.45158,106.67858,4.8,麦翁布依古寨位于贵阳，是知名的少数民族特色村寨，除了欣赏古香古色的建造外，游客还可以品尝当地的美食，了解当地的历史文化。,https://dimg04.c-ctrip.com/images/01A11120009eb84v6817E.jpg
贵阳,板桥艺术村,4242414,26.390547,106.664648,4.8,板桥艺术村在贵州省贵阳市花溪区，该村占地面积为70亩，建设在闲置老厂区的基础上，打造集绘画、书法、雕塑和餐饮等为一体的艺术村产业园。,https://dimg04.c-ctrip.com/images/01A1c12000970zomoA5F0.jpg
贵阳,百花洲,2537917,26.558905,106.653145,0.0,百花洲位于贵阳市云岩区，园内树木葱郁，鲜花盛开，还设有健身器械，可以在园内骑自行车、滑滑板、散步等。,https://dimg04.c-ctrip.com/images/0103w12000awhsh8cACFE.jpg
贵阳,贵阳市图书馆,2140889,26.565815,106.705492,0.0,贵阳市图书馆前身为1963年建立的贵阳市文化局阳明祠阅览室，1978年经市政府批准正式建馆，图书馆建筑面积约10421平方米，有阅览座、服务窗口、数字资源数据库，馆内藏书量丰富，是个市民读书查资料的好地方。,https://dimg04.c-ctrip.com/images/0101t12000ctlz60z66B9.jpg
贵阳,阿哈湖风景区,3141289,26.533502,106.65446,4.0,阿哈湖风景区里有提供饮用水的阿哈水库，这里植被茂盛，湖水清澈，风景很美。,https://dimg04.c-ctrip.com/images/01057120009fesn0l95EA.jpg
贵阳,方舟戏台,3782785,26.600598,106.762909,4.3,方舟戏台沿袭我国古戏台的建制模式，采用榫卯结构，由立柱、横梁、顺檩等主要构件建造而成，华美大气、古色古香。,https://dimg04.c-ctrip.com/images/0102p12000824skpr5043.jpg
贵阳,原味小镇·醉美偏坡,65244937,26.653374,106.928753,3.5,原味小镇·醉美偏坡是依托偏坡村打造的一个特色小镇，集合了特色小吃、酒店民宿、生态体验、技能培训、运动探险、乐园和营地教育为一体，能满足游客多样化的休闲娱乐需求，将吃、住、行、游、娱、购等全系高端配套业态与原生山野和稻田风光巧妙结合，让游客体验回归自然、享受诗意时光。,https://dimg04.c-ctrip.com/images/0100s120008vxbw698320.jpg
贵阳,青岩古镇-黑神庙,4618585,26.331687,106.684569,0.0,黑神庙是忠烈宫或忠烈庙的俗称，为祭祀南霁云的民间宗教庙宇。贵州的别称为黔，黔为黑色，这才是称南霁云为黑神的真正原因。庙宇内部有许多古老的建筑和文物，非常值得游客前来参观。,https://dimg04.c-ctrip.com/images/100a070000002atmn096F.jpg
贵阳,桐埜书屋,1713453,26.304096,106.741167,5.0,这里曾是诗人、学者周渔璜儿时的读书之处。书屋是典型的穿斗式悬山顶二重檐砖木结构。屋内还展示了周渔璜诗集、使用过的器物、读过的书籍等。,https://dimg04.c-ctrip.com/images/0103p12000awsbipd32C1.jpg
贵阳,神秘的马脚冲,1677293,26.781665,106.905826,0.0,马脚冲位于贵阳香纸沟景区内，这里景点小巧俊秀，大瀑布宏伟壮观，迎客松婀娜多姿，然石级险峻陡峭，适宜探险旅游。,https://dimg04.c-ctrip.com/images/1me5u12000bblcbeh8B4F.jpg
贵阳,宫詹桥,1677790,26.308066,106.721867,0.0,宫詹桥位于贵阳青岩镇思潜村蒙贡寨，俗称高车桥、又称蒙贡大桥，是黔中才子周起渭在京城担任詹事府詹事时，于弥留之际嘱其后人在家乡兴建的。故称宫詹桥。宫詹桥横跨在涟江上游，紧邻思潜村蒙贡寨，建成于清康熙五十七年（1718年），为三孔石拱桥，长50米，宽5米，高7.5米，以青石块砌成。桥头立有建桥碑记两块，一为康熙五十七年（1718年）所立，叙述周起渭捐金建桥经过。碑面竖向楷书双勾阴刻七个大字，上部四字“亿万斯年”，中下部三字“宫詹桥”。 一为嘉庆十四年（1809年）所立《重葺宫詹桥碑记》，叙述复修该桥经过。,https://dimg04.c-ctrip.com/images/fd/tg/g2/M02/C4/B1/CghzgVW7IAGAMNAuAAAv5B3DnFk340.jpg
贵阳,天海美术馆,5012357,26.631432,106.785122,4.6,著名哲学家伯克曾说过，欣赏艺术是人类的天性。美育缺失的当下，人们迫切渴望艺术的回归以慰藉精神、安抚心灵。出自奉献大众的文化使命感与信念，贵州天海美术馆，应运而生。天海美术馆除馆藏全国知名大家作品外，更纳有极富当代青年精神的艺术家作品，审美理念和艺术样式上的多样化，让来到这里的每个人都能找到共鸣、为之震撼。,https://dimg04.c-ctrip.com/images/100i0w000000knwee4828.jpg
贵阳,百宜村,4997357,26.831209,106.98305,0.0,距贵阳市中心约51公里，属高原地貌，共有6个自然村寨。,https://dimg04.c-ctrip.com/images/100t0w000000kbpy8E37A.jpg
贵阳,贵州花溪镇山布依族生态博物馆,5704382,26.44618,106.610146,4.5,花溪镇山村生态博物馆是国内四大生态博物馆之一。整个镇山村就是博物馆，同时也是当地人用石板垒砌起来的山寨，每个石板房依山就势而建，恍如一座中世纪的古城堡。,https://dimg04.c-ctrip.com/images/0101y120008cxf47nDFF1.jpg
贵阳,贵州美术馆,5701363,26.592072,106.705149,5.0,贵州美术馆位于贵阳市云岩区，是典型的俄式老建筑，一到三层均为展厅。,https://dimg04.c-ctrip.com/images/0105x12000bthp5jd4EA1.jpg
贵阳,五彩黔艺民族服饰博物馆(锦绣计划),5705239,26.619868,106.613691,0.0,贵州省贵阳市五彩黔艺民族服饰博物馆是一所集展览展示、学术研究、非遗传承、文化交流、文化体验为一身的民营博物馆，馆内收藏和整理了贵州的苗族、布依族、侗族、瑶族、水族等多个世居少数民族代表性的服装、配饰及生产生活实物等。,https://dimg04.c-ctrip.com/images/0103512000cfb4tleB4CC.jpg
贵阳,洛湾村,4994355,26.662608,106.817114,0.0,位于东风镇北部，全村有三个自然村寨，河流环绕，交通便捷。,https://dimg04.c-ctrip.com/images/10060w000000kcavkC3C9.jpg
贵阳,羊昌花画小镇,69415885,26.830476,106.892946,3.1,花画小镇是以花卉产业和对台农业为主题的。依托羊昌花卉基地示范园区核心区，以花卉、珍稀苗木为主题建设包括农业科技、农业科普体验、观光休闲、农业博览园、农耕文化、乡土文化、民族文化等内容，由都市现代农业创意区、花卉展示区、花艺步行街区、农耕文化园、大健康养生体验馆、猕猴桃家庭农场、趣味农事体验、知青文化园等众多项目组成。,https://dimg04.c-ctrip.com/images/1lo0h12000k0wa29aCF45.jpg
贵阳,花溪夜郎谷宋式古堡,69340524,26.387228,106.646246,4.6,“夜郎自大”的典故家喻户晓，在两千多年前秦汉时期出现的夜郎古国，与古楼兰国、古且兰国齐名，一时盛世，名扬天下。穿越历史神秘的隧道，夜郎文化至今魅力无穷。在贵州的一个夜郎谷，更是融汇了一个现代人对古夜郎的全部想像。,https://dimg04.c-ctrip.com/images/0100w120008dammrs223B.jpg
贵阳,贵州大学图书中心,2537740,26.444285,106.672064,5.0,,https://dimg04.c-ctrip.com/images/100t1f000001gqdft6DD9.jpg
贵阳,贵阳市刘玉智藏报馆,5704067,26.620287,106.867774,0.0,贵阳市刘玉智藏报馆由展馆、收藏馆和仓库组成，馆内收集了许多从清末至今的主流报刊、各地州市县级党报，涵盖了政治、军事、经济、文化、商业、工业、体育等各种专题。,https://dimg04.c-ctrip.com/images/0100s12000csvpeakDFD3.png
贵阳,豚豚庄园动物主题公园,5700654,26.619102,106.742531,4.2,豚豚庄园动物主题公园位于贵阳云岩区万达广场4F，占地面积3000多平方，园内有数十种、上百只活体动物展示。与传统动物园不同，在豚豚庄园您可以与动物零距离接触，可以喂羊驼，摸可爱的小浣能，与鸟儿嬉戏。是一个集科普、教育、休闲于一体的沉浸式室内动物园。,https://dimg04.c-ctrip.com/images/0100x12000f6q8b2o9302.jpg
贵阳,贵州财经大学花溪校区-票据博物馆,5704081,26.377538,106.640271,0.0,贵州财经大学票据博物馆是一家以票据命名的专题博物馆，目前共有各类票据百余种、万余件，包括了从中国古代到新社会各个历史时期的各种票据，集中展示了我国历史上的部分股票、粮票、钱币和人民币。,https://dimg04.c-ctrip.com/images/0HJ2212000g37gaa11431.jpg
贵阳,优翼飞行滑翔伞基地(花溪云顶),5589363,26.274383,106.839592,0.0,翔虹滑翔伞飞行基地位于贵州省贵阳市花溪区云顶高坡翔虹滑翔伞飞行基地（云顶滑雪场内），基地有专业的教练，设备齐全，是爱冒险者的天堂。,https://dimg04.c-ctrip.com/images/35081700000112kteCE3A.jpg
贵阳,白云仙居水上乐园,5590439,26.729334,106.637273,0.0,白云仙居水上乐园位于贵州省贵阳市白云区高坡村 白云仙居田园综合体，水上乐园大闯关，各种水上体验项目等你来，是您休闲娱乐好去处。,https://dimg04.c-ctrip.com/images/10041d000001ee2dfDBFF.png
贵阳,贵州多彩名人蜡像馆,5603343,26.529627,106.790044,4.3,贵州多彩名人蜡像馆内共分娱乐明星区、政治风云区、企业财富区、好莱坞区、漫威英雄区、奇趣动漫区、红色印记区、奇幻森林区、民俗非遗区、少数民族舞台演艺区10大区域。在多彩名人蜡像馆内你可以穿上服装与不同的蜡像场景拍照互动，给你看得见能体验的梦幻般场景，来贵阳多彩城名人蜡像馆给你不一样的蜡像体验，更有贵州本地特色场景文化让你体验贵宾之感。可以与复联英雄同台竟技，也可以是斧头帮的大佬，甚至和外星人喝次茅台酒，这里100多位名人明星人物都是你的配角，而你是这里的主角。,https://dimg04.c-ctrip.com/images/35041700000111cyo9123.jpg
贵阳,公园中路,4572010,26.554772,106.678307,0.0,这条街道两旁绿树成荫，环境优美，是市民休闲散步的好去处。,https://dimg04.c-ctrip.com/images/fd/tg/g1/M06/FC/24/CghzflW7H_iATdynAAA-FlXAIeA738.jpg
贵阳,金山寺,4618730,26.726777,106.687636,0.0,金山寺位于白云区，新修建的建筑包括大殿、斋房、住房，寺内塑有神像，全部装金。新修山门二道，近年来，每年三次观音会办会期间，上山朝拜的四众弟子不计其数，金山寺香火日趋旺盛。,https://dimg04.c-ctrip.com/images/fd/tg/g1/M08/FC/24/CghzflW7IACAHgzUAAAvGcMqieg905.jpg
贵阳,贵铝影剧院,4627390,26.691428,106.654882,0.0,该剧院拥有先进的音响灯光设备和舒适的座椅，是当地居民休闲娱乐的好去处。,https://dimg04.c-ctrip.com/images/0104r12000czou43qA690.jpg
贵阳,科技成果展,4627420,26.620391,106.647391,0.0,科技成果展位于贵阳科技大厦一层。该馆作为西南地区一个区县级展馆，展示区内2家院所和9家企业的多项科技创新成果。,https://dimg04.c-ctrip.com/images/fd/tg/g2/M02/AE/60/CghzgFW7IAOAEslQAAA_0sCVZfg527.jpg
贵阳,贵州警察学院-校史陈列馆,2537818,26.553053,106.775643,5.0,该陈列馆通过丰富的图文资料、实物展示和多媒体互动等形式，向参观者详细介绍了学院的历史沿革、教育教学、科研成果、校园文化和社会服务等方面的内容。,https://dimg04.c-ctrip.com/images/fd/tg/g2/M02/C5/09/Cghzf1W7IBCAU1soAAA1rXNRb5g042.jpg
贵阳,八路军贵阳办事处旧址,4618656,26.579491,106.715477,0.0,八路军贵阳办事处旧址租用的是现贵阳市民生路的两幢2层木结构民居院落，占地面积约600平方米，建筑面积约920平方米，是当时中共中央南方局设立的贵阳工作站。,https://dimg04.c-ctrip.com/images/0101312000c19y5k9AD8F.jpg
贵阳,燕隼公园,4618681,26.599515,106.760392,0.0,燕隼公园，是中天未来方舟呈现给业主的一座休闲城市公园，由于燕隼时常盘旋于此，因此而得名。,https://dimg04.c-ctrip.com/images/0HJ6w12000g8rnqp2A556.jpg
贵阳,大成殿,4618614,26.467447,106.677795,0.0,,https://dimg04.c-ctrip.com/images/0105912000a51v25qEE9F.jpg
贵阳,遵义市凤岗县玛瑙群,65183625,26.505316,106.716408,5.0,,https://dimg04.c-ctrip.com/images/0105t12000a4lqlorCFB3.png
贵阳,古镇藏石馆,4618583,26.333579,106.688457,5.0,布依族“奇石大王”杨晓红女士将个人藏石在青岩建馆收藏，起名为“青岩古镇藏石馆”，为古镇的自然文化增色不少，馆内藏品众多，种类丰富，有矿石、水晶、石英、石膏等。,https://dimg04.c-ctrip.com/images/0103z120009ayinci1ECC.png
贵阳,中八农场,3333137,26.502105,106.498476,5.0,,https://dimg04.c-ctrip.com/images/0102p12000cq7fqanA358.jpg
贵阳,东升公园,4618729,26.674011,106.642739,0.0,这里是位于贵阳白云区的东升公园，环境非常漂亮舒适，居民休闲的好去处。可以锻炼，溜娃。,https://dimg04.c-ctrip.com/images/0HJ0q12000g90ft4iCED2.jpg
贵阳,贵阳儿童剧场,4619359,26.565943,106.705444,0.0,贵阳儿童剧场位于贵阳市南明区，剧院打造的大型环保儿童人偶剧《威力熊生日大冒险》很受欢迎，这是个专为儿童打造的剧场，以弘扬中国传统文化为宗旨。,https://dimg04.c-ctrip.com/images/fd/tg/g1/M0B/AE/87/CghzfVW7IAaAJGP4AAA0UwxYU3A867.jpg
贵阳,财神殿,4618661,26.593986,106.691854,0.0,财神殿位于弘福寺内，该建筑朱墙碧瓦，恢宏巍峨，蔚为壮观，十分受欢迎。,https://dimg04.c-ctrip.com/images/0106t12000gcou8s6BBB7.jpg
贵阳,贵州城文工业遗产博物馆,4618611,26.502209,106.690059,0.0,贵州城文工业遗产博物馆主要收集、整理、展示了贵州跨度百年的工业记忆与工业历史，藏品包括生产设备、生产工具实物展示、档案及文献资料等。,https://dimg04.c-ctrip.com/images/0104x12000cf9x5hw8400.jpg
贵阳,龙里大草原度假中心,67829747,26.562799,106.730094,0.0,龙里大草原度假中心位于贵阳，在这里，人们不仅可以欣赏迷人的草原风光，还可以骑马、射箭和放风筝，非常有趣。,https://dimg04.c-ctrip.com/images/0HJ3g12000g2uxim5CED1.jpg
贵阳,陇脚村,1713471,26.776035,106.919383,0.0,,https://dimg04.c-ctrip.com/images/100n0n000000e12onA8C3.jpg
贵阳,贵州商学院-图书馆,3590787,26.725428,106.627947,0.0,,https://dimg04.c-ctrip.com/images/0101312000d13otqx0B92.jpg
贵阳,四方金街文化广场,4619432,26.68741,106.64941,0.0,这个文化广场位于贵阳市白云区，环境干净整洁，绿树成荫。广场内设有多个健身器材和运动场地，如跑步道、篮球场、乒乓球桌等是一个放松身心的好地方。,https://dimg04.c-ctrip.com/images/0HJ4u12000g2wfa0b53C0.jpg
贵阳,大龙滩生态湿地公园,4628728,26.649196,106.7707,0.0,大龙滩生态湿地公园位于贵阳市乌当区，占地面积七千多平米，有九折桥、龙泉、环溪素月泉、鹊桥、景亭等景点，景色优美。,https://dimg04.c-ctrip.com/images/0100l12000a4p744mFDDF.png
贵阳,贵州京剧院,4627177,26.585141,106.712067,0.0,该剧院拥有众多各流派演员和编剧、导演、唱腔设计、舞台美术等方面的人才，是一处精英荟萃、实力雄厚的京剧艺术表演团体。,https://dimg04.c-ctrip.com/images/0106s12000cfb3vejB101.jpg
贵阳,1958文化创意园-3号表演点,65964118,26.529846,106.791683,4.0,,https://dimg04.c-ctrip.com/images/0103u12000a4i3h2164C3.jpg
贵阳,松林公园,4618690,26.60714,106.639124,0.0,松林公园是一个绿树成荫、环境优美的城市休闲公园。园内有许多适合低幼宝宝的游乐项目，游玩设施先进。,https://dimg04.c-ctrip.com/images/0HJ6012000g666n4q6A8F.jpg
贵阳,星月湖公园,4618604,26.465939,106.516331,0.0,星月湖公园形成了“三湾六岛九桥”的景观格局，充分利用了“水”元素，打造多种亲水空间，为市民提供了具有趣味性、观赏性、独特性的活动空间。,https://dimg04.c-ctrip.com/images/0100212000963fups2D68.png
贵阳,财神庙,4618582,26.330101,106.688591,0.0,,https://dimg04.c-ctrip.com/images/0106k12000cswqmrr2CBA.webp
贵阳,灵升阁,4618680,26.560051,106.737169,0.0,灵升阁位于南明区青年东路与油榨街交叉路口附近。这是一座古老的佛教寺庙，历史悠久，风景优美。,https://dimg04.c-ctrip.com/images/0HJ4h12000g90jsnoB3D2.jpg
贵阳,中天花园森林广场,4619419,26.616975,106.732334,0.0,中天花园森林广场的面积非常大，各个功能区划分得很合理，设施完善，是运动锻炼的好去处。,https://dimg04.c-ctrip.com/images/fd/tg/g1/M07/FC/25/CghzflW7IASANUuCAAAtJkkq6KA204.jpg
贵阳,冷水鱼度假村,4619444,26.70569,106.490065,0.0,冷水鱼度假村有丰富的自然景观，如清澈的山泉、茂密的森林等景点。度假区设有垂钓区、户外烧烤区、徒步小径以及提供地道农家菜的餐厅。,https://dimg04.c-ctrip.com/images/fd/tg/g1/M04/FC/25/CghzflW7IA6AKGPbAAA4x2Gv3VY561.jpg
贵阳,新阳光健身中心游泳馆,69510075,26.608667,106.623185,5.0,新阳光健身中心游泳馆位于睿力上城小区内，游泳馆设施齐全，泳池可见阳光，水质干净。,https://dimg04.c-ctrip.com/images/0106n12000axaxnesC9CD.jpg
贵阳,贵阳演艺集团艺术剧院,3690266,26.581105,106.711014,0.0,该剧院是集演出、排练、培训于一体的综合性艺术场所，可承办各类大型文艺演出。,https://dimg04.c-ctrip.com/images/0100o12000brrn7op09D1.png
贵阳,白龙禅寺,4618615,26.520258,106.790424,0.0,该寺庙地处贵阳市南明区小碧乡甘庄村。寺庙内一棵百年古香樟耸立在院中央 ，寺内还有大雄宝殿、 五观堂 、寺院禅房等。寺庙周围环境优美，给人一种宁静的感觉。,https://dimg04.c-ctrip.com/images/0105r12000970ww0y3976.png
贵阳,贵阳市馨悦卡丁车俱乐部,69495483,26.612439,106.606787,0.0,,https://dimg04.c-ctrip.com/images/0105l120009gumgx8325D.png
贵阳,日月圆博物馆,2537976,26.601528,106.714985,0.0,"日月圆博物馆坐落于贵阳市云岩区的金仓路，2008年建馆。几扇镶金红色大门，盘着金龙的红柱子，龙身上的灰尘呈几分沧桑。抬头看见""日月圆博物馆""匾额，顿悟这身装扮后的内容。收购藏品1600余件，藏品内容包罗万象，从陶器、瓷器、铜器、石雕石刻到古字画、古代服饰、木制家具乃至史前化石。",https://dimg04.c-ctrip.com/images/0HJ2a12000g74334aD696.jpg
贵阳,节庆街,4615681,26.528594,106.788553,0.0,这是一个以节庆文化为主题开发的商业街区，从建筑、民俗、民族非物质文化遗产等角度全方位展示贵州风情。,https://dimg04.c-ctrip.com/images/0100h12000ct5isev6E90.jpg
贵阳,贵州民族图书馆,2696815,26.568287,106.712634,0.0,该馆占地面积广，环境建设采用民族化、现代化与人文化相结合的风格，设有书刊阅览室、电子阅览室、民族文献特藏室等，是读者学习与休闲相结合的理想场所。,https://dimg04.c-ctrip.com/images/fd/tg/g1/M01/AF/63/CghzfFW7IASAT10JAAA6hcRCmrA034.jpg
贵阳,怡苑中心广场,4619421,26.609805,106.731448,0.0,广场内绿树成荫，有喷泉、雕塑和休闲座椅等设施。此外，广场还经常举办各种文化活动和节庆庆典，增添了广场的活力和吸引力。,https://dimg04.c-ctrip.com/images/fd/tg/g1/M07/FC/25/CghzflW7IASANUuCAAAtJkkq6KA204.jpg
贵阳,中和宝霖广场,4619345,26.592193,106.628263,0.0,中和宝霖广场位于贵阳市观山湖成熟商圈核心位置，含高层住宅、写字楼、酒店、商业购物中心等综合业态。,https://dimg04.c-ctrip.com/images/010451200097pstzbF216.png
贵阳,黑七密室(银座店),3665146,26.577339,106.71569,0.0,,https://dimg04.c-ctrip.com/images/0106o12000d13ebpj40A9.jpg
贵阳,观山湖生态温泉游泳度假村,4619402,26.613158,106.572615,1.0,观山湖生态温泉游泳度假村位于观山湖区西南商贸城附近，是集美食、游泳、水上乐园、温泉为一体的度假休闲地。,https://dimg04.c-ctrip.com/images/0103b12000f6tbpcj6215.png
贵阳,双人山公园,4627158,26.679584,106.611411,0.0,双人山公园位于白云区，这里交通方便，环境优美，植被覆盖率高，是当地居民休闲放松的好去处。,https://dimg04.c-ctrip.com/images/fd/tg/g2/M02/C5/07/Cghzf1W7H_mAOouUAAA0-J5t66I153.jpg
贵阳,太平路,64454386,26.581838,106.71148,5.0,太平路街道两旁是充满了艺术性的涂鸦墙，有韩剧风、小清新、古典风等，各个角度都可以拍到好看的照片。这里还有奶茶、咖啡、汉堡等各具风格的店铺，人们可以在这里品尝各种美食，非常惬意放松。,https://dimg04.c-ctrip.com/images/1me1m12000awe8z750D1C.jpg
贵阳,贵州金石亿隆自然博物馆,67609004,26.483517,106.631676,0.0,贵州金石亿隆自然博物馆内有奇石馆、化石馆、水墨中国主题馆、木雕馆，还设有 “发现贵州”文创体验区，馆内的藏品非常丰富。,https://dimg04.c-ctrip.com/images/0103m12000cf97347FCF7.jpg
贵阳,贵阳温泉度假村,4628649,26.612773,106.572863,0.0,度假村被青山绿水环绕，环境清幽，周围很安静，房间内的设施完善，还可以泡温泉，是和家人一起度假的好地方。,https://dimg04.c-ctrip.com/images/0100112000a4lptrjEC92.png
贵阳,贵州龙海洋皇宫,4615684,26.56886,106.714645,0.0,该酒店拥有全新的现代化科技手段、岁月沉淀的品牌力量和独特的品牌立意，是当地的一家具有较高知名度和美誉度的民营企业集团。,https://dimg04.c-ctrip.com/images/0105x12000hf94v599A84.jpg
贵阳,百花湖阳光度假中心,69289826,26.655918,106.540275,0.0,百花湖阳光度假中心位于贵阳市观山湖区朱昌镇，这里有着像千岛湖一样的层层岛屿，人们可以在这里乘坐大船或是快艇游览湖景，还可以在这里拍照或者野餐。,https://dimg04.c-ctrip.com/images/0102z12000ct3j93n1015.jpg
贵阳,金翠湖休闲度假山庄,4626707,26.54768,106.78135,0.0,度假山庄内既有休闲广场，又有会议室、茶楼、室内健身房、室外运动场，是休闲度假的好去处。,https://dimg04.c-ctrip.com/images/fd/tg/g1/M04/FC/25/CghzflW7IA6AKGPbAAA4x2Gv3VY561.jpg
贵阳,阳明文化广场,5068453,26.556338,106.776028,5.0,该广场占地面积广阔，环境优美。广场内有文化长廊、儿童游乐区和健身设施，适合各年龄层市民游玩休憩。,https://dimg04.c-ctrip.com/images/0102w12000ct4ellpA658.jpg
贵阳,东山电视塔,69291956,26.587025,106.729192,4.0,登上塔顶，极目远眺，能看到十几公里外的金阳，同时，还能在360度旋转观光大厅里俯瞰贵阳全景。,https://dimg04.c-ctrip.com/images/01002120008dakxua9D94.jpg
贵阳,骏驰国际赛车场卡丁车俱乐部,69524141,26.322999,106.680512,0.0,,https://dimg04.c-ctrip.com/images/0HJ1d12000g73v6w8A536.jpg
贵阳,黔灵山动物园,69528477,26.598972,106.696633,4.7,黔灵山动物园位于贵州省贵阳市，是一个适合家庭游览的自然景区，结合了动物观赏和自然风光。动物园坐落在黔灵山公园内，环境优美，绿树成荫，为游客提供亲近自然的机会。园内有多种动物，包括熊猫、猴子、鸟类等，尤其以灵长类动物丰富而闻名。游客可以沿着步道漫步，近距离观察动物习性。动物园设计充分利用自然地形，使动物栖息地与环境和谐共存。园内设有多个观赏点和休息区，方便游客休息和拍照。建议游客穿舒适的步行鞋，并携带水和防晒用品，以便更好地享受游览。黔灵山动物园不仅是观赏动物的好去处，也是享受自然和学习生态知识的理想场所，提供丰富的体验。,https://dimg04.c-ctrip.com/images/0103412000ir9kn18F533.jpg
